{
   "gyms" : {
      "9e75b1542d20466fb1361b3797c700ff.16" : {
         "lng" : 1.096742,
         "lat" : 41.157222,
         "guid" : "9e75b1542d20466fb1361b3797c700ff.16",
         "name" : "Es Forner Mallorquí"
      },
      "961e97c234cb4096a55ab99a87e616cb.16" : {
         "lat" : 41.110521,
         "lng" : 1.144309,
         "name" : "Escut de Vila-seca",
         "guid" : "961e97c234cb4096a55ab99a87e616cb.16"
      },
      "39182b86f37d4e6b87e846d5a6c5fa2f.16" : {
         "lat" : 41.144007,
         "lng" : 1.117533,
         "name" : "Biblioteca Municipal Pere Anguera",
         "guid" : "39182b86f37d4e6b87e846d5a6c5fa2f.16"
      },
      "def1e8477fb64874aed9c4ab766e5113.16" : {
         "lat" : 41.142772,
         "lng" : 1.405742,
         "name" : "unknown",
         "guid" : "def1e8477fb64874aed9c4ab766e5113.16"
      },
      "20c9000ff1a04a92b266f608a12da223.16" : {
         "lat" : 41.08484,
         "lng" : 1.188849,
         "name" : "Skatepark La Caracola",
         "guid" : "20c9000ff1a04a92b266f608a12da223.16"
      },
      "079570357de044d7a2eb40643e60e17f.16" : {
         "lng" : 1.04132,
         "lat" : 41.110662,
         "guid" : "079570357de044d7a2eb40643e60e17f.16",
         "name" : "unknown"
      },
      "26d26bdbd9b34cc0bec975de487b4faf.16" : {
         "lng" : 1.124537,
         "lat" : 41.080692,
         "guid" : "26d26bdbd9b34cc0bec975de487b4faf.16",
         "name" : "unknown"
      },
      "68979e12dbdf486b8782c05623dcbe21.16" : {
         "lng" : 1.201419,
         "lat" : 41.117223,
         "guid" : "68979e12dbdf486b8782c05623dcbe21.16",
         "name" : "Club Futbol Campclar"
      },
      "ae43555fa79b4bd59d7640713b959a8e.16" : {
         "lng" : 1.242637,
         "lat" : 41.110081,
         "guid" : "ae43555fa79b4bd59d7640713b959a8e.16",
         "name" : "Mentitus Scriptum"
      },
      "a54b04a17cbc41e3a5ccf3d8b2bf3c87.16" : {
         "guid" : "a54b04a17cbc41e3a5ccf3d8b2bf3c87.16",
         "name" : "Comella Escultura Natura",
         "lng" : 1.270935,
         "lat" : 41.144152
      },
      "8879b1673ad546b590163f92ff09c620.16" : {
         "lat" : 41.09628,
         "lng" : 1.169873,
         "name" : "Monolito Pineda",
         "guid" : "8879b1673ad546b590163f92ff09c620.16"
      },
      "f073b30a8e474b5e8f8f37333fe072d5.16" : {
         "name" : "unknown",
         "guid" : "f073b30a8e474b5e8f8f37333fe072d5.16",
         "lat" : 41.086135,
         "lng" : 1.098504
      },
      "3517d1c688a146a5a2b2e9a0d8e4baf1.16" : {
         "lng" : 1.412756,
         "lat" : 41.143858,
         "guid" : "3517d1c688a146a5a2b2e9a0d8e4baf1.16",
         "name" : "Casita Mar"
      },
      "bd9fb1949b7143849d6c08fffc41614c.16" : {
         "guid" : "bd9fb1949b7143849d6c08fffc41614c.16",
         "name" : "unknown",
         "lng" : 1.072805,
         "lat" : 41.066794
      },
      "29fd85266e75421db3ca57743d774762.16" : {
         "lat" : 41.151665,
         "lng" : 1.417743,
         "name" : "unknown",
         "guid" : "29fd85266e75421db3ca57743d774762.16"
      },
      "c3dadbed04d649a389acc6d0b4a1ef1f.16" : {
         "name" : "unknown",
         "guid" : "c3dadbed04d649a389acc6d0b4a1ef1f.16",
         "lat" : 41.089398,
         "lng" : 0.946774
      },
      "29338f42d5b346a49f354d86fecf4179.16" : {
         "guid" : "29338f42d5b346a49f354d86fecf4179.16",
         "name" : "unknown",
         "lng" : 1.098503,
         "lat" : 41.081836
      },
      "956bec7d84e54827b0ee5c6a6fc36cb5.16" : {
         "name" : "Polisportiu Municipal Camp Clar",
         "guid" : "956bec7d84e54827b0ee5c6a6fc36cb5.16",
         "lat" : 41.12197,
         "lng" : 1.207586
      },
      "63fe1c27a4a1432bb461cde9b9ec9104.16" : {
         "lat" : 41.073053,
         "lng" : 0.946929,
         "name" : "unknown",
         "guid" : "63fe1c27a4a1432bb461cde9b9ec9104.16"
      },
      "5148bba463d24848811ebed57d8ae7b9.16" : {
         "name" : "Parque Agustí Sardá",
         "guid" : "5148bba463d24848811ebed57d8ae7b9.16",
         "lat" : 41.083896,
         "lng" : 0.960156
      },
      "eb07d2dc21e14b559972e6341ebbfcd6.16" : {
         "guid" : "eb07d2dc21e14b559972e6341ebbfcd6.16",
         "name" : "Camp de futbol de Maspujols",
         "lng" : 1.046171,
         "lat" : 41.179997
      },
      "76213d1cab9f44fcb7356ec1e2340f68.16" : {
         "name" : "unknown",
         "guid" : "76213d1cab9f44fcb7356ec1e2340f68.16",
         "lat" : 41.079019,
         "lng" : 1.124967
      },
      "a969d17b1ca848a8a0d16a1c8fa78347.16" : {
         "name" : "unknown",
         "guid" : "a969d17b1ca848a8a0d16a1c8fa78347.16",
         "lat" : 40.982946,
         "lng" : 0.907941
      },
      "e49bd09d92214ae4b681d9fe827d5a81.11" : {
         "guid" : "e49bd09d92214ae4b681d9fe827d5a81.11",
         "name" : "unknown",
         "lng" : 1.055491,
         "lat" : 41.138897
      },
      "36acd6e7a7834032b0d650d7f16a3245.16" : {
         "guid" : "36acd6e7a7834032b0d650d7f16a3245.16",
         "name" : "unknown",
         "lng" : 1.078836,
         "lat" : 41.064628
      },
      "6d169d8e4ab84825a8b3d121d3c78ecf.16" : {
         "name" : "Parque Maria Martori",
         "guid" : "6d169d8e4ab84825a8b3d121d3c78ecf.16",
         "lat" : 41.088161,
         "lng" : 0.962254
      },
      "1aa3d0e4862e4484b2b385a736cb7173.16" : {
         "name" : "Fes Esport",
         "guid" : "1aa3d0e4862e4484b2b385a736cb7173.16",
         "lat" : 41.120171,
         "lng" : 1.189761
      },
      "5853ba90ad6d4e489a75e40c34c768e0.16" : {
         "lat" : 41.148746,
         "lng" : 1.118851,
         "name" : "San Jos Obrero Playground",
         "guid" : "5853ba90ad6d4e489a75e40c34c768e0.16"
      },
      "998c377f5be54e0db94c35f036f97e55.16" : {
         "name" : "Poema Joan Maragall",
         "guid" : "998c377f5be54e0db94c35f036f97e55.16",
         "lat" : 41.114157,
         "lng" : 1.266241
      },
      "62ba551f946d4368b79d71924a026bb3.16" : {
         "lat" : 41.160406,
         "lng" : 1.105178,
         "name" : "Placa Ferré Revascall",
         "guid" : "62ba551f946d4368b79d71924a026bb3.16"
      },
      "e40698b714774468874cc644cc6e01d9.16" : {
         "name" : "unknown",
         "guid" : "e40698b714774468874cc644cc6e01d9.16",
         "lat" : 41.075807,
         "lng" : 1.140827
      },
      "ce21b69fbbb844c1b9cfa39fde97be80.16" : {
         "lat" : 41.062494,
         "lng" : 0.938717,
         "name" : "unknown",
         "guid" : "ce21b69fbbb844c1b9cfa39fde97be80.16"
      },
      "314d2dbf0c04412eb536e87b6c6e426b.16" : {
         "name" : "unknown",
         "guid" : "314d2dbf0c04412eb536e87b6c6e426b.16",
         "lat" : 41.088821,
         "lng" : 0.955245
      },
      "36f6a4a0bf08462c8b43c942d87d7dd5.16" : {
         "lat" : 41.118777,
         "lng" : 1.19283,
         "name" : "Deessa",
         "guid" : "36f6a4a0bf08462c8b43c942d87d7dd5.16"
      },
      "52207e7f375d4ff2b88560a38622645c.16" : {
         "name" : "Basketball court",
         "guid" : "52207e7f375d4ff2b88560a38622645c.16",
         "lat" : 41.077049,
         "lng" : 1.092306
      },
      "9a10b316a7ec4fc198b9c9625007cf9e.16" : {
         "name" : "Passeig Arqueològic",
         "guid" : "9a10b316a7ec4fc198b9c9625007cf9e.16",
         "lat" : 41.11857,
         "lng" : 1.254948
      },
      "e4cb2f13fffd4c7bb4489b9dc9bdaad1.16" : {
         "guid" : "e4cb2f13fffd4c7bb4489b9dc9bdaad1.16",
         "name" : "Homenaje A La Escuela Del Ponent",
         "lng" : 1.206652,
         "lat" : 41.118991
      },
      "678b63c50fcf4dca97b8758a8f798c57.11" : {
         "lng" : 1.105318,
         "lat" : 41.157702,
         "guid" : "678b63c50fcf4dca97b8758a8f798c57.11",
         "name" : "Fortuny (Condesito)"
      },
      "7b2f56a864b64001be132b551534ed23.16" : {
         "lat" : 41.075651,
         "lng" : 1.132612,
         "name" : "Casa Bonet",
         "guid" : "7b2f56a864b64001be132b551534ed23.16"
      },
      "c0f777a9e8024badbb7b9af759f4502e.16" : {
         "guid" : "c0f777a9e8024badbb7b9af759f4502e.16",
         "name" : "Casa Mallol",
         "lng" : 1.247949,
         "lat" : 41.126512
      },
      "9cf85fd7458a4cb79fc1b6605481fbd4.16" : {
         "name" : "La Fassina",
         "guid" : "9cf85fd7458a4cb79fc1b6605481fbd4.16",
         "lat" : 41.136019,
         "lng" : 1.375943
      },
      "84c08e0161ad4b5a8c0bffbc98100b30.16" : {
         "name" : "unknown",
         "guid" : "84c08e0161ad4b5a8c0bffbc98100b30.16",
         "lat" : 41.064546,
         "lng" : 1.058686
      },
      "8f0590b4e9844a30adf1c676cb4a6c5b.16" : {
         "lng" : 1.108453,
         "lat" : 41.193545,
         "guid" : "8f0590b4e9844a30adf1c676cb4a6c5b.16",
         "name" : "unknown"
      },
      "71e8e3afd61247028659511b5985b027.16" : {
         "lat" : 41.104034,
         "lng" : 1.021937,
         "name" : "Jarrón de los Dragones",
         "guid" : "71e8e3afd61247028659511b5985b027.16"
      },
      "e3a2b39c1292499d96d8d8e5be897f5e.16" : {
         "lng" : 1.200602,
         "lat" : 41.192809,
         "guid" : "e3a2b39c1292499d96d8d8e5be897f5e.16",
         "name" : "unknown"
      },
      "93a98e9fa9a64d18802537099d6d63a6.16" : {
         "name" : "unknown",
         "guid" : "93a98e9fa9a64d18802537099d6d63a6.16",
         "lat" : 41.058292,
         "lng" : 0.925492
      },
      "31f532b253094224983edabc9b207084.16" : {
         "lat" : 41.072689,
         "lng" : 1.179219,
         "name" : "Home I Dofi",
         "guid" : "31f532b253094224983edabc9b207084.16"
      },
      "d36ff1662af14548ad33bc78bac0d5d1.16" : {
         "name" : "Motor Vell",
         "guid" : "d36ff1662af14548ad33bc78bac0d5d1.16",
         "lat" : 41.133074,
         "lng" : 1.244384
      },
      "8a527a0617b24ed481d8e1d3dc7d941a.16" : {
         "lng" : 1.184041,
         "lat" : 41.079723,
         "guid" : "8a527a0617b24ed481d8e1d3dc7d941a.16",
         "name" : "Tourist Information La Pineda"
      },
      "26dd29dffa464fed860db78604751f02.16" : {
         "lng" : 0.940013,
         "lat" : 41.041387,
         "guid" : "26dd29dffa464fed860db78604751f02.16",
         "name" : "unknown"
      },
      "491d377488a84aa7a288df7b8fcb79a7.16" : {
         "lat" : 41.083328,
         "lng" : 1.187501,
         "name" : "Mirador del Parc dels Prats",
         "guid" : "491d377488a84aa7a288df7b8fcb79a7.16"
      },
      "f2d2a7cfd1864f8e965c4de5a1b8c284.16" : {
         "name" : "unknown",
         "guid" : "f2d2a7cfd1864f8e965c4de5a1b8c284.16",
         "lat" : 41.076445,
         "lng" : 1.177633
      },
      "446a2e0b225040f38f36eeb52e10831e.16" : {
         "lng" : 1.176486,
         "lat" : 41.07176,
         "guid" : "446a2e0b225040f38f36eeb52e10831e.16",
         "name" : "unknown"
      },
      "6eb01eeac9bc4b2cb0741b8d1aff0ca4.16" : {
         "guid" : "6eb01eeac9bc4b2cb0741b8d1aff0ca4.16",
         "name" : "unknown",
         "lng" : 1.209234,
         "lat" : 41.194427
      },
      "e03ec6e21dd74a2f981b1a3c345bd935.16" : {
         "lng" : 1.132134,
         "lat" : 41.073871,
         "guid" : "e03ec6e21dd74a2f981b1a3c345bd935.16",
         "name" : "Nautilus"
      },
      "69ce91f7b43a4e088c8814c7b3e4758c.16" : {
         "lng" : 1.204718,
         "lat" : 41.117183,
         "guid" : "69ce91f7b43a4e088c8814c7b3e4758c.16",
         "name" : "Casal Cvic"
      },
      "986779dcbbad4604904af7c1649a3844.16" : {
         "lat" : 41.130071,
         "lng" : 1.203009,
         "name" : "Le Bufalo",
         "guid" : "986779dcbbad4604904af7c1649a3844.16"
      },
      "a4229cd9222b456db9e989f8b3d952a4.16" : {
         "guid" : "a4229cd9222b456db9e989f8b3d952a4.16",
         "name" : "Zona de Jocs Infantils de la Part Alta",
         "lng" : 1.134776,
         "lat" : 41.216671
      },
      "291bc06963314f908858b1ac9248d84e.16" : {
         "lng" : 1.09402,
         "lat" : 41.136644,
         "guid" : "291bc06963314f908858b1ac9248d84e.16",
         "name" : "Area De Juegos"
      },
      "aa74774cce0d4954a24c47fdcd786ddf.16" : {
         "guid" : "aa74774cce0d4954a24c47fdcd786ddf.16",
         "name" : "Estacio De Cambrils",
         "lng" : 1.052937,
         "lat" : 41.069392
      },
      "ed2c76f6fd264b118692d117ddd78049.16" : {
         "guid" : "ed2c76f6fd264b118692d117ddd78049.16",
         "name" : "Necrpolis Paleocristiana",
         "lng" : 1.238475,
         "lat" : 41.115953
      },
      "c9e2198f7f5c4e2eb3232ffad5b10a72.16" : {
         "lng" : 1.270612,
         "lat" : 41.166107,
         "guid" : "c9e2198f7f5c4e2eb3232ffad5b10a72.16",
         "name" : "unknown"
      },
      "81a2f2ac026545148334f72b26500c4e.16" : {
         "name" : "unknown",
         "guid" : "81a2f2ac026545148334f72b26500c4e.16",
         "lat" : 41.056062,
         "lng" : 1.16075
      },
      "cd7c23effbda4f628876fda252559674.16" : {
         "lat" : 41.08127,
         "lng" : 1.134027,
         "name" : "Passeig 30 D'octubre",
         "guid" : "cd7c23effbda4f628876fda252559674.16"
      },
      "cb53c158d3094daba15128e8f5332c11.16" : {
         "guid" : "cb53c158d3094daba15128e8f5332c11.16",
         "name" : "La Fumera",
         "lng" : 1.114122,
         "lat" : 41.151935
      },
      "6ee8bc2ba8fd44a89b0793c8cdfdfd81.16" : {
         "guid" : "6ee8bc2ba8fd44a89b0793c8cdfdfd81.16",
         "name" : "Parc del Trenet",
         "lng" : 1.249784,
         "lat" : 41.137269
      },
      "f50aa1ce5e8244a4bb25db375f0d0ffe.16" : {
         "name" : "Hot Dog",
         "guid" : "f50aa1ce5e8244a4bb25db375f0d0ffe.16",
         "lat" : 41.160604,
         "lng" : 1.107742
      },
      "84002c338177451682a3759ad8364bf4.16" : {
         "lng" : 1.130378,
         "lat" : 41.089279,
         "guid" : "84002c338177451682a3759ad8364bf4.16",
         "name" : "unknown"
      },
      "8b88a57f43c044acba7b58f7ce2db37b.16" : {
         "guid" : "8b88a57f43c044acba7b58f7ce2db37b.16",
         "name" : "Restaurant Mirall D'Estiu",
         "lng" : 1.305485,
         "lat" : 41.129298
      },
      "fe34b1a8e2354e4baf869d697a13486f.16" : {
         "guid" : "fe34b1a8e2354e4baf869d697a13486f.16",
         "name" : "Gym Adultos",
         "lng" : 1.178389,
         "lat" : 41.079856
      },
      "a742460ad29e4e0f9183e481c1466a10.16" : {
         "name" : "unknown",
         "guid" : "a742460ad29e4e0f9183e481c1466a10.16",
         "lat" : 41.005616,
         "lng" : 0.924692
      },
      "df676c176629404d85f81c6c97a0d2ae.16" : {
         "lat" : 41.078664,
         "lng" : 1.113586,
         "name" : "unknown",
         "guid" : "df676c176629404d85f81c6c97a0d2ae.16"
      },
      "ae5666b6cbb04b3e91f9b8751aa024ca.16" : {
         "name" : "Cal Figuerola",
         "guid" : "ae5666b6cbb04b3e91f9b8751aa024ca.16",
         "lat" : 41.119932,
         "lng" : 1.004012
      },
      "e603a75501254bd4a23ed5c6e18d0cc1.16" : {
         "name" : "Pérgola de la playa de L'Hospitalet",
         "guid" : "e603a75501254bd4a23ed5c6e18d0cc1.16",
         "lat" : 40.989424,
         "lng" : 0.920851
      },
      "18d2025534ae47b087a3abef0da55928.16" : {
         "guid" : "18d2025534ae47b087a3abef0da55928.16",
         "name" : "unknown",
         "lng" : 0.929921,
         "lat" : 41.061587
      },
      "95c608674c1842b196604b5ffec3658d.16" : {
         "lat" : 41.080776,
         "lng" : 1.106542,
         "name" : "unknown",
         "guid" : "95c608674c1842b196604b5ffec3658d.16"
      },
      "70ccf59db48844bc92ffe57a3110d661.16" : {
         "name" : "unknown",
         "guid" : "70ccf59db48844bc92ffe57a3110d661.16",
         "lat" : 41.055948,
         "lng" : 1.171859
      },
      "2805c466244f4368a12877d5ad2daf7e.16" : {
         "lng" : 1.240948,
         "lat" : 41.111094,
         "guid" : "2805c466244f4368a12877d5ad2daf7e.16",
         "name" : "Poliesportiu Del Serrallo"
      },
      "34681d8da93e463681226e4059b8b478.11" : {
         "name" : "Escultura de L'avi Virgili",
         "guid" : "34681d8da93e463681226e4059b8b478.11",
         "lat" : 41.114931,
         "lng" : 1.254163
      },
      "01a7519b7d1f44feafba94abb96ddeb6.16" : {
         "lat" : 41.163226,
         "lng" : 1.112514,
         "name" : "Mas Sabater",
         "guid" : "01a7519b7d1f44feafba94abb96ddeb6.16"
      },
      "8b01e5430df54f89b58d6a0e0437052e.16" : {
         "guid" : "8b01e5430df54f89b58d6a0e0437052e.16",
         "name" : "unknown",
         "lng" : 0.93435,
         "lat" : 40.998574
      },
      "a43fa2ffac764a2a917f9eec69f0f791.16" : {
         "guid" : "a43fa2ffac764a2a917f9eec69f0f791.16",
         "name" : "unknown",
         "lng" : 1.436691,
         "lat" : 41.154697
      },
      "b2f92784939a4a82901c4561ceb42b08.16" : {
         "guid" : "b2f92784939a4a82901c4561ceb42b08.16",
         "name" : "Paso Exclusivo para el Puente",
         "lng" : 1.240202,
         "lat" : 41.146652
      },
      "888c5dc42dc447ebba89c0fb3eb3a1bd.16" : {
         "lat" : 41.080894,
         "lng" : 1.18022,
         "name" : "unknown",
         "guid" : "888c5dc42dc447ebba89c0fb3eb3a1bd.16"
      },
      "9ddd75aa5aa8467998166487e5741269.16" : {
         "guid" : "9ddd75aa5aa8467998166487e5741269.16",
         "name" : "unknown",
         "lng" : 1.022149,
         "lat" : 41.166425
      },
      "2136ab8ec7f342bc8afaa81e78c36e20.16" : {
         "lng" : 1.153815,
         "lat" : 41.091794,
         "guid" : "2136ab8ec7f342bc8afaa81e78c36e20.16",
         "name" : "Gold River"
      },
      "bf4df84136e54c08b6694c2c9b534460.16" : {
         "guid" : "bf4df84136e54c08b6694c2c9b534460.16",
         "name" : "unknown",
         "lng" : 1.392741,
         "lat" : 41.152466
      },
      "8c28618d3c734622a7e16331efa8e5d9.16" : {
         "lat" : 41.164687,
         "lng" : 1.362089,
         "name" : "Campanar La Riera",
         "guid" : "8c28618d3c734622a7e16331efa8e5d9.16"
      },
      "882fb171dfa34f4196c430e5c51e40c4.16" : {
         "lng" : 0.922908,
         "lat" : 40.990381,
         "guid" : "882fb171dfa34f4196c430e5c51e40c4.16",
         "name" : "AXA"
      },
      "8dd5b29e153c405caa8f2fd19d886625.16" : {
         "lat" : 41.075141,
         "lng" : 1.117299,
         "name" : "unknown",
         "guid" : "8dd5b29e153c405caa8f2fd19d886625.16"
      },
      "80be8b52596d4e5aa8e6883c152fd13c.16" : {
         "lng" : 1.175811,
         "lat" : 41.074602,
         "guid" : "80be8b52596d4e5aa8e6883c152fd13c.16",
         "name" : "unknown"
      },
      "bd1be41abbe44fa8a772f76e063761a9.16" : {
         "lat" : 41.132675,
         "lng" : 1.240273,
         "name" : "Antiga Fàbrica Loste",
         "guid" : "bd1be41abbe44fa8a772f76e063761a9.16"
      },
      "9d58e65ae469433da0faffa8b1f33c5e.11" : {
         "lat" : 41.066051,
         "lng" : 1.060326,
         "name" : "Esglesia sant pere",
         "guid" : "9d58e65ae469433da0faffa8b1f33c5e.11"
      },
      "0ce89410425243e09152b08de123b7d2.16" : {
         "name" : "Area Muelles 3d",
         "guid" : "0ce89410425243e09152b08de123b7d2.16",
         "lat" : 41.184972,
         "lng" : 1.205185
      },
      "5a3868e1e4694db8960f7bf3fb08e9b0.16" : {
         "guid" : "5a3868e1e4694db8960f7bf3fb08e9b0.16",
         "name" : "Woody at Entrance",
         "lng" : 1.146145,
         "lat" : 41.086849
      },
      "4eff1ef5fb7f47a5883266fdbc1ffa80.16" : {
         "guid" : "4eff1ef5fb7f47a5883266fdbc1ffa80.16",
         "name" : "unknown",
         "lng" : 1.13937,
         "lat" : 41.113671
      },
      "e11e85c4611143a7aa0f182eccc90b56.16" : {
         "lng" : 1.382747,
         "lat" : 41.134769,
         "guid" : "e11e85c4611143a7aa0f182eccc90b56.16",
         "name" : "Palm Park Map Beach"
      },
      "e0fe1d0e01c34993b6e96de8f6d9d254.16" : {
         "name" : "Mural de caminantes",
         "guid" : "e0fe1d0e01c34993b6e96de8f6d9d254.16",
         "lat" : 41.056182,
         "lng" : 1.026482
      },
      "7d3f0715f94240a285afc7c8fdeec373.16" : {
         "lng" : 0.914731,
         "lat" : 40.992367,
         "guid" : "7d3f0715f94240a285afc7c8fdeec373.16",
         "name" : "unknown"
      },
      "8f4c35e24fca4fec8ecdadbaac04afc2.16" : {
         "lng" : 0.949759,
         "lat" : 41.014509,
         "guid" : "8f4c35e24fca4fec8ecdadbaac04afc2.16",
         "name" : "unknown"
      },
      "a07f136cf78649ebaebcf2708e059215.16" : {
         "guid" : "a07f136cf78649ebaebcf2708e059215.16",
         "name" : "Centenari Institut Pere Mata",
         "lng" : 1.08676,
         "lat" : 41.166454
      },
      "689e02d7298d45f7a43d466984398e0a.16" : {
         "lng" : 1.249524,
         "lat" : 41.122721,
         "guid" : "689e02d7298d45f7a43d466984398e0a.16",
         "name" : "unknown"
      },
      "965a10fe375a497d92295978beb07252.16" : {
         "guid" : "965a10fe375a497d92295978beb07252.16",
         "name" : "unknown",
         "lng" : 1.104787,
         "lat" : 41.18841
      },
      "d914eab88f0f4376b9f3f7463e8d87e4.16" : {
         "name" : "unknown",
         "guid" : "d914eab88f0f4376b9f3f7463e8d87e4.16",
         "lat" : 40.9889,
         "lng" : 0.92479
      },
      "304b2430ab024461825671b66063c00c.16" : {
         "name" : "Roserar Joaquima Gallisà i Rueda",
         "guid" : "304b2430ab024461825671b66063c00c.16",
         "lat" : 41.14613,
         "lng" : 1.113246
      },
      "1043017b0ce54c42ad2d9cbbca572777.16" : {
         "guid" : "1043017b0ce54c42ad2d9cbbca572777.16",
         "name" : "unknown",
         "lng" : 1.171135,
         "lat" : 41.062585
      },
      "629f7653c810417bad25d3908151ca7c.16" : {
         "lat" : 40.994197,
         "lng" : 0.9328,
         "name" : "Beach Park",
         "guid" : "629f7653c810417bad25d3908151ca7c.16"
      },
      "cca5cc9e248444fb86e2141aa14e08d4.16" : {
         "lng" : 1.159103,
         "lat" : 41.089838,
         "guid" : "cca5cc9e248444fb86e2141aa14e08d4.16",
         "name" : "Hurakan Condor"
      },
      "3c19498c97bf49809c19855447da5f50.16" : {
         "name" : "unknown",
         "guid" : "3c19498c97bf49809c19855447da5f50.16",
         "lat" : 41.069983,
         "lng" : 1.152939
      },
      "16b99452e4814a9abba4fdd946c528ab.16" : {
         "name" : "Aquum Entrance",
         "guid" : "16b99452e4814a9abba4fdd946c528ab.16",
         "lat" : 41.070188,
         "lng" : 1.176222
      },
      "ecf5ddc5a5054f11860be906f528b278.16" : {
         "name" : "unknown",
         "guid" : "ecf5ddc5a5054f11860be906f528b278.16",
         "lat" : 41.136297,
         "lng" : 1.385775
      },
      "c4c1fa96b2ad4167b21438104300ac49.16" : {
         "lat" : 40.991788,
         "lng" : 0.918059,
         "name" : "Parc San Roc",
         "guid" : "c4c1fa96b2ad4167b21438104300ac49.16"
      },
      "265a2ba3759640eeb64b69c746b0b1d6.16" : {
         "name" : "Cami De Paret-Delgada",
         "guid" : "265a2ba3759640eeb64b69c746b0b1d6.16",
         "lat" : 41.215396,
         "lng" : 1.14049
      },
      "29a030b057be49c59fbb8826aff943b1.16" : {
         "lng" : 1.147749,
         "lat" : 41.076293,
         "guid" : "29a030b057be49c59fbb8826aff943b1.16",
         "name" : "unknown"
      },
      "903b582aba4f43a9a490f7bc6b95dca7.16" : {
         "lng" : 1.218519,
         "lat" : 41.119069,
         "guid" : "903b582aba4f43a9a490f7bc6b95dca7.16",
         "name" : "TGN - Torreforta, Esglsia"
      },
      "cfea692410e04abaa10474229b1d4bc8.16" : {
         "lng" : 1.097875,
         "lat" : 41.078512,
         "guid" : "cfea692410e04abaa10474229b1d4bc8.16",
         "name" : "Juegos Infantiles Vilafortuny "
      },
      "a433e13882884309b8e2171224a38017.12" : {
         "lat" : 41.071122,
         "lng" : 1.179153,
         "name" : "Monumento “Pineda”",
         "guid" : "a433e13882884309b8e2171224a38017.12"
      },
      "b02a676f86614298a6686605c093cbd0.16" : {
         "guid" : "b02a676f86614298a6686605c093cbd0.16",
         "name" : "unknown",
         "lng" : 1.254431,
         "lat" : 41.186816
      },
      "00ecc4670a2a46bcb965192bcda11649.16" : {
         "name" : "Cigne I Gorgona",
         "guid" : "00ecc4670a2a46bcb965192bcda11649.16",
         "lat" : 41.162432,
         "lng" : 1.093293
      },
      "77a7cc9dd03a4c67961a698e44304ef6.16" : {
         "lat" : 41.066912,
         "lng" : 0.976424,
         "name" : "unknown",
         "guid" : "77a7cc9dd03a4c67961a698e44304ef6.16"
      },
      "2f21df27a476412fbb224e24f0c07c34.16" : {
         "lng" : 1.24041,
         "lat" : 41.156273,
         "guid" : "2f21df27a476412fbb224e24f0c07c34.16",
         "name" : "Parc Dels Prefabricats "
      },
      "1943018aed324d33bc6e66db840c2896.16" : {
         "name" : "unknown",
         "guid" : "1943018aed324d33bc6e66db840c2896.16",
         "lat" : 41.078227,
         "lng" : 0.941214
      },
      "fc54f22b0d5341d190169fabf18e6885.16" : {
         "lng" : 1.113192,
         "lat" : 41.137077,
         "guid" : "fc54f22b0d5341d190169fabf18e6885.16",
         "name" : "Plaa de Joan Ferrat i Soler"
      },
      "9aaf3c258eb345509bddc7ede64d9555.16" : {
         "lng" : 1.26578,
         "lat" : 41.165991,
         "guid" : "9aaf3c258eb345509bddc7ede64d9555.16",
         "name" : "unknown"
      },
      "57b2b3fb17b64fddb9044eb3e79111d1.16" : {
         "name" : "Esglesia De L'esperit Sant",
         "guid" : "57b2b3fb17b64fddb9044eb3e79111d1.16",
         "lat" : 41.079928,
         "lng" : 1.179934
      },
      "594af10306da466eba71b72df0269fc3.16" : {
         "name" : "unknown",
         "guid" : "594af10306da466eba71b72df0269fc3.16",
         "lat" : 41.057387,
         "lng" : 1.167494
      },
      "78ae9dd867eb40f7a42a116429d0bbac.16" : {
         "name" : "unknown",
         "guid" : "78ae9dd867eb40f7a42a116429d0bbac.16",
         "lat" : 41.123217,
         "lng" : 0.862995
      },
      "376d3a7fada14a22bac5962a5e9dc4eb.16" : {
         "name" : "Otto Club Zutz",
         "guid" : "376d3a7fada14a22bac5962a5e9dc4eb.16",
         "lat" : 41.12225,
         "lng" : 1.239528
      },
      "6c7c34fe653241099e55192b9b940718.16" : {
         "name" : "Ermita Llorito",
         "guid" : "6c7c34fe653241099e55192b9b940718.16",
         "lat" : 41.135383,
         "lng" : 1.271852
      },
      "e1b4ca5e8ca949f492ef1a824b1d1237.16" : {
         "lat" : 41.065045,
         "lng" : 1.051594,
         "name" : "unknown",
         "guid" : "e1b4ca5e8ca949f492ef1a824b1d1237.16"
      },
      "7c4cfc7f6358404d9e90a746784024fa.16" : {
         "lat" : 41.176459,
         "lng" : 1.328177,
         "name" : "Als Morts En Defensa De Les Llibertats",
         "guid" : "7c4cfc7f6358404d9e90a746784024fa.16"
      },
      "92a80fdd7111406eb40154c2df676f37.16" : {
         "lat" : 41.11898,
         "lng" : 1.245531,
         "name" : "Font de la Imperial",
         "guid" : "92a80fdd7111406eb40154c2df676f37.16"
      },
      "ff21ec0538544e6c82645404f051f8f2.16" : {
         "name" : "unknown",
         "guid" : "ff21ec0538544e6c82645404f051f8f2.16",
         "lat" : 41.113228,
         "lng" : 1.038228
      },
      "7a1c63d7cb444aa880ebd371e0aefd78.16" : {
         "lat" : 41.138855,
         "lng" : 1.402032,
         "name" : "Barco Pirata",
         "guid" : "7a1c63d7cb444aa880ebd371e0aefd78.16"
      },
      "0bb532ecc0f945ffbdd93b4433468237.16" : {
         "lat" : 41.148589,
         "lng" : 1.093446,
         "name" : "Parrquia Immaculada",
         "guid" : "0bb532ecc0f945ffbdd93b4433468237.16"
      },
      "251d589588fd4eed9dfa4b2ca701575d.16" : {
         "guid" : "251d589588fd4eed9dfa4b2ca701575d.16",
         "name" : "Balcó de Tarragona",
         "lng" : 1.27628,
         "lat" : 41.145161
      },
      "05ba8373d7b34b6185bb58d29ab2624d.16" : {
         "lat" : 40.991382,
         "lng" : 0.917354,
         "name" : "unknown",
         "guid" : "05ba8373d7b34b6185bb58d29ab2624d.16"
      },
      "0473bc11a87c4aaf967389720a182db8.16" : {
         "name" : "Grafitty taller",
         "guid" : "0473bc11a87c4aaf967389720a182db8.16",
         "lat" : 41.144175,
         "lng" : 1.107847
      },
      "1106f79253cc4bdd8b319f256e36c423.16" : {
         "lat" : 41.143595,
         "lng" : 1.099764,
         "name" : "Església de Misericòrdia",
         "guid" : "1106f79253cc4bdd8b319f256e36c423.16"
      },
      "0ee74a1ebc244a7199a936fe8a76794e.16" : {
         "lng" : 1.25864,
         "lat" : 41.117984,
         "guid" : "0ee74a1ebc244a7199a936fe8a76794e.16",
         "name" : "Calendar Tree"
      },
      "25dfb858a5384fac88d030c6aedbdcd7.16" : {
         "lng" : 0.940657,
         "lat" : 41.054131,
         "guid" : "25dfb858a5384fac88d030c6aedbdcd7.16",
         "name" : "unknown"
      },
      "08604f84d98a463697f420396dae5186.16" : {
         "lat" : 41.129822,
         "lng" : 1.128874,
         "name" : "Playground Tobogan",
         "guid" : "08604f84d98a463697f420396dae5186.16"
      },
      "c6f3372bbb6f49e2abc7db66ffe684dc.16" : {
         "lat" : 41.217662,
         "lng" : 1.117202,
         "name" : "unknown",
         "guid" : "c6f3372bbb6f49e2abc7db66ffe684dc.16"
      },
      "ebdfb1985b35450f8201157db7233aa0.16" : {
         "name" : "Local Monument",
         "guid" : "ebdfb1985b35450f8201157db7233aa0.16",
         "lat" : 41.16947,
         "lng" : 1.121716
      },
      "fca6332fd37b42b194b38354952afab1.16" : {
         "lng" : 1.208732,
         "lat" : 41.189468,
         "guid" : "fca6332fd37b42b194b38354952afab1.16",
         "name" : "unknown"
      },
      "af7a48e778e74bb8b409b339375cc888.16" : {
         "lat" : 41.152463,
         "lng" : 1.093782,
         "name" : "Grafitti Final Xplosion",
         "guid" : "af7a48e778e74bb8b409b339375cc888.16"
      },
      "35d6a24fb85944dea29540d7b9771f3b.16" : {
         "lat" : 41.057673,
         "lng" : 0.933023,
         "name" : "unknown",
         "guid" : "35d6a24fb85944dea29540d7b9771f3b.16"
      },
      "36ebd5ee50fe4be8a5d40dca4a664c80.16" : {
         "guid" : "36ebd5ee50fe4be8a5d40dca4a664c80.16",
         "name" : "unknown",
         "lng" : 1.370162,
         "lat" : 41.140245
      },
      "c2a8d941df75495ea077b5be4c197e78.16" : {
         "lat" : 41.064066,
         "lng" : 1.048155,
         "name" : "Rosa Dels Vents",
         "guid" : "c2a8d941df75495ea077b5be4c197e78.16"
      },
      "7bddf143216541219b9527cde259d0b4.16" : {
         "guid" : "7bddf143216541219b9527cde259d0b4.16",
         "name" : "unknown",
         "lng" : 0.918266,
         "lat" : 40.989136
      },
      "cd04390298cc4fbf8b0a854f1b0b8b9b.16" : {
         "lng" : 1.03743,
         "lat" : 41.059066,
         "guid" : "cd04390298cc4fbf8b0a854f1b0b8b9b.16",
         "name" : "unknown"
      },
      "eaabc933c6b9407aa3c408a15a259177.16" : {
         "name" : "Parròquia St.Fructuós",
         "guid" : "eaabc933c6b9407aa3c408a15a259177.16",
         "lat" : 41.121185,
         "lng" : 1.252095
      },
      "027df5c277834a60bc40912e99c3a675.16" : {
         "lng" : 1.255739,
         "lat" : 41.191195,
         "guid" : "027df5c277834a60bc40912e99c3a675.16",
         "name" : "En Honor A Joan Rigol"
      },
      "569fc287d1244d489f7de19179e247d6.16" : {
         "guid" : "569fc287d1244d489f7de19179e247d6.16",
         "name" : "Font Lluminosa La Pineda",
         "lng" : 1.180189,
         "lat" : 41.073388
      },
      "918d9801aa5d4f8f9bbd365f8a5869ad.16" : {
         "guid" : "918d9801aa5d4f8f9bbd365f8a5869ad.16",
         "name" : "Iglesia",
         "lng" : 0.923363,
         "lat" : 40.990983
      },
      "d5605f7154174d84b3ff8d2f12d7ae0f.16" : {
         "name" : "Vaixell de Fusta",
         "guid" : "d5605f7154174d84b3ff8d2f12d7ae0f.16",
         "lat" : 41.136958,
         "lng" : 1.117381
      },
      "0b3aab45177549639a08bc917bb40aa6.16" : {
         "name" : "Monument Onze de Setembre",
         "guid" : "0b3aab45177549639a08bc917bb40aa6.16",
         "lat" : 41.151444,
         "lng" : 1.216413
      },
      "c5be64ae0fa14cd9827f820382a1825b.16" : {
         "lng" : 1.176742,
         "lat" : 41.075858,
         "guid" : "c5be64ae0fa14cd9827f820382a1825b.16",
         "name" : "unknown"
      },
      "c1094399749740328cfc800e8c73cbad.11" : {
         "lat" : 41.139038,
         "lng" : 1.051156,
         "name" : "Esglesia de Riudoms",
         "guid" : "c1094399749740328cfc800e8c73cbad.11"
      },
      "c9114b9866584458853d73c0d8434c97.16" : {
         "guid" : "c9114b9866584458853d73c0d8434c97.16",
         "name" : "unknown",
         "lng" : 1.176318,
         "lat" : 41.066324
      },
      "a1658bc2dafa4ac7875356a80f5dde29.16" : {
         "lng" : 1.270604,
         "lat" : 41.16544,
         "guid" : "a1658bc2dafa4ac7875356a80f5dde29.16",
         "name" : "unknown"
      },
      "8e3ae556a86f463c940c79317fc621a5.16" : {
         "lng" : 0.913628,
         "lat" : 40.991406,
         "guid" : "8e3ae556a86f463c940c79317fc621a5.16",
         "name" : "Piscina municipal de L'Hospitalet"
      },
      "49ed1f75d3674707b0648838f3605d6c.16" : {
         "name" : "El Bosc de Ribera",
         "guid" : "49ed1f75d3674707b0648838f3605d6c.16",
         "lat" : 41.12274,
         "lng" : 1.202744
      },
      "df38bc1ac4ed48a7835f500e58337b08.16" : {
         "name" : "Església de Santa Caterina",
         "guid" : "df38bc1ac4ed48a7835f500e58337b08.16",
         "lat" : 41.113753,
         "lng" : 1.039374
      },
      "75f059aa37844781a0bd8fa0d38aef4a.16" : {
         "guid" : "75f059aa37844781a0bd8fa0d38aef4a.16",
         "name" : "Ermita de St. Antoni",
         "lng" : 1.372628,
         "lat" : 41.147825
      },
      "6cb9a478739b4f52beaf6c2647cddb93.16" : {
         "name" : "Església de Constantí",
         "guid" : "6cb9a478739b4f52beaf6c2647cddb93.16",
         "lat" : 41.153902,
         "lng" : 1.212569
      },
      "e5e9e2dbc2be4e49b9fc2b03ea0f0625.16" : {
         "lat" : 41.102808,
         "lng" : 1.021842,
         "name" : "Parc Sama",
         "guid" : "e5e9e2dbc2be4e49b9fc2b03ea0f0625.16"
      },
      "3cfab58137714a8b9bfbf5882a8c0c22.16" : {
         "name" : "gaudi adolescent",
         "guid" : "3cfab58137714a8b9bfbf5882a8c0c22.16",
         "lat" : 41.157049,
         "lng" : 1.108239
      },
      "1cc05620e03344139a7873e13a205502.16" : {
         "name" : "unknown",
         "guid" : "1cc05620e03344139a7873e13a205502.16",
         "lat" : 41.006523,
         "lng" : 0.929415
      },
      "6e856f6b2fca45afb4a2c44fa446169b.16" : {
         "lat" : 41.077058,
         "lng" : 1.182488,
         "name" : "Barco del Parc",
         "guid" : "6e856f6b2fca45afb4a2c44fa446169b.16"
      },
      "f818ce2bcb234231b7e7995fb0bcab34.16" : {
         "guid" : "f818ce2bcb234231b7e7995fb0bcab34.16",
         "name" : "Font De Sant Marti",
         "lng" : 1.376237,
         "lat" : 41.141789
      },
      "8a166874f54f48e9ac3ef25a92990817.16" : {
         "lat" : 41.077365,
         "lng" : 1.108036,
         "name" : "unknown",
         "guid" : "8a166874f54f48e9ac3ef25a92990817.16"
      },
      "a628d1e1ecf84becace3f6eed98d1be7.16" : {
         "guid" : "a628d1e1ecf84becace3f6eed98d1be7.16",
         "name" : "unknown",
         "lng" : 0.947121,
         "lat" : 41.011649
      },
      "2a16dc5f5c6c4cdfa3bf909b9b55c9cc.16" : {
         "guid" : "2a16dc5f5c6c4cdfa3bf909b9b55c9cc.16",
         "name" : "Vaca Meditando",
         "lng" : 1.136691,
         "lat" : 41.156894
      },
      "0b3d7937e76e4ed7b5c4c957ebad7944.16" : {
         "lng" : 1.217266,
         "lat" : 41.12537,
         "guid" : "0b3d7937e76e4ed7b5c4c957ebad7944.16",
         "name" : "Parc L'Albada"
      },
      "2432e20a70584e2f84eaa59b0945ac0d.11" : {
         "guid" : "2432e20a70584e2f84eaa59b0945ac0d.11",
         "name" : "Estació de Trens Renfe de Tarragona",
         "lng" : 1.252862,
         "lat" : 41.111389
      },
      "b3d815e6749d4996a865924032e434f9.16" : {
         "name" : "unknown",
         "guid" : "b3d815e6749d4996a865924032e434f9.16",
         "lat" : 41.06529,
         "lng" : 1.061296
      },
      "fd5128749ec741bdb432f5789d663812.16" : {
         "lng" : 1.056846,
         "lat" : 41.066099,
         "guid" : "fd5128749ec741bdb432f5789d663812.16",
         "name" : "Placa 11 Setembre"
      },
      "62bb33e5a343471e8f4f171d2fb1fb66.16" : {
         "guid" : "62bb33e5a343471e8f4f171d2fb1fb66.16",
         "name" : "unknown",
         "lng" : 1.097673,
         "lat" : 41.079916
      },
      "46f0110864d4459caa1d5228c5327625.16" : {
         "lat" : 41.126669,
         "lng" : 1.253646,
         "name" : "Old Graveyard Door",
         "guid" : "46f0110864d4459caa1d5228c5327625.16"
      },
      "86b0abbd56464df4b0deac390dee9797.16" : {
         "guid" : "86b0abbd56464df4b0deac390dee9797.16",
         "name" : "Kids Playground",
         "lng" : 1.102785,
         "lat" : 41.144332
      },
      "07784a89e63f440a80671496d48740c5.11" : {
         "lng" : 1.123296,
         "lat" : 41.144349,
         "guid" : "07784a89e63f440a80671496d48740c5.11",
         "name" : "Neob-Reus"
      },
      "f2406b08b185479e93d6d8381f20def3.16" : {
         "lng" : 1.214236,
         "lat" : 41.119079,
         "guid" : "f2406b08b185479e93d6d8381f20def3.16",
         "name" : "Monument A Les Ciutats"
      },
      "07062393d5714f0e933e75bb5f577f32.16" : {
         "lng" : 1.389638,
         "lat" : 41.137266,
         "guid" : "07062393d5714f0e933e75bb5f577f32.16",
         "name" : "unknown"
      },
      "42eeeb020482486a8ac7b60246f41555.16" : {
         "name" : "unknown",
         "guid" : "42eeeb020482486a8ac7b60246f41555.16",
         "lat" : 41.190247,
         "lng" : 1.257522
      },
      "629cbe3587f743e2ad2f7b969191b3a2.16" : {
         "name" : "unknown",
         "guid" : "629cbe3587f743e2ad2f7b969191b3a2.16",
         "lat" : 41.107405,
         "lng" : 1.0208
      },
      "b4fcded5fa374ef8b1e7d9e10d77b877.16" : {
         "guid" : "b4fcded5fa374ef8b1e7d9e10d77b877.16",
         "name" : "Sport Park",
         "lng" : 1.135362,
         "lat" : 41.084252
      },
      "5e27d06ed75a43f386a80888db14b1a3.16" : {
         "lng" : 1.153991,
         "lat" : 41.086133,
         "guid" : "5e27d06ed75a43f386a80888db14b1a3.16",
         "name" : "Ellas Las Arañas"
      },
      "6037bc67b2284d3d9fa8d918aa6e69e1.16" : {
         "guid" : "6037bc67b2284d3d9fa8d918aa6e69e1.16",
         "name" : "unknown",
         "lng" : 1.262552,
         "lat" : 41.16203
      },
      "570dfa2de70747d4921b6bc9fa5eb6a6.16" : {
         "guid" : "570dfa2de70747d4921b6bc9fa5eb6a6.16",
         "name" : "unknown",
         "lng" : 1.394798,
         "lat" : 41.132229
      },
      "e3a4ecc797e247739bade976c4f556bc.16" : {
         "lat" : 41.195491,
         "lng" : 1.204794,
         "name" : "unknown",
         "guid" : "e3a4ecc797e247739bade976c4f556bc.16"
      },
      "65b17b1506284411b72bc64367637596.16" : {
         "guid" : "65b17b1506284411b72bc64367637596.16",
         "name" : "Bomba Pou",
         "lng" : 1.042262,
         "lat" : 41.113003
      },
      "9641e313d3ea44f597ce8354fa9921a4.16" : {
         "lat" : 41.071214,
         "lng" : 1.099651,
         "name" : "unknown",
         "guid" : "9641e313d3ea44f597ce8354fa9921a4.16"
      },
      "0e4f617df8954649b2d027ed576cedf4.16" : {
         "guid" : "0e4f617df8954649b2d027ed576cedf4.16",
         "name" : "Ancla Cambrils",
         "lng" : 1.057002,
         "lat" : 41.06406
      },
      "1607a58e239547aa883fd8efd73671b1.16" : {
         "name" : "Apostols",
         "guid" : "1607a58e239547aa883fd8efd73671b1.16",
         "lat" : 41.124185,
         "lng" : 1.238657
      },
      "c85ebcf039ef4fd5a220e4fb165353d1.16" : {
         "name" : "Parc d'Oci del Llorito",
         "guid" : "c85ebcf039ef4fd5a220e4fb165353d1.16",
         "lat" : 41.13498,
         "lng" : 1.271871
      },
      "6dc6965f80f44cbfb7b33ab0e6a491d4.16" : {
         "name" : "Plaa Pau Casals ",
         "guid" : "6dc6965f80f44cbfb7b33ab0e6a491d4.16",
         "lat" : 41.160928,
         "lng" : 1.114294
      },
      "db683871e0934cb6ad2d8de7ea887b66.16" : {
         "lat" : 41.085293,
         "lng" : 0.95804,
         "name" : "unknown",
         "guid" : "db683871e0934cb6ad2d8de7ea887b66.16"
      },
      "3ed5deb1cdba4e91891203b6d56e0adf.16" : {
         "guid" : "3ed5deb1cdba4e91891203b6d56e0adf.16",
         "name" : "Area Infantil Celia Artiga",
         "lng" : 1.088472,
         "lat" : 41.158405
      },
      "0a73445b10784939bc903288232c0bc7.16" : {
         "guid" : "0a73445b10784939bc903288232c0bc7.16",
         "name" : "unknown",
         "lng" : 0.95174,
         "lat" : 41.080411
      },
      "fc120a52f54a4591bb480531448c0777.16" : {
         "name" : "Mas Sed ",
         "guid" : "fc120a52f54a4591bb480531448c0777.16",
         "lat" : 41.146304,
         "lng" : 1.086207
      },
      "7aa52e7371004e95899ccdfb102001cd.16" : {
         "name" : "Dengue Playground",
         "guid" : "7aa52e7371004e95899ccdfb102001cd.16",
         "lat" : 41.148698,
         "lng" : 1.102079
      },
      "b9500c65f7104b7a96055d671353a3be.16" : {
         "guid" : "b9500c65f7104b7a96055d671353a3be.16",
         "name" : "Casa Maria Salas",
         "lng" : 1.255306,
         "lat" : 41.114502
      },
      "0caecbec9a3d4458acdaa3b5729f5f2a.16" : {
         "lat" : 41.164592,
         "lng" : 1.102457,
         "name" : "Estatua Nens Jugant a la plaça Mineta",
         "guid" : "0caecbec9a3d4458acdaa3b5729f5f2a.16"
      },
      "93d5403095b64d9dba88720b99f7185d.16" : {
         "guid" : "93d5403095b64d9dba88720b99f7185d.16",
         "name" : "unknown",
         "lng" : 1.169189,
         "lat" : 41.064072
      },
      "49b285b6189e45b3b9df84dcb37022de.16" : {
         "lng" : 1.22806,
         "lat" : 41.089894,
         "guid" : "49b285b6189e45b3b9df84dcb37022de.16",
         "name" : "Parc Subaquàtic"
      },
      "613388878f1f492dacc04e294108b3be.16" : {
         "guid" : "613388878f1f492dacc04e294108b3be.16",
         "name" : "Plaça de les Pobles",
         "lng" : 1.206305,
         "lat" : 41.186879
      },
      "cc6be42ddb7e4d92a77efa27b8badb27.16" : {
         "guid" : "cc6be42ddb7e4d92a77efa27b8badb27.16",
         "name" : "unknown",
         "lng" : 1.150772,
         "lat" : 41.102975
      },
      "4f5726f492f248d7a100d0e63a876e8f.16" : {
         "name" : "unknown",
         "guid" : "4f5726f492f248d7a100d0e63a876e8f.16",
         "lat" : 41.168625,
         "lng" : 1.272025
      },
      "a90f3bf0223841b687020660f103e55b.16" : {
         "name" : "La Granja De Elmo",
         "guid" : "a90f3bf0223841b687020660f103e55b.16",
         "lat" : 41.086667,
         "lng" : 1.158985
      },
      "0972f80a9c5f4acc934bf76e1d18dc3e.16" : {
         "name" : "Fountain Square",
         "guid" : "0972f80a9c5f4acc934bf76e1d18dc3e.16",
         "lat" : 41.067108,
         "lng" : 1.057113
      },
      "48f8fb1dc38f4b16921406745bd25f4a.16" : {
         "lng" : 1.249526,
         "lat" : 41.139767,
         "guid" : "48f8fb1dc38f4b16921406745bd25f4a.16",
         "name" : "Pavello Municipal de Sant Pere i Sant Pau"
      },
      "55a8a9c9045342859a685a9e16162e4a.16" : {
         "name" : "unknown",
         "guid" : "55a8a9c9045342859a685a9e16162e4a.16",
         "lat" : 41.148351,
         "lng" : 1.401111
      },
      "b28a1d7fce174f45a3fe32ae82cfd0d1.16" : {
         "guid" : "b28a1d7fce174f45a3fe32ae82cfd0d1.16",
         "name" : "estacion vila-seca",
         "lng" : 1.150189,
         "lat" : 41.112632
      },
      "1ef38b2b6c9b4f7ab961f0d3773f7719.16" : {
         "lng" : 1.373395,
         "lat" : 41.141604,
         "guid" : "1ef38b2b6c9b4f7ab961f0d3773f7719.16",
         "name" : "Mural Bibliotecari"
      },
      "2fcf846dcf6448e09edacfee653cbff2.16" : {
         "name" : "Stampida",
         "guid" : "2fcf846dcf6448e09edacfee653cbff2.16",
         "lat" : 41.090121,
         "lng" : 1.156221
      },
      "0d3135e01eca49f0ac9cca4e50cbfeaa.16" : {
         "lat" : 41.147634,
         "lng" : 1.079851,
         "name" : "Dipsit d'Aigua ntic",
         "guid" : "0d3135e01eca49f0ac9cca4e50cbfeaa.16"
      },
      "46475824c5c947ada02ed32582096a70.16" : {
         "lat" : 41.190158,
         "lng" : 1.255189,
         "name" : "Casa De La Vila",
         "guid" : "46475824c5c947ada02ed32582096a70.16"
      },
      "690e531e8c5c4cfab2314db9229c917d.16" : {
         "lng" : 1.257853,
         "lat" : 41.115753,
         "guid" : "690e531e8c5c4cfab2314db9229c917d.16",
         "name" : "Thales mirant les estrelles"
      },
      "62d33df9a6fd456b9ca26972a2ba142c.16" : {
         "lat" : 41.150807,
         "lng" : 1.395199,
         "name" : "unknown",
         "guid" : "62d33df9a6fd456b9ca26972a2ba142c.16"
      },
      "7a0e720f359f475080b51d4379396993.11" : {
         "lat" : 41.146198,
         "lng" : 1.133981,
         "name" : "International Nut and Dried Fruit Council (INC)",
         "guid" : "7a0e720f359f475080b51d4379396993.11"
      },
      "d3e69bdc5eb344fb91c0ac942aaa8303.16" : {
         "guid" : "d3e69bdc5eb344fb91c0ac942aaa8303.16",
         "name" : "unknown",
         "lng" : 0.869843,
         "lat" : 41.13518
      },
      "210aba7af5e54484b7f9f5868d7a0598.16" : {
         "guid" : "210aba7af5e54484b7f9f5868d7a0598.16",
         "name" : "unknown",
         "lng" : 1.216673,
         "lat" : 41.152356
      },
      "8f1e08fa325448e2b589678f7bf8e6d7.16" : {
         "lat" : 41.077478,
         "lng" : 1.149336,
         "name" : "unknown",
         "guid" : "8f1e08fa325448e2b589678f7bf8e6d7.16"
      },
      "f13e03923da248679671230a0ca522fc.16" : {
         "lat" : 40.99972,
         "lng" : 0.934983,
         "name" : "Miami Platja Sirena",
         "guid" : "f13e03923da248679671230a0ca522fc.16"
      },
      "28ed117f8c9a494092eab20403d58661.16" : {
         "lat" : 40.994576,
         "lng" : 0.920008,
         "name" : "unknown",
         "guid" : "28ed117f8c9a494092eab20403d58661.16"
      },
      "051fc2af659e4a3c8183837dd8049c6b.16" : {
         "lng" : 0.946218,
         "lat" : 41.038737,
         "guid" : "051fc2af659e4a3c8183837dd8049c6b.16",
         "name" : "unknown"
      },
      "1496e4653eac40289dd1e7492527273f.16" : {
         "guid" : "1496e4653eac40289dd1e7492527273f.16",
         "name" : "Spiderman Playground",
         "lng" : 1.118151,
         "lat" : 41.156701
      },
      "e9ab37f00dc443e1813bb6c8785cd4bb.16" : {
         "lat" : 41.130489,
         "lng" : 1.361769,
         "name" : "Castell Tamarit",
         "guid" : "e9ab37f00dc443e1813bb6c8785cd4bb.16"
      },
      "f7280d0cc8a64530baef8f03e8c8fd93.16" : {
         "guid" : "f7280d0cc8a64530baef8f03e8c8fd93.16",
         "name" : "La Font",
         "lng" : 0.874518,
         "lat" : 41.157517
      },
      "0a084e983b7b4aefa92192aea31b2e9a.16" : {
         "lng" : 1.119854,
         "lat" : 41.147351,
         "guid" : "0a084e983b7b4aefa92192aea31b2e9a.16",
         "name" : "Verge del Calvari"
      },
      "37b3e5b3eb0341bf9cc7782c3d279590.16" : {
         "lng" : 1.251883,
         "lat" : 41.132358,
         "guid" : "37b3e5b3eb0341bf9cc7782c3d279590.16",
         "name" : "Dipòsits d'Ematsa"
      },
      "7f66ef709768408ba9f84b47994c5cd3.16" : {
         "lng" : 1.133071,
         "lat" : 41.074765,
         "guid" : "7f66ef709768408ba9f84b47994c5cd3.16",
         "name" : "Nautic Club Fountain"
      },
      "a3c11c1132a9482b8b47cc14eb5afb6c.16" : {
         "lat" : 41.142493,
         "lng" : 1.376928,
         "name" : "Pou d'aigua fresca",
         "guid" : "a3c11c1132a9482b8b47cc14eb5afb6c.16"
      },
      "29b766d43c6b42a4adb81ea30d0ce8c6.16" : {
         "guid" : "29b766d43c6b42a4adb81ea30d0ce8c6.16",
         "name" : "Universitat Rovira I Virgili",
         "lng" : 1.249568,
         "lat" : 41.122408
      },
      "a05d687742644abfaeb3bd6633d1aedf.16" : {
         "name" : "unknown",
         "guid" : "a05d687742644abfaeb3bd6633d1aedf.16",
         "lat" : 41.141131,
         "lng" : 1.376841
      },
      "76445f14776549f182f197f73aad838e.16" : {
         "lng" : 1.383319,
         "lat" : 41.138418,
         "guid" : "76445f14776549f182f197f73aad838e.16",
         "name" : "Blue Ocean"
      },
      "13cda0c2945d4cd0a11c006b3e5dfc05.16" : {
         "lng" : 0.935802,
         "lat" : 41.053818,
         "guid" : "13cda0c2945d4cd0a11c006b3e5dfc05.16",
         "name" : "unknown"
      },
      "3a15143bda694052be40fd1c2e3307dd.16" : {
         "guid" : "3a15143bda694052be40fd1c2e3307dd.16",
         "name" : "unknown",
         "lng" : 1.1326,
         "lat" : 41.210788
      },
      "8524fdb18bb74130a6fd0f8b5ee8f718.16" : {
         "guid" : "8524fdb18bb74130a6fd0f8b5ee8f718.16",
         "name" : "Cartells de l'Ecoruta",
         "lng" : 1.242634,
         "lat" : 41.146454
      },
      "9706b16af4e84087948587bed41626ef.16" : {
         "guid" : "9706b16af4e84087948587bed41626ef.16",
         "name" : "Parc Petit",
         "lng" : 1.270474,
         "lat" : 41.113973
      },
      "6bc74a54906f4b7a91d0d4912135b995.16" : {
         "guid" : "6bc74a54906f4b7a91d0d4912135b995.16",
         "name" : "Rosers Del Parc",
         "lng" : 1.139092,
         "lat" : 41.211711
      },
      "c9af080b8d39409ebe028ceaccbc0c6b.11" : {
         "lat" : 41.156389,
         "lng" : 1.085639,
         "name" : "Estadi del Reus Deportiu",
         "guid" : "c9af080b8d39409ebe028ceaccbc0c6b.11"
      },
      "eb86714b599b45c397eafc8ad024793d.16" : {
         "guid" : "eb86714b599b45c397eafc8ad024793d.16",
         "name" : "unknown",
         "lng" : 1.020994,
         "lat" : 41.170751
      },
      "aae8f919c09b4bd89a1c4675edf34708.16" : {
         "guid" : "aae8f919c09b4bd89a1c4675edf34708.16",
         "name" : "unknown",
         "lng" : 1.104288,
         "lat" : 41.081851
      },
      "f17c779078b14b44be0b9aaa2bd63f09.16" : {
         "guid" : "f17c779078b14b44be0b9aaa2bd63f09.16",
         "name" : "Aureli M. Escarré",
         "lng" : 0.964563,
         "lat" : 41.085422
      },
      "b8578b2251724b65b9599b5d075609f2.16" : {
         "lng" : 1.087001,
         "lat" : 41.164344,
         "guid" : "b8578b2251724b65b9599b5d075609f2.16",
         "name" : "Institut Pere Mata"
      },
      "24f25b05dcdf49fdb86ceda4a2b48013.16" : {
         "guid" : "24f25b05dcdf49fdb86ceda4a2b48013.16",
         "name" : "unknown",
         "lng" : 1.134571,
         "lat" : 41.086194
      },
      "41905b340e3d446d9982452a95a33f49.16" : {
         "name" : "Mini Graffiti",
         "guid" : "41905b340e3d446d9982452a95a33f49.16",
         "lat" : 41.145567,
         "lng" : 1.127539
      },
      "1d5fa22a9be94d58b6c8b9e70b549cef.16" : {
         "lat" : 41.116617,
         "lng" : 1.24179,
         "name" : "Restes Del Parc",
         "guid" : "1d5fa22a9be94d58b6c8b9e70b549cef.16"
      },
      "c181cb6f4ad946838fe5f6cd31b792d6.16" : {
         "lat" : 41.083289,
         "lng" : 1.187057,
         "name" : "unknown",
         "guid" : "c181cb6f4ad946838fe5f6cd31b792d6.16"
      },
      "17fa34a8779747289c5e33dda3585775.16" : {
         "name" : "Old Tower",
         "guid" : "17fa34a8779747289c5e33dda3585775.16",
         "lat" : 41.16566,
         "lng" : 1.101972
      },
      "79f78f08be6b405da9e2a0515871c144.16" : {
         "lng" : 1.152094,
         "lat" : 41.117831,
         "guid" : "79f78f08be6b405da9e2a0515871c144.16",
         "name" : "Tanatori Vila-seca"
      },
      "ba5fdc2e7eaa4cd490a1d01842b399f1.16" : {
         "guid" : "ba5fdc2e7eaa4cd490a1d01842b399f1.16",
         "name" : "Pedra-Seca a la Platja",
         "lng" : 1.179433,
         "lat" : 41.066088
      },
      "0b89adc74cae419d9a42dc9cbe20f6c9.16" : {
         "name" : "font del centenari",
         "guid" : "0b89adc74cae419d9a42dc9cbe20f6c9.16",
         "lat" : 41.11748,
         "lng" : 1.184617
      },
      "399193a5b31f4f3bb2d3e514a1d3f3c7.16" : {
         "name" : "unknown",
         "guid" : "399193a5b31f4f3bb2d3e514a1d3f3c7.16",
         "lat" : 41.129087,
         "lng" : 1.346433
      },
      "542471fa83fa473c984f47fc61a9d059.16" : {
         "guid" : "542471fa83fa473c984f47fc61a9d059.16",
         "name" : "Vidal i Barraquer",
         "lng" : 1.244104,
         "lat" : 41.119901
      },
      "dcbe63a4a912443488f9e58c39449539.16" : {
         "lng" : 0.976078,
         "lat" : 41.168528,
         "guid" : "dcbe63a4a912443488f9e58c39449539.16",
         "name" : "Els Porxos"
      },
      "a1ccdaa0e5f44ab7acad7b71982a1748.16" : {
         "name" : "Flor Pompeu Fabra",
         "guid" : "a1ccdaa0e5f44ab7acad7b71982a1748.16",
         "lat" : 41.144733,
         "lng" : 1.405123
      },
      "44bc39b308324c11aa004a8ecb9c5857.16" : {
         "guid" : "44bc39b308324c11aa004a8ecb9c5857.16",
         "name" : "unknown",
         "lng" : 1.365449,
         "lat" : 41.142317
      },
      "c591a08145774d078a3ccc0f13ecfaeb.11" : {
         "guid" : "c591a08145774d078a3ccc0f13ecfaeb.11",
         "name" : "Estacion de Tren de Reus",
         "lng" : 1.100016,
         "lat" : 41.160358
      },
      "c3c9620b4eff437e9f733ace1aa1e51f.16" : {
         "lng" : 1.253203,
         "lat" : 41.139717,
         "guid" : "c3c9620b4eff437e9f733ace1aa1e51f.16",
         "name" : "Monument a la Sardana"
      },
      "085ec3b00d3249c392ce15ad1a97e64c.16" : {
         "guid" : "085ec3b00d3249c392ce15ad1a97e64c.16",
         "name" : "Font de la part Alta",
         "lng" : 1.134825,
         "lat" : 41.215956
      },
      "20a4521ebc6a483ca7451cff7029a5d1.16" : {
         "guid" : "20a4521ebc6a483ca7451cff7029a5d1.16",
         "name" : "Parc Europa",
         "lng" : 1.253363,
         "lat" : 41.138569
      },
      "c59685cafe614c67a47116267ee9bd56.16" : {
         "guid" : "c59685cafe614c67a47116267ee9bd56.16",
         "name" : "Reus Graveyard",
         "lng" : 1.122989,
         "lat" : 41.166949
      },
      "0c7df9479381407f805186018755cec6.16" : {
         "lat" : 41.154038,
         "lng" : 1.100173,
         "name" : "Biblioteca Central Xavier Amorós",
         "guid" : "0c7df9479381407f805186018755cec6.16"
      },
      "1f954da775ea4f64a6a528f1d82ebe4e.16" : {
         "lat" : 41.06688,
         "lng" : 1.176587,
         "name" : "Lotus",
         "guid" : "1f954da775ea4f64a6a528f1d82ebe4e.16"
      },
      "fd4e2ea75e6541c3a58478ecb6040ffa.16" : {
         "lat" : 41.064655,
         "lng" : 1.052917,
         "name" : "pistas voley playa",
         "guid" : "fd4e2ea75e6541c3a58478ecb6040ffa.16"
      },
      "425b209bd5d444b7bf429fc46a74afbc.16" : {
         "lng" : 1.136842,
         "lat" : 41.074531,
         "guid" : "425b209bd5d444b7bf429fc46a74afbc.16",
         "name" : "Water Laberint"
      },
      "4f180b3284ab4bdda688baa30ba85359.16" : {
         "lng" : 1.021387,
         "lat" : 41.172986,
         "guid" : "4f180b3284ab4bdda688baa30ba85359.16",
         "name" : "unknown"
      },
      "4020194e9f6b422fb025b0fe8a9fe219.16" : {
         "lng" : 1.150942,
         "lat" : 41.10767,
         "guid" : "4020194e9f6b422fb025b0fe8a9fe219.16",
         "name" : "unknown"
      },
      "62da33a4b6de43ff81e19d1400b94cb9.16" : {
         "guid" : "62da33a4b6de43ff81e19d1400b94cb9.16",
         "name" : "unknown",
         "lng" : 0.915954,
         "lat" : 41.127381
      },
      "9190ca23d215400a916f50de66b5307a.16" : {
         "lng" : 1.049658,
         "lat" : 41.076216,
         "guid" : "9190ca23d215400a916f50de66b5307a.16",
         "name" : "Parc Pinaret"
      },
      "61cc0093afc8484f856e409fd3ca327d.16" : {
         "name" : "Espai Jove Kesse",
         "guid" : "61cc0093afc8484f856e409fd3ca327d.16",
         "lat" : 41.119775,
         "lng" : 1.246977
      },
      "a95350db2c7a4e89b9d99da0b7176797.16" : {
         "lng" : 1.064261,
         "lat" : 41.066063,
         "guid" : "a95350db2c7a4e89b9d99da0b7176797.16",
         "name" : "Dones Remendadores"
      },
      "1a8dbee1673b433a929e9e9525cc81cd.16" : {
         "lng" : 1.255704,
         "lat" : 41.117288,
         "guid" : "1a8dbee1673b433a929e9e9525cc81cd.16",
         "name" : "Plaça dels Sedassos"
      },
      "ee32b44af2634e3eb1d78dacd005c70d.16" : {
         "lng" : 0.998641,
         "lat" : 41.051958,
         "guid" : "ee32b44af2634e3eb1d78dacd005c70d.16",
         "name" : "Playground Del Canigo"
      },
      "72533dd478264e4282b9d963fe18f3ca.16" : {
         "guid" : "72533dd478264e4282b9d963fe18f3ca.16",
         "name" : "unknown",
         "lng" : 1.178434,
         "lat" : 41.0798
      },
      "13b4f8cffa9041aab4fb6e6cfbc157fe.16" : {
         "guid" : "13b4f8cffa9041aab4fb6e6cfbc157fe.16",
         "name" : "unknown",
         "lng" : 1.054006,
         "lat" : 41.075392
      },
      "027cc35d3ef241ddbfba825075e662bb.16" : {
         "lat" : 41.161975,
         "lng" : 1.09191,
         "name" : "Pista De Futbol",
         "guid" : "027cc35d3ef241ddbfba825075e662bb.16"
      },
      "834bbdc49657435091d9226a3e2b8978.16" : {
         "guid" : "834bbdc49657435091d9226a3e2b8978.16",
         "name" : "unknown",
         "lng" : 1.218793,
         "lat" : 41.151844
      },
      "2f9a852d6c974b6885a726e929cb47d0.16" : {
         "lat" : 41.149601,
         "lng" : 1.396402,
         "name" : "Parc Infantil Crisantem",
         "guid" : "2f9a852d6c974b6885a726e929cb47d0.16"
      },
      "9e60c6a6d8ee474fbff6427ffed010bf.16" : {
         "name" : "Font de Bonavista",
         "guid" : "9e60c6a6d8ee474fbff6427ffed010bf.16",
         "lat" : 41.118918,
         "lng" : 1.193429
      },
      "fbeae6234ec6468b9015b2d941bfe9f3.16" : {
         "lat" : 41.095149,
         "lng" : 0.938306,
         "name" : "unknown",
         "guid" : "fbeae6234ec6468b9015b2d941bfe9f3.16"
      },
      "b3e5f1eb5b2d4a0a8b0483f32b127738.16" : {
         "lng" : 1.241709,
         "lat" : 41.163058,
         "guid" : "b3e5f1eb5b2d4a0a8b0483f32b127738.16",
         "name" : "MR Tuning"
      },
      "a4f48ffb1e6246d2905cc79e200a15d4.16" : {
         "lat" : 41.075702,
         "lng" : 1.050602,
         "name" : "Estela Falç",
         "guid" : "a4f48ffb1e6246d2905cc79e200a15d4.16"
      },
      "d140bb968e5a4875b496c140769236cb.16" : {
         "name" : "unknown",
         "guid" : "d140bb968e5a4875b496c140769236cb.16",
         "lat" : 41.052589,
         "lng" : 1.023354
      },
      "7197f958befc43b1bf4c9c79b9be045d.16" : {
         "lng" : 0.963348,
         "lat" : 41.130554,
         "guid" : "7197f958befc43b1bf4c9c79b9be045d.16",
         "name" : "Molí De La Vila "
      },
      "50499c25b96b44118a63d241d3f0fa4c.16" : {
         "lat" : 41.187941,
         "lng" : 1.21216,
         "name" : "unknown",
         "guid" : "50499c25b96b44118a63d241d3f0fa4c.16"
      },
      "4d6e85f441b7476690e55b46349b7e63.16" : {
         "name" : "Jardins Vapor",
         "guid" : "4d6e85f441b7476690e55b46349b7e63.16",
         "lat" : 41.113042,
         "lng" : 1.245475
      },
      "08ca32f416ed41c4853cf0aac0796f53.16" : {
         "name" : "Parc dels Graffitis",
         "guid" : "08ca32f416ed41c4853cf0aac0796f53.16",
         "lat" : 41.162426,
         "lng" : 1.265052
      },
      "2239aca9423949b6ae33297814e066c9.16" : {
         "name" : "unknown",
         "guid" : "2239aca9423949b6ae33297814e066c9.16",
         "lat" : 41.148254,
         "lng" : 1.41207
      },
      "9edc380d236f41d5b84d8ef6b2eb0c51.16" : {
         "lat" : 41.072249,
         "lng" : 1.055135,
         "name" : "unknown",
         "guid" : "9edc380d236f41d5b84d8ef6b2eb0c51.16"
      },
      "74892cd91d7e4f698d713687996bd773.16" : {
         "guid" : "74892cd91d7e4f698d713687996bd773.16",
         "name" : "Manuel Carrasco",
         "lng" : 1.186473,
         "lat" : 41.12048
      },
      "b8ec594624cb4431a35ecc13b22d23c9.16" : {
         "lng" : 0.958949,
         "lat" : 41.087726,
         "guid" : "b8ec594624cb4431a35ecc13b22d23c9.16",
         "name" : "font miro"
      },
      "63a914968d6741d386f92fb6698f71e2.16" : {
         "name" : "Four Columns Monument",
         "guid" : "63a914968d6741d386f92fb6698f71e2.16",
         "lat" : 41.158292,
         "lng" : 1.105632
      },
      "c6eee11fad2c4b5e9b8de65fa1334a21.16" : {
         "lng" : 1.193597,
         "lat" : 41.121359,
         "guid" : "c6eee11fad2c4b5e9b8de65fa1334a21.16",
         "name" : "Font Antiga BonaVista"
      },
      "9f7995c8cd934676bd33cf85ffab4f82.16" : {
         "lat" : 41.121435,
         "lng" : 0.870752,
         "name" : "unknown",
         "guid" : "9f7995c8cd934676bd33cf85ffab4f82.16"
      },
      "e0e0fe4e6a46492592420cf727ff7d86.16" : {
         "lng" : 1.057499,
         "lat" : 41.064628,
         "guid" : "e0e0fe4e6a46492592420cf727ff7d86.16",
         "name" : "Turisme"
      },
      "0d12beaddee94557a5a50abee5bbcab8.16" : {
         "lat" : 41.061318,
         "lng" : 1.040352,
         "name" : "unknown",
         "guid" : "0d12beaddee94557a5a50abee5bbcab8.16"
      },
      "f3ff13ead3c94fc59d2deb327d0dff4d.16" : {
         "lng" : 1.158846,
         "lat" : 41.085571,
         "guid" : "f3ff13ead3c94fc59d2deb327d0dff4d.16",
         "name" : "Pirates Photo"
      },
      "c7a89c975442458da89a6b1e03ec3c56.16" : {
         "name" : "unknown",
         "guid" : "c7a89c975442458da89a6b1e03ec3c56.16",
         "lat" : 41.165758,
         "lng" : 1.36058
      },
      "72a95143e3f240178048f6d941d7593b.16" : {
         "lng" : 1.214336,
         "lat" : 41.12137,
         "guid" : "72a95143e3f240178048f6d941d7593b.16",
         "name" : "A Félix Rodríguez de la Fuente"
      },
      "f69fba31025645379c7972f9f76f30ad.16" : {
         "guid" : "f69fba31025645379c7972f9f76f30ad.16",
         "name" : "unknown",
         "lng" : 0.974416,
         "lat" : 41.169517
      },
      "a10af6d1531840068f21798a8692081b.16" : {
         "name" : "Pavelló Olímpic Municipal",
         "guid" : "a10af6d1531840068f21798a8692081b.16",
         "lat" : 41.140327,
         "lng" : 1.112405
      },
      "1a1d4a56cd5548659f633fdf8fb0b3db.16" : {
         "lng" : 1.375963,
         "lat" : 41.14245,
         "guid" : "1a1d4a56cd5548659f633fdf8fb0b3db.16",
         "name" : "Estatua Del Fraile"
      },
      "c1b4beee029746e1b5f1f142064e9eee.16" : {
         "name" : "unknown",
         "guid" : "c1b4beee029746e1b5f1f142064e9eee.16",
         "lat" : 41.15962,
         "lng" : 1.271095
      },
      "32c1caaee9c64e0ca283c0e17d80bc9b.16" : {
         "name" : "Font Del Centenari",
         "guid" : "32c1caaee9c64e0ca283c0e17d80bc9b.16",
         "lat" : 41.14991,
         "lng" : 1.099148
      },
      "cfdfa853b0884191a13f39ad7ae84d3c.16" : {
         "name" : "Waterfall Cascade",
         "guid" : "cfdfa853b0884191a13f39ad7ae84d3c.16",
         "lat" : 41.079749,
         "lng" : 1.148415
      },
      "cb1f5a4f24b84cd8bca3caa78efe6ef3.16" : {
         "lat" : 41.184465,
         "lng" : 1.378739,
         "name" : "unknown",
         "guid" : "cb1f5a4f24b84cd8bca3caa78efe6ef3.16"
      },
      "cac816a881a34fc2809e9e651dda969a.11" : {
         "lng" : 1.148712,
         "lat" : 41.108286,
         "guid" : "cac816a881a34fc2809e9e651dda969a.11",
         "name" : "unknown"
      },
      "eb1f121894b44e2e8909fe6b8879ed59.16" : {
         "name" : "Roman Wall",
         "guid" : "eb1f121894b44e2e8909fe6b8879ed59.16",
         "lat" : 41.119176,
         "lng" : 1.261227
      },
      "8d03b241de974dfda7a76aa12e89dd1d.16" : {
         "lat" : 41.049194,
         "lng" : 0.947297,
         "name" : "unknown",
         "guid" : "8d03b241de974dfda7a76aa12e89dd1d.16"
      },
      "dae278e6606b48a3af9b81ca32b7e743.16" : {
         "lat" : 41.07887,
         "lng" : 1.105736,
         "name" : "unknown",
         "guid" : "dae278e6606b48a3af9b81ca32b7e743.16"
      },
      "39aa1d4de10444b0ac5d2f733c29a961.16" : {
         "lng" : 1.237005,
         "lat" : 41.117754,
         "guid" : "39aa1d4de10444b0ac5d2f733c29a961.16",
         "name" : "Litos"
      },
      "30a0aa3ffd394f4bbd3e28ed68aaec8b.16" : {
         "lng" : 0.999822,
         "lat" : 41.122323,
         "guid" : "30a0aa3ffd394f4bbd3e28ed68aaec8b.16",
         "name" : "Sant Antoni De Padua"
      },
      "2140c3bbbb714d3bb2e8f4497d6cec3d.16" : {
         "name" : "Los Frutos Del Ayer",
         "guid" : "2140c3bbbb714d3bb2e8f4497d6cec3d.16",
         "lat" : 41.12406,
         "lng" : 1.238246
      },
      "47256f79dae6439387c9a83de968830d.16" : {
         "name" : "unknown",
         "guid" : "47256f79dae6439387c9a83de968830d.16",
         "lat" : 41.133298,
         "lng" : 0.858791
      },
      "78328d8d49f8487a977779b2582b7ea4.16" : {
         "guid" : "78328d8d49f8487a977779b2582b7ea4.16",
         "name" : "Antic Velodrom",
         "lng" : 1.103397,
         "lat" : 41.149229
      },
      "4d96d846c3a74a91aae3f74fa6b0888a.16" : {
         "lng" : 1.044999,
         "lat" : 41.062987,
         "guid" : "4d96d846c3a74a91aae3f74fa6b0888a.16",
         "name" : "Segundo Cesped"
      },
      "2422c0a8922a4b97922619ffe1bc46a8.16" : {
         "lat" : 41.067121,
         "lng" : 1.056681,
         "name" : "unknown",
         "guid" : "2422c0a8922a4b97922619ffe1bc46a8.16"
      },
      "3487ab22db91499d975715486d549ce9.16" : {
         "guid" : "3487ab22db91499d975715486d549ce9.16",
         "name" : "unknown",
         "lng" : 1.133218,
         "lat" : 41.212562
      },
      "a85c23ea5a6e4503837a776085642c1e.16" : {
         "name" : "Espai D'oci Passeig",
         "guid" : "a85c23ea5a6e4503837a776085642c1e.16",
         "lat" : 40.988496,
         "lng" : 0.915261
      },
      "c8e196d7e34d44a4b978373174a08048.16" : {
         "name" : "unknown",
         "guid" : "c8e196d7e34d44a4b978373174a08048.16",
         "lat" : 41.073972,
         "lng" : 1.117432
      },
      "4f0eb19b321949448c8f209dd4d7f57e.16" : {
         "lat" : 41.223866,
         "lng" : 1.218629,
         "name" : "unknown",
         "guid" : "4f0eb19b321949448c8f209dd4d7f57e.16"
      },
      "78a588f2410d4be9a575cfc7a998e3b5.11" : {
         "lng" : 1.250618,
         "lat" : 41.116523,
         "guid" : "78a588f2410d4be9a575cfc7a998e3b5.11",
         "name" : "Estàtua dels Despullats"
      },
      "00fa51c51c9b40bd913469ac8ad0369d.16" : {
         "guid" : "00fa51c51c9b40bd913469ac8ad0369d.16",
         "name" : "Font de la Plaça de la Sang",
         "lng" : 1.111915,
         "lat" : 41.155862
      },
      "1c0ac3f927ad403d95e43571d5325813.16" : {
         "guid" : "1c0ac3f927ad403d95e43571d5325813.16",
         "name" : "Font Agroestetica",
         "lng" : 0.938029,
         "lat" : 41.112797
      },
      "9d618041c6394f8cbb16ed2faf6b09fe.16" : {
         "name" : "Grafiti Atur i Amor",
         "guid" : "9d618041c6394f8cbb16ed2faf6b09fe.16",
         "lat" : 41.149851,
         "lng" : 1.095918
      },
      "9ee48135cf624adca2ffdbc0b0492dee.16" : {
         "lng" : 1.367697,
         "lat" : 41.131702,
         "guid" : "9ee48135cf624adca2ffdbc0b0492dee.16",
         "name" : "Desembocadura Del Gaià"
      },
      "5be9d797db6a42ab8c56cf0c6c428fb7.16" : {
         "lng" : 1.248677,
         "lat" : 41.107301,
         "guid" : "5be9d797db6a42ab8c56cf0c6c428fb7.16",
         "name" : "unknown"
      },
      "49641e3dc97440659d75319f2a15a0e9.16" : {
         "lng" : 1.414934,
         "lat" : 41.149499,
         "guid" : "49641e3dc97440659d75319f2a15a0e9.16",
         "name" : "unknown"
      },
      "aae96af26b6e48f684e3a7b404bce158.16" : {
         "lat" : 41.119871,
         "lng" : 1.243009,
         "name" : "Església de Sant Pau",
         "guid" : "aae96af26b6e48f684e3a7b404bce158.16"
      },
      "c8b0b982aec94abebbe891961561a149.16" : {
         "lng" : 1.160719,
         "lat" : 41.088553,
         "guid" : "c8b0b982aec94abebbe891961561a149.16",
         "name" : "Dragon Khan"
      },
      "5abc8ab2b9624b9685995a1792141381.16" : {
         "guid" : "5abc8ab2b9624b9685995a1792141381.16",
         "name" : "unknown",
         "lng" : 1.087651,
         "lat" : 41.071297
      },
      "bf70ccb5810b4ae2b23cd1231c3e98cb.16" : {
         "lat" : 41.085859,
         "lng" : 0.96402,
         "name" : "unknown",
         "guid" : "bf70ccb5810b4ae2b23cd1231c3e98cb.16"
      },
      "a3f9f45e2ba344a8b28df921b954bf66.16" : {
         "guid" : "a3f9f45e2ba344a8b28df921b954bf66.16",
         "name" : "Les Fonts del Cementiri",
         "lng" : 1.253531,
         "lat" : 41.124639
      },
      "a885b741ba8d43e1909f0a6e86f4d2fc.16" : {
         "name" : "unknown",
         "guid" : "a885b741ba8d43e1909f0a6e86f4d2fc.16",
         "lat" : 41.083003,
         "lng" : 1.183095
      },
      "250c42432bef4cd18226f10c9f1d9fbe.16" : {
         "guid" : "250c42432bef4cd18226f10c9f1d9fbe.16",
         "name" : "Campo de Fútbol",
         "lng" : 1.024796,
         "lat" : 41.059282
      },
      "41d0a2108bd646109e10789f7d272dcd.16" : {
         "lat" : 41.124047,
         "lng" : 1.219146,
         "name" : "unknown",
         "guid" : "41d0a2108bd646109e10789f7d272dcd.16"
      },
      "07b03e48485846d8ab6a4af5b6ebb8ce.16" : {
         "lat" : 41.138085,
         "lng" : 0.989654,
         "name" : "unknown",
         "guid" : "07b03e48485846d8ab6a4af5b6ebb8ce.16"
      },
      "683ef27a75724f6cbafacf3ed2559f81.16" : {
         "guid" : "683ef27a75724f6cbafacf3ed2559f81.16",
         "name" : "Plaça De La Segregació De Salou",
         "lng" : 1.134243,
         "lat" : 41.081431
      },
      "5e55a39a03a34ac1aaa91fb8ef8e6b40.16" : {
         "name" : "Mosaic ",
         "guid" : "5e55a39a03a34ac1aaa91fb8ef8e6b40.16",
         "lat" : 41.082584,
         "lng" : 1.18628
      },
      "70e64324d5c641b096b41c03041cfb29.16" : {
         "lng" : 1.112674,
         "lat" : 41.134823,
         "guid" : "70e64324d5c641b096b41c03041cfb29.16",
         "name" : "Parque de Ocio Sur"
      },
      "69215e802969413eb687578bef38bf42.16" : {
         "lng" : 1.047584,
         "lat" : 41.073485,
         "guid" : "69215e802969413eb687578bef38bf42.16",
         "name" : "Cambrils map"
      },
      "0ec2ef39c7214ea4a7c86f84576cb33b.11" : {
         "guid" : "0ec2ef39c7214ea4a7c86f84576cb33b.11",
         "name" : "Casa Navàs",
         "lng" : 1.108606,
         "lat" : 41.154802
      },
      "75b45368ad8f4bbdb60f7b18e72757c8.16" : {
         "name" : "Hulka",
         "guid" : "75b45368ad8f4bbdb60f7b18e72757c8.16",
         "lat" : 41.110875,
         "lng" : 1.242415
      },
      "99bd433507874e3f9621879a07bf256c.16" : {
         "lat" : 41.080303,
         "lng" : 1.17905,
         "name" : "Centre Civic De La Pineda",
         "guid" : "99bd433507874e3f9621879a07bf256c.16"
      },
      "1e8f6825528f4ee19ea8e155ce4d1a62.16" : {
         "lng" : 1.148757,
         "lat" : 41.066404,
         "guid" : "1e8f6825528f4ee19ea8e155ce4d1a62.16",
         "name" : "unknown"
      },
      "7ec8c4810bc04023afba71d00c9cd979.16" : {
         "lng" : 1.095674,
         "lat" : 41.16065,
         "guid" : "7ec8c4810bc04023afba71d00c9cd979.16",
         "name" : "unknown"
      },
      "03339aab07f2434881666bd77b165d2a.16" : {
         "guid" : "03339aab07f2434881666bd77b165d2a.16",
         "name" : "unknown",
         "lng" : 1.046575,
         "lat" : 41.182008
      },
      "bf2babd3131348298fa6d7247858bad8.16" : {
         "guid" : "bf2babd3131348298fa6d7247858bad8.16",
         "name" : "Esglesia Santa Maria",
         "lng" : 0.930804,
         "lat" : 41.145911
      },
      "973ca67baa78448196d59e6ddd899ccc.16" : {
         "name" : "Plaça D'europa",
         "guid" : "973ca67baa78448196d59e6ddd899ccc.16",
         "lat" : 41.146403,
         "lng" : 1.110239
      },
      "811cbc15d63044ffbae1d0787f44485e.16" : {
         "name" : "unknown",
         "guid" : "811cbc15d63044ffbae1d0787f44485e.16",
         "lat" : 41.177727,
         "lng" : 1.021817
      },
      "ed34834a7c4449269d697aa044259711.16" : {
         "lng" : 1.208235,
         "lat" : 41.118239,
         "guid" : "ed34834a7c4449269d697aa044259711.16",
         "name" : "unknown"
      },
      "764175b3ad6d45fab55b19a4fb6cdbf6.16" : {
         "guid" : "764175b3ad6d45fab55b19a4fb6cdbf6.16",
         "name" : "Torre-Rellotge del Port",
         "lng" : 1.249469,
         "lat" : 41.10739
      },
      "769489407c5a48e4a4c2486861ba1f67.16" : {
         "name" : "Pou Del Jardi",
         "guid" : "769489407c5a48e4a4c2486861ba1f67.16",
         "lat" : 41.127251,
         "lng" : 0.916411
      },
      "1601156290894aea8701ea450be248e6.16" : {
         "lng" : 0.938338,
         "lat" : 41.023702,
         "guid" : "1601156290894aea8701ea450be248e6.16",
         "name" : "Playground Nicaragua"
      },
      "064295e0054241fd80f182467a9df779.16" : {
         "lat" : 41.135685,
         "lng" : 1.050355,
         "name" : "unknown",
         "guid" : "064295e0054241fd80f182467a9df779.16"
      },
      "1ecf5821358e41eea2f3b6abe303a6dd.16" : {
         "lat" : 41.084711,
         "lng" : 1.187637,
         "name" : "unknown",
         "guid" : "1ecf5821358e41eea2f3b6abe303a6dd.16"
      },
      "b1232a92bdf741029163dbe3cf6c38a8.16" : {
         "lng" : 1.179811,
         "lat" : 41.11715,
         "guid" : "b1232a92bdf741029163dbe3cf6c38a8.16",
         "name" : "Maquinria"
      },
      "62771cb1767c408ba9591211d652129f.16" : {
         "lat" : 41.054345,
         "lng" : 1.025741,
         "name" : "unknown",
         "guid" : "62771cb1767c408ba9591211d652129f.16"
      },
      "6cca4f17e3e5496abba134238b2778a6.16" : {
         "name" : "Coloured Wall",
         "guid" : "6cca4f17e3e5496abba134238b2778a6.16",
         "lat" : 41.077328,
         "lng" : 1.130118
      },
      "86222a642ed84954a7b9474c7f823d0a.16" : {
         "guid" : "86222a642ed84954a7b9474c7f823d0a.16",
         "name" : "Puente Amarillo",
         "lng" : 1.17367,
         "lat" : 41.071703
      },
      "d486ab40558d4ddfbb133036b0dd0f5e.16" : {
         "lat" : 41.081441,
         "lng" : 1.136647,
         "name" : "Auditori Tas",
         "guid" : "d486ab40558d4ddfbb133036b0dd0f5e.16"
      },
      "061c038ba8a44043941792142e703786.16" : {
         "lng" : 0.909184,
         "lat" : 41.137848,
         "guid" : "061c038ba8a44043941792142e703786.16",
         "name" : "unknown"
      },
      "5878158c3a3444e3ab34290ff57b3664.16" : {
         "lat" : 41.21299,
         "lng" : 1.139905,
         "name" : "Font del Molí",
         "guid" : "5878158c3a3444e3ab34290ff57b3664.16"
      },
      "ff466c4a422f45cd9cf411544fcd619a.16" : {
         "guid" : "ff466c4a422f45cd9cf411544fcd619a.16",
         "name" : "Pista basket parc Pinaret",
         "lng" : 1.047095,
         "lat" : 41.079048
      },
      "29f3ce6b5501461595f71acfe326f3f7.16" : {
         "guid" : "29f3ce6b5501461595f71acfe326f3f7.16",
         "name" : "Parroquia De L'Assumpció ",
         "lng" : 1.085559,
         "lat" : 41.160177
      },
      "65743016c2cd459e89b35b883be95f6b.16" : {
         "guid" : "65743016c2cd459e89b35b883be95f6b.16",
         "name" : "unknown",
         "lng" : 0.963682,
         "lat" : 41.088621
      },
      "257478b382b24bf6898fc0ce1d8b69e4.16" : {
         "name" : "unknown",
         "guid" : "257478b382b24bf6898fc0ce1d8b69e4.16",
         "lat" : 41.1176,
         "lng" : 1.214222
      },
      "6427034d6fbc4d9dbd7a05e07324c323.16" : {
         "guid" : "6427034d6fbc4d9dbd7a05e07324c323.16",
         "name" : "unknown",
         "lng" : 1.0937,
         "lat" : 41.082503
      },
      "58e1b319a0a7496fb9771cfcb1040d7e.16" : {
         "lng" : 1.077017,
         "lat" : 41.064605,
         "guid" : "58e1b319a0a7496fb9771cfcb1040d7e.16",
         "name" : "unknown"
      },
      "33387d6bd573480693c2604aadb41daa.16" : {
         "guid" : "33387d6bd573480693c2604aadb41daa.16",
         "name" : "Cachoeira Du Sol",
         "lng" : 0.975689,
         "lat" : 41.036126
      },
      "fc6e3b284318444ca4f37bbd6f142b3a.16" : {
         "guid" : "fc6e3b284318444ca4f37bbd6f142b3a.16",
         "name" : "unknown",
         "lng" : 1.148949,
         "lat" : 41.216048
      },
      "e537bb8a410b4a04a6d566ba1aae9d64.16" : {
         "name" : "unknown",
         "guid" : "e537bb8a410b4a04a6d566ba1aae9d64.16",
         "lat" : 41.151361,
         "lng" : 1.1218
      },
      "8cf00244fbd14f8f8fb28a3008862ddb.16" : {
         "name" : "Font del Poliesportiu",
         "guid" : "8cf00244fbd14f8f8fb28a3008862ddb.16",
         "lat" : 41.213004,
         "lng" : 1.142726
      },
      "502ab32f5eab47cfad1e8d072427a810.16" : {
         "lng" : 1.147576,
         "lat" : 41.105356,
         "guid" : "502ab32f5eab47cfad1e8d072427a810.16",
         "name" : "unknown"
      },
      "558e025ddde44bd98970f8e8f5005c71.16" : {
         "guid" : "558e025ddde44bd98970f8e8f5005c71.16",
         "name" : "unknown",
         "lng" : 1.433719,
         "lat" : 41.160588
      },
      "ec7c0c8fe3f7462da01483d85f46fc49.16" : {
         "guid" : "ec7c0c8fe3f7462da01483d85f46fc49.16",
         "name" : "Miquel Melendres I Rue",
         "lng" : 1.25925,
         "lat" : 41.120342
      },
      "2064d4a683e841aebe832ab4dc0b2731.16" : {
         "lat" : 41.1442,
         "lng" : 1.116374,
         "name" : "Mini Playground",
         "guid" : "2064d4a683e841aebe832ab4dc0b2731.16"
      },
      "13a6fadd051745238652ba7b531f85a3.16" : {
         "lat" : 40.995857,
         "lng" : 0.920727,
         "name" : "unknown",
         "guid" : "13a6fadd051745238652ba7b531f85a3.16"
      },
      "3607b1f571aa462a836d982000dc97c5.16" : {
         "lat" : 41.132315,
         "lng" : 1.249553,
         "name" : " Parc de la Muntanyeta",
         "guid" : "3607b1f571aa462a836d982000dc97c5.16"
      },
      "e40cbe0e142b44b29f3b3fdcef36c0e9.16" : {
         "guid" : "e40cbe0e142b44b29f3b3fdcef36c0e9.16",
         "name" : "unknown",
         "lng" : 1.102978,
         "lat" : 41.175289
      },
      "fd62e2ea79dc4b58adc0c5d7b125daea.16" : {
         "guid" : "fd62e2ea79dc4b58adc0c5d7b125daea.16",
         "name" : "Park Fountain",
         "lng" : 1.128144,
         "lat" : 41.080007
      },
      "ded9678394854fe98c7126fb40dcf128.16" : {
         "lng" : 1.138826,
         "lat" : 41.074061,
         "guid" : "ded9678394854fe98c7126fb40dcf128.16",
         "name" : "Escudo De Aragon"
      },
      "bbbe3632e0b74ffc9626df0e46212eb2.16" : {
         "guid" : "bbbe3632e0b74ffc9626df0e46212eb2.16",
         "name" : "unknown",
         "lng" : 1.143111,
         "lat" : 41.108864
      },
      "a5b76d9570c941b6841255fb7f3aefe7.16" : {
         "guid" : "a5b76d9570c941b6841255fb7f3aefe7.16",
         "name" : "unknown",
         "lng" : 0.955387,
         "lat" : 41.089065
      },
      "8b6f7388da9d4167b63d7f9b2821da1a.16" : {
         "name" : "Zona de jocs de Sant Ramon",
         "guid" : "8b6f7388da9d4167b63d7f9b2821da1a.16",
         "lat" : 41.154233,
         "lng" : 1.24349
      },
      "5335ae414c134b7c8cc384f9feca6221.16" : {
         "lng" : 1.396094,
         "lat" : 41.141214,
         "guid" : "5335ae414c134b7c8cc384f9feca6221.16",
         "name" : "Senyal Geodesic"
      },
      "0023f4c0206c45d3a69a0ad3e6ee0d52.16" : {
         "guid" : "0023f4c0206c45d3a69a0ad3e6ee0d52.16",
         "name" : "Monument a Mercuri",
         "lng" : 1.249992,
         "lat" : 41.110347
      },
      "647c0284e7844715a5a01c534ddc86fe.16" : {
         "guid" : "647c0284e7844715a5a01c534ddc86fe.16",
         "name" : "unknown",
         "lng" : 0.960947,
         "lat" : 41.130074
      },
      "f9082c97ea1d428cbe7d7ffcb933f6ec.16" : {
         "lat" : 41.141402,
         "lng" : 1.130494,
         "name" : "Mobile Sculpture",
         "guid" : "f9082c97ea1d428cbe7d7ffcb933f6ec.16"
      },
      "05cc602bf34247c599cdc84f192ecafc.16" : {
         "name" : "Creu Al 11 De Setembre",
         "guid" : "05cc602bf34247c599cdc84f192ecafc.16",
         "lat" : 41.071372,
         "lng" : 1.051332
      },
      "ca106b553efb4532b2d91d9bf6c651f3.16" : {
         "guid" : "ca106b553efb4532b2d91d9bf6c651f3.16",
         "name" : "unknown",
         "lng" : 1.39169,
         "lat" : 41.143452
      },
      "d977de7b75474161aaa28b5addbedf2e.16" : {
         "name" : "Playground",
         "guid" : "d977de7b75474161aaa28b5addbedf2e.16",
         "lat" : 41.186707,
         "lng" : 1.212281
      },
      "9fa973d4553d467faf1161f5f41d2bc6.16" : {
         "guid" : "9fa973d4553d467faf1161f5f41d2bc6.16",
         "name" : "Iglesia Miami Platja ",
         "lng" : 0.93618,
         "lat" : 41.011439
      },
      "4d3b7e3d98b74261a85e76fd0feeb1a6.16" : {
         "lng" : 1.144437,
         "lat" : 41.070348,
         "guid" : "4d3b7e3d98b74261a85e76fd0feeb1a6.16",
         "name" : "Stella, Salou"
      },
      "6f9832c684f44bf889da552ea4e79ace.16" : {
         "guid" : "6f9832c684f44bf889da552ea4e79ace.16",
         "name" : "Àngel del Mas dels Arcs",
         "lng" : 1.248116,
         "lat" : 41.150839
      },
      "5b874c2ffb7542ddab62abaade41db14.16" : {
         "name" : "unknown",
         "guid" : "5b874c2ffb7542ddab62abaade41db14.16",
         "lat" : 41.14561,
         "lng" : 1.370414
      },
      "84274845139b457494e9966bb7eb8d3c.16" : {
         "lng" : 1.105099,
         "lat" : 41.154917,
         "guid" : "84274845139b457494e9966bb7eb8d3c.16",
         "name" : "Fallera Major "
      },
      "2d7deb8833b64965b77eb7576c53ef83.16" : {
         "lat" : 41.080647,
         "lng" : 1.180483,
         "name" : "Pavelló Esports Pineda",
         "guid" : "2d7deb8833b64965b77eb7576c53ef83.16"
      },
      "52a1c2c0bf0648a78139ed0d23148e54.16" : {
         "guid" : "52a1c2c0bf0648a78139ed0d23148e54.16",
         "name" : "Masia Catalana",
         "lng" : 1.153354,
         "lat" : 41.070392
      },
      "5276b6265c6d482c95e2a57cba1df441.16" : {
         "lat" : 41.081175,
         "lng" : 1.180352,
         "name" : "unknown",
         "guid" : "5276b6265c6d482c95e2a57cba1df441.16"
      },
      "aa36d90993fe44bd9bfe0325f549bca2.16" : {
         "lng" : 1.095869,
         "lat" : 41.137409,
         "guid" : "aa36d90993fe44bd9bfe0325f549bca2.16",
         "name" : "Pistes de Pàdel Monterols"
      },
      "39bc2452e28543c9841607319c5df006.16" : {
         "lng" : 1.09686,
         "lat" : 41.072532,
         "guid" : "39bc2452e28543c9841607319c5df006.16",
         "name" : "Castillo Vilafortuny"
      },
      "829e7d43918a497fbbe2eb5891b1d488.16" : {
         "name" : "unknown",
         "guid" : "829e7d43918a497fbbe2eb5891b1d488.16",
         "lat" : 40.99208,
         "lng" : 0.925706
      },
      "5549aa56925b4b048dfb4603bc21a698.11" : {
         "guid" : "5549aa56925b4b048dfb4603bc21a698.11",
         "name" : "unknown",
         "lng" : 1.20896,
         "lat" : 41.189003
      },
      "b1b58f54b6a74a92b53f7e04409f4ff6.16" : {
         "lat" : 41.073734,
         "lng" : 1.094042,
         "name" : "unknown",
         "guid" : "b1b58f54b6a74a92b53f7e04409f4ff6.16"
      },
      "050f9eaa655f441aa0852d800f65f789.16" : {
         "name" : "Molí de Llevant",
         "guid" : "050f9eaa655f441aa0852d800f65f789.16",
         "lat" : 41.120717,
         "lng" : 1.266783
      },
      "60eb56fb649843c89dfcd0d7419256b5.16" : {
         "lng" : 1.260569,
         "lat" : 41.118325,
         "guid" : "60eb56fb649843c89dfcd0d7419256b5.16",
         "name" : "Portal de Sant Antoni"
      },
      "bfb226ab8e8c4815875e3399af2f3016.16" : {
         "lng" : 1.259938,
         "lat" : 41.140045,
         "guid" : "bfb226ab8e8c4815875e3399af2f3016.16",
         "name" : "Parc de Miquel Servet"
      },
      "b327d11e63284f94b4b317fb936aecad.16" : {
         "lat" : 41.023281,
         "lng" : 0.937736,
         "name" : "Fuente Venezolana Costa Zefir",
         "guid" : "b327d11e63284f94b4b317fb936aecad.16"
      },
      "3384c58c1be44f9c97d82ef0d1f1987e.16" : {
         "lng" : 1.270997,
         "lat" : 41.144618,
         "guid" : "3384c58c1be44f9c97d82ef0d1f1987e.16",
         "name" : "El Balcó de les Mares"
      },
      "b39d7e3a17f244fd8df7a2bcbb72d9ff.16" : {
         "name" : "Vinyols Camp",
         "guid" : "b39d7e3a17f244fd8df7a2bcbb72d9ff.16",
         "lat" : 41.111572,
         "lng" : 1.046124
      },
      "85a584c9091b4fc5bc05ee2eef2689a9.16" : {
         "lat" : 41.146622,
         "lng" : 1.103861,
         "name" : "Gym per gran Gent",
         "guid" : "85a584c9091b4fc5bc05ee2eef2689a9.16"
      },
      "ec6136e393244e63a4d207056ab903b1.16" : {
         "guid" : "ec6136e393244e63a4d207056ab903b1.16",
         "name" : "Ajuntament del Morell",
         "lng" : 1.208476,
         "lat" : 41.192086
      },
      "0129480999264049854469243ef20f65.16" : {
         "name" : "Campo de saltos",
         "guid" : "0129480999264049854469243ef20f65.16",
         "lat" : 41.155283,
         "lng" : 1.078196
      },
      "8fc972db4e3b48c6bf6564dffdbd4f74.16" : {
         "guid" : "8fc972db4e3b48c6bf6564dffdbd4f74.16",
         "name" : "Monumento Locomotora",
         "lng" : 1.224847,
         "lat" : 41.120964
      },
      "d36a5ba6d5774ac08a909fa36a26b931.16" : {
         "guid" : "d36a5ba6d5774ac08a909fa36a26b931.16",
         "name" : "Colonia Ivlia Vrbs Tàrraco",
         "lng" : 1.255489,
         "lat" : 41.119205
      },
      "70f7152eb2284d0b8526382cba2c996e.16" : {
         "lng" : 0.934842,
         "lat" : 41.005557,
         "guid" : "70f7152eb2284d0b8526382cba2c996e.16",
         "name" : "El Pozo "
      },
      "28070bb2b35645e0a6c4866bb8fc92bc.16" : {
         "name" : "Casa Pujol",
         "guid" : "28070bb2b35645e0a6c4866bb8fc92bc.16",
         "lat" : 41.156912,
         "lng" : 1.112607
      },
      "4a89c44c19cd4707bb324774c214cc67.16" : {
         "name" : "unknown",
         "guid" : "4a89c44c19cd4707bb324774c214cc67.16",
         "lat" : 41.084483,
         "lng" : 1.18296
      },
      "87c7dda05cff44be91fc7a7f512af909.16" : {
         "name" : "Banc d'Espanya",
         "guid" : "87c7dda05cff44be91fc7a7f512af909.16",
         "lat" : 41.117007,
         "lng" : 1.250056
      },
      "b720372202634b1dbc6c47f2cc42ded2.16" : {
         "lat" : 41.161694,
         "lng" : 1.093749,
         "name" : "Mas Carandell",
         "guid" : "b720372202634b1dbc6c47f2cc42ded2.16"
      },
      "bfb1462161cc44bab6c199be2e6fcc2b.11" : {
         "name" : "St Joan Baptista",
         "guid" : "bfb1462161cc44bab6c199be2e6fcc2b.11",
         "lat" : 41.157393,
         "lng" : 1.103719
      },
      "f70a65a9013a4ee38097e14117efcce8.16" : {
         "lng" : 0.999602,
         "lat" : 41.115033,
         "guid" : "f70a65a9013a4ee38097e14117efcce8.16",
         "name" : "Playground “Bonet”"
      },
      "b4f65771aaab4a4ab494d67176cd8704.16" : {
         "lng" : 1.026537,
         "lat" : 41.165851,
         "guid" : "b4f65771aaab4a4ab494d67176cd8704.16",
         "name" : "unknown"
      },
      "566c237b160f48f7aa117a312fcbcb2b.16" : {
         "guid" : "566c237b160f48f7aa117a312fcbcb2b.16",
         "name" : "Plaça Cuba",
         "lng" : 1.25212,
         "lat" : 41.137815
      },
      "76a3fc66ffc44473b8e85c8a23abfa2d.16" : {
         "name" : "Casa Natura",
         "guid" : "76a3fc66ffc44473b8e85c8a23abfa2d.16",
         "lat" : 41.175497,
         "lng" : 1.270941
      },
      "ffc8109320bc44999769eb5cc3772410.16" : {
         "name" : "unknown",
         "guid" : "ffc8109320bc44999769eb5cc3772410.16",
         "lat" : 41.175009,
         "lng" : 1.325737
      },
      "bc101b59e45a428ab8f5715e7cc4e930.16" : {
         "guid" : "bc101b59e45a428ab8f5715e7cc4e930.16",
         "name" : "Font del Passeig",
         "lng" : 1.101384,
         "lat" : 41.157534
      },
      "5e118b37208d4c51be9fecf2de3335a7.16" : {
         "name" : "Font Aurrera",
         "guid" : "5e118b37208d4c51be9fecf2de3335a7.16",
         "lat" : 41.144074,
         "lng" : 1.400834
      },
      "9907c164ef93450abfeae5301665ecd7.16" : {
         "lat" : 41.105554,
         "lng" : 0.96225,
         "name" : "unknown",
         "guid" : "9907c164ef93450abfeae5301665ecd7.16"
      },
      "861c92d75f6b43cb9853faaa19c0cc32.16" : {
         "name" : "Far Vermell",
         "guid" : "861c92d75f6b43cb9853faaa19c0cc32.16",
         "lat" : 41.062792,
         "lng" : 1.06193
      },
      "73a16b1791dd4aa0b0f6722cf72b2d03.16" : {
         "lat" : 40.992414,
         "lng" : 0.922521,
         "name" : "Informacio L'H ",
         "guid" : "73a16b1791dd4aa0b0f6722cf72b2d03.16"
      },
      "2ca612ec1f2e464b8ea53035fae62e28.16" : {
         "name" : "unknown",
         "guid" : "2ca612ec1f2e464b8ea53035fae62e28.16",
         "lat" : 41.120872,
         "lng" : 1.267189
      },
      "766389af1ab045d793cda8d8dc2e549f.16" : {
         "lat" : 41.065943,
         "lng" : 1.089422,
         "name" : "Platja de l'Esquirol",
         "guid" : "766389af1ab045d793cda8d8dc2e549f.16"
      },
      "ecaaab40c972455299276ac03acf8e8c.16" : {
         "lng" : 1.039251,
         "lat" : 41.113878,
         "guid" : "ecaaab40c972455299276ac03acf8e8c.16",
         "name" : "unknown"
      },
      "88e45568eca644c2890643c42a61d812.16" : {
         "name" : "Castell del Francol ",
         "guid" : "88e45568eca644c2890643c42a61d812.16",
         "lat" : 41.12264,
         "lng" : 1.234991
      },
      "611bcacc66904592a57aa40d649a57e5.16" : {
         "lat" : 41.169307,
         "lng" : 1.273258,
         "name" : "Els Pallaresos a Casanova",
         "guid" : "611bcacc66904592a57aa40d649a57e5.16"
      },
      "710b784e86c34451b47a5cd08344e40c.16" : {
         "name" : "unknown",
         "guid" : "710b784e86c34451b47a5cd08344e40c.16",
         "lat" : 41.181049,
         "lng" : 1.043913
      },
      "ecc3303269324cd2ba700cbf9d261e91.16" : {
         "lng" : 1.374256,
         "lat" : 41.134436,
         "guid" : "ecc3303269324cd2ba700cbf9d261e91.16",
         "name" : "Big Face Small Face"
      },
      "014ec397fb40420fa669871489215a5c.16" : {
         "lat" : 41.123629,
         "lng" : 1.103859,
         "name" : "Pistas de Basket",
         "guid" : "014ec397fb40420fa669871489215a5c.16"
      },
      "046959bcc8f048e9a22e6b9383616552.16" : {
         "lng" : 1.003722,
         "lat" : 41.043291,
         "guid" : "046959bcc8f048e9a22e6b9383616552.16",
         "name" : "Bunker"
      },
      "576a199a9fe84d25b51dd7722c10f808.16" : {
         "guid" : "576a199a9fe84d25b51dd7722c10f808.16",
         "name" : "Monoliths",
         "lng" : 1.121357,
         "lat" : 41.145734
      },
      "143d2673fe9f4c60a76199817640ad2d.16" : {
         "lng" : 1.243579,
         "lat" : 41.162859,
         "guid" : "143d2673fe9f4c60a76199817640ad2d.16",
         "name" : "Complex Esportiu de Sant Salvador"
      },
      "7b277c3b823b4705abb77668a3c3d383.16" : {
         "lng" : 1.402684,
         "lat" : 41.144576,
         "guid" : "7b277c3b823b4705abb77668a3c3d383.16",
         "name" : "unknown"
      },
      "2c25cfaec1fd45d2b88ab472392b38c2.16" : {
         "lat" : 41.211033,
         "lng" : 1.143783,
         "name" : "Elefant de L'Estació",
         "guid" : "2c25cfaec1fd45d2b88ab472392b38c2.16"
      },
      "2374dba5eafd4945a43e7a873ae4884b.16" : {
         "lng" : 1.213094,
         "lat" : 41.116441,
         "guid" : "2374dba5eafd4945a43e7a873ae4884b.16",
         "name" : "Pilarica Font Virgin"
      },
      "91468b3d568045f9b9316b1a52a26aa5.16" : {
         "lng" : 1.092215,
         "lat" : 41.151942,
         "guid" : "91468b3d568045f9b9316b1a52a26aa5.16",
         "name" : "Ninfa Dels Nanufars"
      },
      "d2211023004d4109ac7d53dd91389374.16" : {
         "lat" : 41.062454,
         "lng" : 1.031102,
         "name" : "unknown",
         "guid" : "d2211023004d4109ac7d53dd91389374.16"
      },
      "407bc71a542440438558697bc39bb319.16" : {
         "lat" : 41.080037,
         "lng" : 1.178392,
         "name" : "unknown",
         "guid" : "407bc71a542440438558697bc39bb319.16"
      },
      "c739ed58449445e7b33a2fb009fb742d.12" : {
         "guid" : "c739ed58449445e7b33a2fb009fb742d.12",
         "name" : "Pont del Diable o Aqüeducte de les Ferreres",
         "lng" : 1.243408,
         "lat" : 41.146677
      },
      "635edb90666a441c988bb22f3ccb817c.16" : {
         "guid" : "635edb90666a441c988bb22f3ccb817c.16",
         "name" : "unknown",
         "lng" : 0.935396,
         "lat" : 41.006028
      },
      "413bd6991e8143179f0c6120b3afe81c.16" : {
         "lat" : 41.077482,
         "lng" : 1.178494,
         "name" : "Ajuntament de Vila-seca",
         "guid" : "413bd6991e8143179f0c6120b3afe81c.16"
      },
      "6f0842cd91a04e099c048d6660c2a9e7.16" : {
         "lng" : 1.020176,
         "lat" : 41.106124,
         "guid" : "6f0842cd91a04e099c048d6660c2a9e7.16",
         "name" : "Casita del Guarda"
      },
      "210044c0b0164099a0e9ddc6d3aadf6b.12" : {
         "name" : "Sant Bernat Calvó",
         "guid" : "210044c0b0164099a0e9ddc6d3aadf6b.12",
         "lat" : 41.111715,
         "lng" : 1.14603
      },
      "4a45840a801748c8bdab3fc855b4b6ed.16" : {
         "name" : "Oficina Turismo Altafulla Mar",
         "guid" : "4a45840a801748c8bdab3fc855b4b6ed.16",
         "lat" : 41.135442,
         "lng" : 1.378155
      },
      "a6b9c1b01c3b42e3a6f31073f9821889.16" : {
         "guid" : "a6b9c1b01c3b42e3a6f31073f9821889.16",
         "name" : "unknown",
         "lng" : 0.902049,
         "lat" : 41.021665
      },
      "395068bd6de4468fbca678ed5dd83a87.16" : {
         "lat" : 41.073674,
         "lng" : 1.050413,
         "name" : "Ballenita Azul",
         "guid" : "395068bd6de4468fbca678ed5dd83a87.16"
      },
      "49098e3e61ff4ee6a75a1def54c443c5.16" : {
         "lng" : 1.100646,
         "lat" : 41.143932,
         "guid" : "49098e3e61ff4ee6a75a1def54c443c5.16",
         "name" : "Sheep Playground"
      },
      "91663632cc7c4fb3980b404e62a920b0.16" : {
         "lng" : 1.168152,
         "lat" : 41.064112,
         "guid" : "91663632cc7c4fb3980b404e62a920b0.16",
         "name" : "Columpis Del Pavello"
      },
      "6d385758ea404288a0ad721da46e110e.16" : {
         "lng" : 1.03133,
         "lat" : 41.057471,
         "guid" : "6d385758ea404288a0ad721da46e110e.16",
         "name" : "Ondas Pétreas"
      },
      "555365c6565c4e97bdcb787610b17be7.16" : {
         "name" : "unknown",
         "guid" : "555365c6565c4e97bdcb787610b17be7.16",
         "lat" : 41.158763,
         "lng" : 1.433492
      },
      "296ffb7e95674fbea5eb8a220c323804.16" : {
         "lng" : 1.238598,
         "lat" : 41.193921,
         "guid" : "296ffb7e95674fbea5eb8a220c323804.16",
         "name" : "Mural de Puigdelfí"
      },
      "9bdf74c5905b40ff8696f79632cb156b.16" : {
         "lng" : 1.09031,
         "lat" : 41.14825,
         "guid" : "9bdf74c5905b40ff8696f79632cb156b.16",
         "name" : "Mural “Los Banana”"
      },
      "e77c359bf98a4100adbdbd9fad0cb9e7.16" : {
         "name" : "Factory Art",
         "guid" : "e77c359bf98a4100adbdbd9fad0cb9e7.16",
         "lat" : 41.159906,
         "lng" : 1.123614
      },
      "07b5c253960e425c8254c4fddfc9a809.16" : {
         "guid" : "07b5c253960e425c8254c4fddfc9a809.16",
         "name" : "Almacn De Libros",
         "lng" : 1.224166,
         "lat" : 41.113915
      },
      "8b57adc310dd4d418f93410dedf78400.16" : {
         "name" : "Fuente Porto Tarragona",
         "guid" : "8b57adc310dd4d418f93410dedf78400.16",
         "lat" : 41.109107,
         "lng" : 1.248855
      },
      "0f748e191ed8426ba0f1193b92e95c51.16" : {
         "lng" : 1.410132,
         "lat" : 41.145202,
         "guid" : "0f748e191ed8426ba0f1193b92e95c51.16",
         "name" : "Fuente de Aragon"
      },
      "143b6d642abb443194deb9d234361ac3.16" : {
         "lng" : 0.876133,
         "lat" : 41.156942,
         "guid" : "143b6d642abb443194deb9d234361ac3.16",
         "name" : "Esglesia Santa Maria Magdalena De Pradell De La Teixeta"
      },
      "17a5ffc019454b30bd4f21b944253eb6.16" : {
         "lng" : 1.054815,
         "lat" : 41.142785,
         "guid" : "17a5ffc019454b30bd4f21b944253eb6.16",
         "name" : "unknown"
      },
      "48d7ff2dad4640c498e58475648cc49f.16" : {
         "lat" : 41.118086,
         "lng" : 1.261545,
         "name" : "Magna Pugna Est in Urbe",
         "guid" : "48d7ff2dad4640c498e58475648cc49f.16"
      },
      "cf2f36e20f1644748916045ce27d7817.11" : {
         "name" : "Jaime I de Aragón, el Conquistador",
         "guid" : "cf2f36e20f1644748916045ce27d7817.11",
         "lat" : 41.074388,
         "lng" : 1.139334
      },
      "b362fe564e53486c951616a0d7367ca8.12" : {
         "name" : "La Pineda",
         "guid" : "b362fe564e53486c951616a0d7367ca8.12",
         "lat" : 41.076775,
         "lng" : 1.182082
      },
      "09841768d4d54e7dafbe777bc29a40df.16" : {
         "lng" : 1.264516,
         "lat" : 41.179148,
         "guid" : "09841768d4d54e7dafbe777bc29a40df.16",
         "name" : "unknown"
      },
      "feafcef0060346168784b6d3f73b2635.16" : {
         "guid" : "feafcef0060346168784b6d3f73b2635.16",
         "name" : "unknown",
         "lng" : 1.14453,
         "lat" : 41.113417
      },
      "bbed7985675545f4bb2f62e4e0757c4e.16" : {
         "lat" : 41.06617,
         "lng" : 1.178917,
         "name" : "Water Flame ",
         "guid" : "bbed7985675545f4bb2f62e4e0757c4e.16"
      },
      "a08adfb3b00647fb96b637b815b985e1.16" : {
         "name" : "unknown",
         "guid" : "a08adfb3b00647fb96b637b815b985e1.16",
         "lat" : 40.992934,
         "lng" : 0.919067
      },
      "8c32827a26b441a5a712e0a9b52987cd.16" : {
         "lat" : 41.073649,
         "lng" : 0.934331,
         "name" : "unknown",
         "guid" : "8c32827a26b441a5a712e0a9b52987cd.16"
      },
      "6375128cc152499dbf50813e4b24d645.16" : {
         "guid" : "6375128cc152499dbf50813e4b24d645.16",
         "name" : "Espai Recreatiu del Parc",
         "lng" : 1.248623,
         "lat" : 41.137245
      },
      "cde4203285ab43aa83ea20c67ab93191.16" : {
         "lng" : 1.111446,
         "lat" : 41.166323,
         "guid" : "cde4203285ab43aa83ea20c67ab93191.16",
         "name" : "unknown"
      },
      "c46362214df343c18d828fcb88e7a74e.16" : {
         "name" : "unknown",
         "guid" : "c46362214df343c18d828fcb88e7a74e.16",
         "lat" : 41.152419,
         "lng" : 1.420104
      },
      "27aefcc49abe4efa8a086274e5ab1b57.16" : {
         "lat" : 41.081758,
         "lng" : 1.181957,
         "name" : "World Water Flower",
         "guid" : "27aefcc49abe4efa8a086274e5ab1b57.16"
      },
      "8bbed7689a9641ba999be2eb44519f20.16" : {
         "lng" : 1.187542,
         "lat" : 41.213007,
         "guid" : "8bbed7689a9641ba999be2eb44519f20.16",
         "name" : "unknown"
      },
      "bfda186796d54574a8c6752128d5127d.16" : {
         "guid" : "bfda186796d54574a8c6752128d5127d.16",
         "name" : "Cabana De Pedra Seca",
         "lng" : 0.875162,
         "lat" : 41.156114
      },
      "1be06245ef044e66baee2663fde74020.16" : {
         "guid" : "1be06245ef044e66baee2663fde74020.16",
         "name" : "Flamencs Gepec",
         "lng" : 1.416719,
         "lat" : 41.146346
      },
      "faa7ee1b012642debfbe38258fdedc4a.16" : {
         "guid" : "faa7ee1b012642debfbe38258fdedc4a.16",
         "name" : "Pedrera del Mdol",
         "lng" : 1.338888,
         "lat" : 41.138333
      },
      "9070fb0f0b1c433e8a91a89ccf79422d.16" : {
         "lng" : 1.102609,
         "lat" : 41.172262,
         "guid" : "9070fb0f0b1c433e8a91a89ccf79422d.16",
         "name" : "Pistes De Futbol"
      },