{
    "gyms": {
        "00fa51c51c9b40bd913469ac8ad0369d.16": {
            "guid": "00fa51c51c9b40bd913469ac8ad0369d.16",
            "lat": 41.155862,
            "lng": 1.111915,
            "name": "Font de la Pla\u00e7a de la Sang"
        },
        "00ffd236a0a0430b8d2e92f3cc56a34a.16": {
            "guid": "00ffd236a0a0430b8d2e92f3cc56a34a.16",
            "lat": 41.15745,
            "lng": 1.118132,
            "name": "Font Del Parc"
        },
        "01a7519b7d1f44feafba94abb96ddeb6.16": {
            "guid": "01a7519b7d1f44feafba94abb96ddeb6.16",
            "lat": 41.163226,
            "lng": 1.112514,
            "name": "Mas Sabater"
        },
        "0218bca6be494a1fb6c931bcbbd73aa9.16": {
            "guid": "0218bca6be494a1fb6c931bcbbd73aa9.16",
            "lat": 41.114235,
            "lng": 1.267027,
            "name": "Abanico"
        },
        "20aeb362fae94bb2bb66b560af75627f.16": {
            "guid": "20aeb362fae94bb2bb66b560af75627f.16",
            "lat": 41.155465,
            "lng": 1.11145,
            "name": "Highbury Irish Pub"
        },
        "2374dba5eafd4945a43e7a873ae4884b.16": {
            "guid": "2374dba5eafd4945a43e7a873ae4884b.16",
            "lat": 41.116441,
            "lng": 1.213094,
            "name": "Pilarica Font Virgin"
        },
        "2422a8c6903e4339840f7a4483d0e1d0.16": {
            "guid": "2422a8c6903e4339840f7a4483d0e1d0.16",
            "lat": 41.162979,
            "lng": 1.117391,
            "name": "Gaudi Bust"
        },
        "257478b382b24bf6898fc0ce1d8b69e4.16": {
            "guid": "257478b382b24bf6898fc0ce1d8b69e4.16",
            "lat": 41.1176,
            "lng": 1.214222,
            "name": "Espai L\u00fadic Los Naranjos"
        },
        "26688aea3c5f49d091f0980f8bb0d468.16": {
            "guid": "26688aea3c5f49d091f0980f8bb0d468.16",
            "lat": 41.122629,
            "lng": 1.210554,
            "name": "Cat Sculpture"
        },
        "28070bb2b35645e0a6c4866bb8fc92bc.16": {
            "guid": "28070bb2b35645e0a6c4866bb8fc92bc.16",
            "lat": 41.156912,
            "lng": 1.112607,
            "name": "Casa Pujol"
        },
        "29b766d43c6b42a4adb81ea30d0ce8c6.16": {
            "guid": "29b766d43c6b42a4adb81ea30d0ce8c6.16",
            "lat": 41.122408,
            "lng": 1.249568,
            "name": "Campus Catalunya de la Universitat Rovira i Virgili"
        },
        "3607b1f571aa462a836d982000dc97c5.16": {
            "guid": "3607b1f571aa462a836d982000dc97c5.16",
            "lat": 41.132315,
            "lng": 1.249553,
            "name": "Parc de la Muntanyeta"
        },
        "37b3e5b3eb0341bf9cc7782c3d279590.16": {
            "guid": "37b3e5b3eb0341bf9cc7782c3d279590.16",
            "lat": 41.132358,
            "lng": 1.251883,
            "name": "Dip\u00f2sits d'Ematsa"
        },
        "49ed1f75d3674707b0648838f3605d6c.16": {
            "guid": "49ed1f75d3674707b0648838f3605d6c.16",
            "lat": 41.12274,
            "lng": 1.202744,
            "name": "El Bosc de Ribera"
        },
        "566c237b160f48f7aa117a312fcbcb2b.16": {
            "guid": "566c237b160f48f7aa117a312fcbcb2b.16",
            "lat": 41.137815,
            "lng": 1.25212,
            "name": "Pla\u00e7a Cuba"
        },
        "62ba551f946d4368b79d71924a026bb3.16": {
            "guid": "62ba551f946d4368b79d71924a026bb3.16",
            "lat": 41.160339,
            "lng": 1.105224,
            "name": "Placa Ferr\u00e9 Revascall"
        },
        "694ab052f008460faa0d9493d21bbf87.16": {
            "guid": "694ab052f008460faa0d9493d21bbf87.16",
            "lat": 41.137584,
            "lng": 1.251883,
            "name": "Fonts Fresquetes"
        },
        "6dc6965f80f44cbfb7b33ab0e6a491d4.16": {
            "guid": "6dc6965f80f44cbfb7b33ab0e6a491d4.16",
            "lat": 41.160928,
            "lng": 1.114294,
            "name": "Plaa Pau Casals "
        },
        "72a95143e3f240178048f6d941d7593b.16": {
            "guid": "72a95143e3f240178048f6d941d7593b.16",
            "lat": 41.12137,
            "lng": 1.214336,
            "name": "A F\u00e9lix Rodr\u00edguez de la Fuente"
        },
        "75d0547993fe441ba2286681ef467a32.16": {
            "guid": "75d0547993fe441ba2286681ef467a32.16",
            "lat": 41.124241,
            "lng": 1.211274,
            "name": "Rambla de Campclar"
        },
        "87a677715fde40559b43594e69e213f0.11": {
            "guid": "87a677715fde40559b43594e69e213f0.11",
            "lat": 41.15425,
            "lng": 1.109664,
            "name": "Prioral de Sant Pere"
        },
        "90b06ce7140445a4a39ad410a4cef646.16": {
            "guid": "90b06ce7140445a4a39ad410a4cef646.16",
            "lat": 41.160176,
            "lng": 1.107106,
            "name": "Gat del Parc"
        },
        "956bec7d84e54827b0ee5c6a6fc36cb5.16": {
            "guid": "956bec7d84e54827b0ee5c6a6fc36cb5.16",
            "lat": 41.12197,
            "lng": 1.207586,
            "name": "Polisportiu Municipal Camp Clar"
        },
        "9706b16af4e84087948587bed41626ef.16": {
            "guid": "9706b16af4e84087948587bed41626ef.16",
            "lat": 41.113973,
            "lng": 1.270474,
            "name": "Parc Petit"
        },
        "a3f9f45e2ba344a8b28df921b954bf66.16": {
            "guid": "a3f9f45e2ba344a8b28df921b954bf66.16",
            "lat": 41.124639,
            "lng": 1.253531,
            "name": "Les Fonts del Cementiri"
        },
        "acdabc42b762473dbb8eea0f03140dae.16": {
            "guid": "acdabc42b762473dbb8eea0f03140dae.16",
            "lat": 41.154788,
            "lng": 1.11148,
            "name": "Arte Urb\u00e0. P\u00e0rquing Riera Mir\u00f3"
        },
        "b0c3b42201844b39adf0297bce09c01c.16": {
            "guid": "b0c3b42201844b39adf0297bce09c01c.16",
            "lat": 41.122457,
            "lng": 1.273488,
            "name": "Poem In The Ground"
        },
        "b4134a0005fd4044811b7878be2837e3.16": {
            "guid": "b4134a0005fd4044811b7878be2837e3.16",
            "lat": 41.121235,
            "lng": 1.217105,
            "name": "Camp de Futbol Torreforta"
        },
        "c0f777a9e8024badbb7b9af759f4502e.16": {
            "guid": "c0f777a9e8024badbb7b9af759f4502e.16",
            "lat": 41.126512,
            "lng": 1.247949,
            "name": "Casa Mallol"
        },
        "c8367a9f701a41a8b7cee5cd5260e9d6.16": {
            "guid": "c8367a9f701a41a8b7cee5cd5260e9d6.16",
            "lat": 41.119695,
            "lng": 1.259754,
            "name": "Casa Pintada"
        },
        "ce6eb864a7f64892befd4f505bc8d1d1.16": {
            "guid": "ce6eb864a7f64892befd4f505bc8d1d1.16",
            "lat": 41.157749,
            "lng": 1.107343,
            "name": "Vermuts Rofes"
        },
        "d9ed604a8cc0406b881805dcac0975a6.16": {
            "guid": "d9ed604a8cc0406b881805dcac0975a6.16",
            "lat": 41.163281,
            "lng": 1.104384,
            "name": "B\u00e0squet Niloga"
        },
        "decbeea84cb14c0f9c101d8d25079ca6.16": {
            "guid": "decbeea84cb14c0f9c101d8d25079ca6.16",
            "lat": 41.123765,
            "lng": 1.212203,
            "name": "Parc Infantil Puigpelat"
        },
        "e06bd3a9a6a64c11b992a34aa89f3d07.16": {
            "guid": "e06bd3a9a6a64c11b992a34aa89f3d07.16",
            "lat": 41.152856,
            "lng": 1.112376,
            "name": "Flowers Playground"
        },
        "e0f28110f43d4705a9a5bda823e4ca5c.16": {
            "guid": "e0f28110f43d4705a9a5bda823e4ca5c.16",
            "lat": 41.121988,
            "lng": 1.273177,
            "name": "Parc de les Lletres"
        },
        "e77c359bf98a4100adbdbd9fad0cb9e7.16": {
            "guid": "e77c359bf98a4100adbdbd9fad0cb9e7.16",
            "lat": 41.159906,
            "lng": 1.123614,
            "name": "Factory Art"
        },
        "eaabc933c6b9407aa3c408a15a259177.16": {
            "guid": "eaabc933c6b9407aa3c408a15a259177.16",
            "lat": 41.121185,
            "lng": 1.252095,
            "name": "Parr\u00f2quia St.Fructu\u00f3s"
        },
        "ebdfb1985b35450f8201157db7233aa0.16": {
            "guid": "ebdfb1985b35450f8201157db7233aa0.16",
            "lat": 41.16947,
            "lng": 1.121716,
            "name": "Local Monument"
        },
        "f2406b08b185479e93d6d8381f20def3.16": {
            "guid": "f2406b08b185479e93d6d8381f20def3.16",
            "lat": 41.119079,
            "lng": 1.214236,
            "name": "Monument A Les Ciutats"
        },
        "f4792c98790349c7a8a379936b3e5610.16": {
            "guid": "f4792c98790349c7a8a379936b3e5610.16",
            "lat": 41.116537,
            "lng": 1.217568,
            "name": "La Carpa Musical"
        },
        "f50aa1ce5e8244a4bb25db375f0d0ffe.16": {
            "guid": "f50aa1ce5e8244a4bb25db375f0d0ffe.16",
            "lat": 41.160604,
            "lng": 1.107742,
            "name": "Hot Dog"
        }
    },
    "pokestops": {
        "3dd6e0c7d8b34114b82aac91b7f09075.16": {
            "guid": "3dd6e0c7d8b34114b82aac91b7f09075.16",
            "lat": 41.116451,
            "lng": 1.217115,
            "name": "Carpa Nou Centre"
        },
        "be74b74bfe094628b8725d2efc90468a.16": {
            "guid": "be74b74bfe094628b8725d2efc90468a.16",
            "lat": 41.122117,
            "lng": 1.202755,
            "name": "Tarracvs Informaci\u00f3"
        },
        "ef2c671d54d9471b9fcfb0e050aefe5f.16": {
            "guid": "ef2c671d54d9471b9fcfb0e050aefe5f.16",
            "lat": 41.16764,
            "lng": 1.122966,
            "name": "Casas y Bley"
        }
    }
}