{
    "gyms": {
        "0023f4c0206c45d3a69a0ad3e6ee0d52.16": {
            "guid": "0023f4c0206c45d3a69a0ad3e6ee0d52.16",
            "lat": 41.110347,
            "lng": 1.249992,
            "name": "Monument a Mercuri"
        },
        "00ecc4670a2a46bcb965192bcda11649.16": {
            "guid": "00ecc4670a2a46bcb965192bcda11649.16",
            "lat": 41.162432,
            "lng": 1.093293,
            "name": "Cigne I Gorgona"
        },
        "00fa51c51c9b40bd913469ac8ad0369d.16": {
            "guid": "00fa51c51c9b40bd913469ac8ad0369d.16",
            "lat": 41.155862,
            "lng": 1.111915,
            "name": "Font de la Pla\u00e7a de la Sang"
        },
        "00ffd236a0a0430b8d2e92f3cc56a34a.16": {
            "guid": "00ffd236a0a0430b8d2e92f3cc56a34a.16",
            "lat": 41.15745,
            "lng": 1.118132,
            "name": "Font Del Parc"
        },
        "0129480999264049854469243ef20f65.16": {
            "guid": "0129480999264049854469243ef20f65.16",
            "lat": 41.155283,
            "lng": 1.078196,
            "name": "Campo de saltos"
        },
        "014ec397fb40420fa669871489215a5c.16": {
            "guid": "014ec397fb40420fa669871489215a5c.16",
            "lat": 41.123629,
            "lng": 1.103859,
            "name": "Pistas de Basket"
        },
        "01a7519b7d1f44feafba94abb96ddeb6.16": {
            "guid": "01a7519b7d1f44feafba94abb96ddeb6.16",
            "lat": 41.163226,
            "lng": 1.112514,
            "name": "Mas Sabater"
        },
        "0218bca6be494a1fb6c931bcbbd73aa9.16": {
            "guid": "0218bca6be494a1fb6c931bcbbd73aa9.16",
            "lat": 41.114235,
            "lng": 1.267027,
            "name": "Abanico"
        },
        "027cc35d3ef241ddbfba825075e662bb.16": {
            "guid": "027cc35d3ef241ddbfba825075e662bb.16",
            "lat": 41.161975,
            "lng": 1.09191,
            "name": "Pista De Futbol"
        },
        "027df5c277834a60bc40912e99c3a675.16": {
            "guid": "027df5c277834a60bc40912e99c3a675.16",
            "lat": 41.191195,
            "lng": 1.255739,
            "name": "En Honor A Joan Rigol"
        },
        "030e794996ab47f9b376a79bd79d6918.16": {
            "guid": "030e794996ab47f9b376a79bd79d6918.16",
            "lat": 41.135525,
            "lng": 1.363879,
            "name": "Parc Natural Gaia"
        },
        "03339aab07f2434881666bd77b165d2a.16": {
            "guid": "03339aab07f2434881666bd77b165d2a.16",
            "lat": 41.182008,
            "lng": 1.046575,
            "name": "unknown"
        },
        "03f99d7dfbf04da1b468a60ef874d822.16": {
            "guid": "03f99d7dfbf04da1b468a60ef874d822.16",
            "lat": 41.180184,
            "lng": 1.257895,
            "name": "unknown"
        },
        "0438ad97c0b14c59bcc1a58f09775a57.16": {
            "guid": "0438ad97c0b14c59bcc1a58f09775a57.16",
            "lat": 41.131174,
            "lng": 1.200511,
            "name": "La Tagliatella Gavarres"
        },
        "046959bcc8f048e9a22e6b9383616552.16": {
            "guid": "046959bcc8f048e9a22e6b9383616552.16",
            "lat": 41.043291,
            "lng": 1.003722,
            "name": "Bunker"
        },
        "0473bc11a87c4aaf967389720a182db8.16": {
            "guid": "0473bc11a87c4aaf967389720a182db8.16",
            "lat": 41.144175,
            "lng": 1.107847,
            "name": "Grafitty taller"
        },
        "050f9eaa655f441aa0852d800f65f789.16": {
            "guid": "050f9eaa655f441aa0852d800f65f789.16",
            "lat": 41.120717,
            "lng": 1.266783,
            "name": "Mol\u00ed de Llevant"
        },
        "051fc2af659e4a3c8183837dd8049c6b.16": {
            "guid": "051fc2af659e4a3c8183837dd8049c6b.16",
            "lat": 41.038737,
            "lng": 0.946218,
            "name": "unknown"
        },
        "05ba8373d7b34b6185bb58d29ab2624d.16": {
            "guid": "05ba8373d7b34b6185bb58d29ab2624d.16",
            "lat": 40.991382,
            "lng": 0.917354,
            "name": "Parque infantil de la porrasa"
        },
        "05cc602bf34247c599cdc84f192ecafc.16": {
            "guid": "05cc602bf34247c599cdc84f192ecafc.16",
            "lat": 41.071372,
            "lng": 1.051332,
            "name": "Creu Al 11 De Setembre"
        },
        "061c038ba8a44043941792142e703786.16": {
            "guid": "061c038ba8a44043941792142e703786.16",
            "lat": 41.137848,
            "lng": 0.909184,
            "name": "unknown"
        },
        "064295e0054241fd80f182467a9df779.16": {
            "guid": "064295e0054241fd80f182467a9df779.16",
            "lat": 41.135685,
            "lng": 1.050355,
            "name": "unknown"
        },
        "06d1b1ec8f5c44989bbf695c689d910b.16": {
            "guid": "06d1b1ec8f5c44989bbf695c689d910b.16",
            "lat": 41.166098,
            "lng": 1.110609,
            "name": "Escut Reus Deportiu"
        },
        "07062393d5714f0e933e75bb5f577f32.16": {
            "guid": "07062393d5714f0e933e75bb5f577f32.16",
            "lat": 41.137266,
            "lng": 1.389638,
            "name": "unknown"
        },
        "07784a89e63f440a80671496d48740c5.11": {
            "guid": "07784a89e63f440a80671496d48740c5.11",
            "lat": 41.144349,
            "lng": 1.123296,
            "name": "Neob-Reus"
        },
        "079570357de044d7a2eb40643e60e17f.16": {
            "guid": "079570357de044d7a2eb40643e60e17f.16",
            "lat": 41.110662,
            "lng": 1.04132,
            "name": "Font Refrescant"
        },
        "07b03e48485846d8ab6a4af5b6ebb8ce.16": {
            "guid": "07b03e48485846d8ab6a4af5b6ebb8ce.16",
            "lat": 41.138085,
            "lng": 0.989654,
            "name": "unknown"
        },
        "07b5c253960e425c8254c4fddfc9a809.16": {
            "guid": "07b5c253960e425c8254c4fddfc9a809.16",
            "lat": 41.113915,
            "lng": 1.224166,
            "name": "Almac\u00e9n De Libros"
        },
        "085ec3b00d3249c392ce15ad1a97e64c.16": {
            "guid": "085ec3b00d3249c392ce15ad1a97e64c.16",
            "lat": 41.215956,
            "lng": 1.134825,
            "name": "Font de la part Alta"
        },
        "08604f84d98a463697f420396dae5186.16": {
            "guid": "08604f84d98a463697f420396dae5186.16",
            "lat": 41.129822,
            "lng": 1.128874,
            "name": "Playground Tobogan"
        },
        "08ca32f416ed41c4853cf0aac0796f53.16": {
            "guid": "08ca32f416ed41c4853cf0aac0796f53.16",
            "lat": 41.162426,
            "lng": 1.265052,
            "name": "Parc dels Graffitis"
        },
        "0972f80a9c5f4acc934bf76e1d18dc3e.16": {
            "guid": "0972f80a9c5f4acc934bf76e1d18dc3e.16",
            "lat": 41.067108,
            "lng": 1.057113,
            "name": "Fountain Square"
        },
        "09841768d4d54e7dafbe777bc29a40df.16": {
            "guid": "09841768d4d54e7dafbe777bc29a40df.16",
            "lat": 41.179148,
            "lng": 1.264516,
            "name": "unknown"
        },
        "0a084e983b7b4aefa92192aea31b2e9a.16": {
            "guid": "0a084e983b7b4aefa92192aea31b2e9a.16",
            "lat": 41.147351,
            "lng": 1.119854,
            "name": "Verge del Calvari"
        },
        "0a73445b10784939bc903288232c0bc7.16": {
            "guid": "0a73445b10784939bc903288232c0bc7.16",
            "lat": 41.080411,
            "lng": 0.95174,
            "name": "unknown"
        },
        "0b3aab45177549639a08bc917bb40aa6.16": {
            "guid": "0b3aab45177549639a08bc917bb40aa6.16",
            "lat": 41.151444,
            "lng": 1.216413,
            "name": "Monument Onze de Setembre"
        },
        "0b3d7937e76e4ed7b5c4c957ebad7944.16": {
            "guid": "0b3d7937e76e4ed7b5c4c957ebad7944.16",
            "lat": 41.12537,
            "lng": 1.217266,
            "name": "Parc L'Albada"
        },
        "0b89adc74cae419d9a42dc9cbe20f6c9.16": {
            "guid": "0b89adc74cae419d9a42dc9cbe20f6c9.16",
            "lat": 41.11748,
            "lng": 1.184617,
            "name": "font del centenari"
        },
        "0bb532ecc0f945ffbdd93b4433468237.16": {
            "guid": "0bb532ecc0f945ffbdd93b4433468237.16",
            "lat": 41.148589,
            "lng": 1.093446,
            "name": "Parrquia Immaculada"
        },
        "0c7df9479381407f805186018755cec6.16": {
            "guid": "0c7df9479381407f805186018755cec6.16",
            "lat": 41.154038,
            "lng": 1.100173,
            "name": "Biblioteca Central Xavier Amor\u00f3s"
        },
        "0caecbec9a3d4458acdaa3b5729f5f2a.16": {
            "guid": "0caecbec9a3d4458acdaa3b5729f5f2a.16",
            "lat": 41.164592,
            "lng": 1.102457,
            "name": "Estatua Nens Jugant a la pla\u00e7a Mineta"
        },
        "0ce89410425243e09152b08de123b7d2.16": {
            "guid": "0ce89410425243e09152b08de123b7d2.16",
            "lat": 41.184972,
            "lng": 1.205185,
            "name": "Area Muelles 3d"
        },
        "0d12beaddee94557a5a50abee5bbcab8.16": {
            "guid": "0d12beaddee94557a5a50abee5bbcab8.16",
            "lat": 41.061318,
            "lng": 1.040352,
            "name": "unknown"
        },
        "0d3135e01eca49f0ac9cca4e50cbfeaa.16": {
            "guid": "0d3135e01eca49f0ac9cca4e50cbfeaa.16",
            "lat": 41.147634,
            "lng": 1.079851,
            "name": "Dipsit d'Aigua ntic"
        },
        "0e4f617df8954649b2d027ed576cedf4.16": {
            "guid": "0e4f617df8954649b2d027ed576cedf4.16",
            "lat": 41.06406,
            "lng": 1.057002,
            "name": "Ancla Cambrils"
        },
        "0e9a9813393d4620a04d575eea4eec86.16": {
            "guid": "0e9a9813393d4620a04d575eea4eec86.16",
            "lat": 41.080887,
            "lng": 1.136301,
            "name": "\u0410\u0440\u043a\u0430"
        },
        "0ec2ef39c7214ea4a7c86f84576cb33b.11": {
            "guid": "0ec2ef39c7214ea4a7c86f84576cb33b.11",
            "lat": 41.154802,
            "lng": 1.108606,
            "name": "Casa Nav\u00e0s"
        },
        "0ee74a1ebc244a7199a936fe8a76794e.16": {
            "guid": "0ee74a1ebc244a7199a936fe8a76794e.16",
            "lat": 41.117984,
            "lng": 1.25864,
            "name": "Calendar Tree"
        },
        "0f748e191ed8426ba0f1193b92e95c51.16": {
            "guid": "0f748e191ed8426ba0f1193b92e95c51.16",
            "lat": 41.145202,
            "lng": 1.410132,
            "name": "Fuente de Aragon"
        },
        "1043017b0ce54c42ad2d9cbbca572777.16": {
            "guid": "1043017b0ce54c42ad2d9cbbca572777.16",
            "lat": 41.062585,
            "lng": 1.171135,
            "name": "unknown"
        },
        "1106f79253cc4bdd8b319f256e36c423.16": {
            "guid": "1106f79253cc4bdd8b319f256e36c423.16",
            "lat": 41.143595,
            "lng": 1.099764,
            "name": "Esgl\u00e9sia de Miseric\u00f2rdia"
        },
        "13699b3085fb4b7ea6723777f032dc28.16": {
            "guid": "13699b3085fb4b7ea6723777f032dc28.16",
            "lat": 41.083999,
            "lng": 1.182299,
            "name": "Fuente Hacienda"
        },
        "13a6fadd051745238652ba7b531f85a3.16": {
            "guid": "13a6fadd051745238652ba7b531f85a3.16",
            "lat": 40.995857,
            "lng": 0.920727,
            "name": "unknown"
        },
        "13b4f8cffa9041aab4fb6e6cfbc157fe.16": {
            "guid": "13b4f8cffa9041aab4fb6e6cfbc157fe.16",
            "lat": 41.075392,
            "lng": 1.054006,
            "name": "unknown"
        },
        "13cda0c2945d4cd0a11c006b3e5dfc05.16": {
            "guid": "13cda0c2945d4cd0a11c006b3e5dfc05.16",
            "lat": 41.053818,
            "lng": 0.935802,
            "name": "unknown"
        },
        "143b6d642abb443194deb9d234361ac3.16": {
            "guid": "143b6d642abb443194deb9d234361ac3.16",
            "lat": 41.156942,
            "lng": 0.876133,
            "name": "Esglesia Santa Maria Magdalena De Pradell De La Teixeta"
        },
        "143d2673fe9f4c60a76199817640ad2d.16": {
            "guid": "143d2673fe9f4c60a76199817640ad2d.16",
            "lat": 41.162859,
            "lng": 1.243579,
            "name": "Complex Esportiu de Sant Salvador"
        },
        "1496e4653eac40289dd1e7492527273f.16": {
            "guid": "1496e4653eac40289dd1e7492527273f.16",
            "lat": 41.156701,
            "lng": 1.118151,
            "name": "Spiderman Playground"
        },
        "14acee3d719f491a9834bea2ddb42c78.16": {
            "guid": "14acee3d719f491a9834bea2ddb42c78.16",
            "lat": 40.989033,
            "lng": 0.926774,
            "name": "Club N\u00e0utic Hospitalet - Vandell\u00f2s"
        },
        "157076459b1f417ca148ae4a2ac3c0be.16": {
            "guid": "157076459b1f417ca148ae4a2ac3c0be.16",
            "lat": 41.088951,
            "lng": 1.159981,
            "name": "Gran Teatre Imperial"
        },
        "15761f165a424a1ba7d4099080f6bf3e.11": {
            "guid": "15761f165a424a1ba7d4099080f6bf3e.11",
            "lat": 41.14079,
            "lng": 1.053527,
            "name": "Restes arqueol\u00f2giques"
        },
        "1601156290894aea8701ea450be248e6.16": {
            "guid": "1601156290894aea8701ea450be248e6.16",
            "lat": 41.023702,
            "lng": 0.938338,
            "name": "Playground Nicaragua"
        },
        "1607a58e239547aa883fd8efd73671b1.16": {
            "guid": "1607a58e239547aa883fd8efd73671b1.16",
            "lat": 41.124185,
            "lng": 1.238657,
            "name": "Apostols"
        },
        "16b99452e4814a9abba4fdd946c528ab.16": {
            "guid": "16b99452e4814a9abba4fdd946c528ab.16",
            "lat": 41.070188,
            "lng": 1.176222,
            "name": "Aquum Entrance"
        },
        "17a5ffc019454b30bd4f21b944253eb6.16": {
            "guid": "17a5ffc019454b30bd4f21b944253eb6.16",
            "lat": 41.142785,
            "lng": 1.054815,
            "name": "unknown"
        },
        "17fa34a8779747289c5e33dda3585775.16": {
            "guid": "17fa34a8779747289c5e33dda3585775.16",
            "lat": 41.16566,
            "lng": 1.101972,
            "name": "Old Tower"
        },
        "18d2025534ae47b087a3abef0da55928.16": {
            "guid": "18d2025534ae47b087a3abef0da55928.16",
            "lat": 41.061587,
            "lng": 0.929921,
            "name": "unknown"
        },
        "1943018aed324d33bc6e66db840c2896.16": {
            "guid": "1943018aed324d33bc6e66db840c2896.16",
            "lat": 41.078227,
            "lng": 0.941214,
            "name": "unknown"
        },
        "1a0bdb06fd0f42e494b2c4aad6001ee7.16": {
            "guid": "1a0bdb06fd0f42e494b2c4aad6001ee7.16",
            "lat": 41.179807,
            "lng": 1.098701,
            "name": "Les Terres"
        },
        "1a1d4a56cd5548659f633fdf8fb0b3db.16": {
            "guid": "1a1d4a56cd5548659f633fdf8fb0b3db.16",
            "lat": 41.14245,
            "lng": 1.375963,
            "name": "Estatua Del Fraile"
        },
        "1a8dbee1673b433a929e9e9525cc81cd.16": {
            "guid": "1a8dbee1673b433a929e9e9525cc81cd.16",
            "lat": 41.117288,
            "lng": 1.255704,
            "name": "Pla\u00e7a dels Sedassos"
        },
        "1aa3d0e4862e4484b2b385a736cb7173.16": {
            "guid": "1aa3d0e4862e4484b2b385a736cb7173.16",
            "lat": 41.120171,
            "lng": 1.189761,
            "name": "Fes Esport"
        },
        "1ab05bbc6099441c84496c0438837bb1.16": {
            "guid": "1ab05bbc6099441c84496c0438837bb1.16",
            "lat": 41.06947,
            "lng": 1.099174,
            "name": "Iron Structure"
        },
        "1ac121d83b6a4ef49acf55d126cfd8a5.16": {
            "guid": "1ac121d83b6a4ef49acf55d126cfd8a5.16",
            "lat": 41.12591,
            "lng": 1.244932,
            "name": "Tarragona 2 Park"
        },
        "1ba52a5f8308483aac079402a06ceca7.16": {
            "guid": "1ba52a5f8308483aac079402a06ceca7.16",
            "lat": 41.004407,
            "lng": 0.938754,
            "name": "Casita De Madera Con El Caracol Sonriente"
        },
        "1be06245ef044e66baee2663fde74020.16": {
            "guid": "1be06245ef044e66baee2663fde74020.16",
            "lat": 41.146346,
            "lng": 1.416719,
            "name": "Flamencs Gepec"
        },
        "1c09d6e2537145ad93326fedec22a23e.16": {
            "guid": "1c09d6e2537145ad93326fedec22a23e.16",
            "lat": 41.129848,
            "lng": 1.200148,
            "name": "Monumento Homenatge Josep Maria Folch I Torres"
        },
        "1c0ac3f927ad403d95e43571d5325813.16": {
            "guid": "1c0ac3f927ad403d95e43571d5325813.16",
            "lat": 41.112797,
            "lng": 0.938029,
            "name": "Font Agroestetica"
        },
        "1cc05620e03344139a7873e13a205502.16": {
            "guid": "1cc05620e03344139a7873e13a205502.16",
            "lat": 41.006523,
            "lng": 0.929415,
            "name": "Parque Infantil Veracruz"
        },
        "1d5fa22a9be94d58b6c8b9e70b549cef.16": {
            "guid": "1d5fa22a9be94d58b6c8b9e70b549cef.16",
            "lat": 41.116783,
            "lng": 1.241509,
            "name": "Restes Del Parc"
        },
        "1e2b9b51d4ea4d29897b24be3fb05b8d.16": {
            "guid": "1e2b9b51d4ea4d29897b24be3fb05b8d.16",
            "lat": 41.049879,
            "lng": 0.942299,
            "name": "unknown"
        },
        "1e8f6825528f4ee19ea8e155ce4d1a62.16": {
            "guid": "1e8f6825528f4ee19ea8e155ce4d1a62.16",
            "lat": 41.066404,
            "lng": 1.148757,
            "name": "unknown"
        },
        "1ecf5821358e41eea2f3b6abe303a6dd.16": {
            "guid": "1ecf5821358e41eea2f3b6abe303a6dd.16",
            "lat": 41.084711,
            "lng": 1.187637,
            "name": "unknown"
        },
        "1ef38b2b6c9b4f7ab961f0d3773f7719.16": {
            "guid": "1ef38b2b6c9b4f7ab961f0d3773f7719.16",
            "lat": 41.141604,
            "lng": 1.373395,
            "name": "Mural Bibliotecari"
        },
        "1f952c2ce1ad4298b0ba9b89864b44ef.16": {
            "guid": "1f952c2ce1ad4298b0ba9b89864b44ef.16",
            "lat": 41.142701,
            "lng": 1.37574,
            "name": "unknown"
        },
        "1f954da775ea4f64a6a528f1d82ebe4e.16": {
            "guid": "1f954da775ea4f64a6a528f1d82ebe4e.16",
            "lat": 41.06688,
            "lng": 1.176587,
            "name": "Lotus"
        },
        "201f844cdb0649bdb3cfc7bd3cc72441.16": {
            "guid": "201f844cdb0649bdb3cfc7bd3cc72441.16",
            "lat": 41.181318,
            "lng": 1.096999,
            "name": "Old Castle Fountain"
        },
        "2064d4a683e841aebe832ab4dc0b2731.16": {
            "guid": "2064d4a683e841aebe832ab4dc0b2731.16",
            "lat": 41.1442,
            "lng": 1.116374,
            "name": "Mini Playground"
        },
        "20a4521ebc6a483ca7451cff7029a5d1.16": {
            "guid": "20a4521ebc6a483ca7451cff7029a5d1.16",
            "lat": 41.138569,
            "lng": 1.253363,
            "name": "Parc Europa"
        },
        "20aeb362fae94bb2bb66b560af75627f.16": {
            "guid": "20aeb362fae94bb2bb66b560af75627f.16",
            "lat": 41.155465,
            "lng": 1.11145,
            "name": "Highbury Irish Pub"
        },
        "20c9000ff1a04a92b266f608a12da223.16": {
            "guid": "20c9000ff1a04a92b266f608a12da223.16",
            "lat": 41.08484,
            "lng": 1.188849,
            "name": "Skatepark La Caracola"
        },
        "20f37935770d46959eb3770addafaea1.16": {
            "guid": "20f37935770d46959eb3770addafaea1.16",
            "lat": 40.988534,
            "lng": 0.923692,
            "name": "Marina 2"
        },
        "210044c0b0164099a0e9ddc6d3aadf6b.12": {
            "guid": "210044c0b0164099a0e9ddc6d3aadf6b.12",
            "lat": 41.111715,
            "lng": 1.14603,
            "name": "Sant Bernat Calv\u00f3"
        },
        "210aba7af5e54484b7f9f5868d7a0598.16": {
            "guid": "210aba7af5e54484b7f9f5868d7a0598.16",
            "lat": 41.152356,
            "lng": 1.216673,
            "name": "Camp de basquet del cb Constant\u00ed"
        },
        "211f511ca5ad424e80f5f7df19f08729.16": {
            "guid": "211f511ca5ad424e80f5f7df19f08729.16",
            "lat": 41.186749,
            "lng": 1.210065,
            "name": "Parc Infantil"
        },
        "2136ab8ec7f342bc8afaa81e78c36e20.16": {
            "guid": "2136ab8ec7f342bc8afaa81e78c36e20.16",
            "lat": 41.091794,
            "lng": 1.153815,
            "name": "Gold River"
        },
        "2140c3bbbb714d3bb2e8f4497d6cec3d.16": {
            "guid": "2140c3bbbb714d3bb2e8f4497d6cec3d.16",
            "lat": 41.12406,
            "lng": 1.238246,
            "name": "Los Frutos Del Ayer"
        },
        "2239aca9423949b6ae33297814e066c9.16": {
            "guid": "2239aca9423949b6ae33297814e066c9.16",
            "lat": 41.148254,
            "lng": 1.41207,
            "name": "unknown"
        },
        "225229aa497444a386d2c0be3a246741.16": {
            "guid": "225229aa497444a386d2c0be3a246741.16",
            "lat": 41.124599,
            "lng": 1.180259,
            "name": "Parc D'infants"
        },
        "2374dba5eafd4945a43e7a873ae4884b.16": {
            "guid": "2374dba5eafd4945a43e7a873ae4884b.16",
            "lat": 41.116441,
            "lng": 1.213094,
            "name": "Pilarica Font Virgin"
        },
        "2422a8c6903e4339840f7a4483d0e1d0.16": {
            "guid": "2422a8c6903e4339840f7a4483d0e1d0.16",
            "lat": 41.162979,
            "lng": 1.117391,
            "name": "Gaudi Bust"
        },
        "2422c0a8922a4b97922619ffe1bc46a8.16": {
            "guid": "2422c0a8922a4b97922619ffe1bc46a8.16",
            "lat": 41.067121,
            "lng": 1.056681,
            "name": "Creu de la missi\u00f3"
        },
        "2432e20a70584e2f84eaa59b0945ac0d.11": {
            "guid": "2432e20a70584e2f84eaa59b0945ac0d.11",
            "lat": 41.111389,
            "lng": 1.252862,
            "name": "Estaci\u00f3 de Trens Renfe de Tarragona"
        },
        "24f25b05dcdf49fdb86ceda4a2b48013.16": {
            "guid": "24f25b05dcdf49fdb86ceda4a2b48013.16",
            "lat": 41.086194,
            "lng": 1.134571,
            "name": "unknown"
        },
        "250c42432bef4cd18226f10c9f1d9fbe.16": {
            "guid": "250c42432bef4cd18226f10c9f1d9fbe.16",
            "lat": 41.059282,
            "lng": 1.024796,
            "name": "Campo de F\u00fatbol"
        },
        "25197960da6b4eb2ac3925cb2932158c.16": {
            "guid": "25197960da6b4eb2ac3925cb2932158c.16",
            "lat": 41.151268,
            "lng": 1.100449,
            "name": "Aliga de Reus Graffiti"
        },
        "251d589588fd4eed9dfa4b2ca701575d.16": {
            "guid": "251d589588fd4eed9dfa4b2ca701575d.16",
            "lat": 41.145161,
            "lng": 1.27628,
            "name": "Balc\u00f3 de Tarragona"
        },
        "257478b382b24bf6898fc0ce1d8b69e4.16": {
            "guid": "257478b382b24bf6898fc0ce1d8b69e4.16",
            "lat": 41.1176,
            "lng": 1.214222,
            "name": "Espai L\u00fadic Los Naranjos"
        },
        "25dfb858a5384fac88d030c6aedbdcd7.16": {
            "guid": "25dfb858a5384fac88d030c6aedbdcd7.16",
            "lat": 41.054131,
            "lng": 0.940657,
            "name": "unknown"
        },
        "25fee3d840734f63b3d7d78274db4b49.16": {
            "guid": "25fee3d840734f63b3d7d78274db4b49.16",
            "lat": 41.119186,
            "lng": 1.25371,
            "name": "Drac Amagat"
        },
        "261f1e2221584556b703f6acd8a9ebb4.16": {
            "guid": "261f1e2221584556b703f6acd8a9ebb4.16",
            "lat": 41.004439,
            "lng": 0.927775,
            "name": "Fuente Parc "
        },
        "265a2ba3759640eeb64b69c746b0b1d6.16": {
            "guid": "265a2ba3759640eeb64b69c746b0b1d6.16",
            "lat": 41.215396,
            "lng": 1.14049,
            "name": "Cami De Paret-Delgada"
        },
        "26688aea3c5f49d091f0980f8bb0d468.16": {
            "guid": "26688aea3c5f49d091f0980f8bb0d468.16",
            "lat": 41.122629,
            "lng": 1.210554,
            "name": "Cat Sculpture"
        },
        "26d26bdbd9b34cc0bec975de487b4faf.16": {
            "guid": "26d26bdbd9b34cc0bec975de487b4faf.16",
            "lat": 41.080692,
            "lng": 1.124537,
            "name": "unknown"
        },
        "26dbeed6b03545528449cb7bca540cb3.16": {
            "guid": "26dbeed6b03545528449cb7bca540cb3.16",
            "lat": 41.197907,
            "lng": 1.113713,
            "name": "unknown"
        },
        "26dd29dffa464fed860db78604751f02.16": {
            "guid": "26dd29dffa464fed860db78604751f02.16",
            "lat": 41.041387,
            "lng": 0.940013,
            "name": "unknown"
        },
        "27aefcc49abe4efa8a086274e5ab1b57.16": {
            "guid": "27aefcc49abe4efa8a086274e5ab1b57.16",
            "lat": 41.081758,
            "lng": 1.181957,
            "name": "World Water Flower"
        },
        "2805c466244f4368a12877d5ad2daf7e.16": {
            "guid": "2805c466244f4368a12877d5ad2daf7e.16",
            "lat": 41.111094,
            "lng": 1.240948,
            "name": "Poliesportiu Del Serrallo"
        },
        "28070bb2b35645e0a6c4866bb8fc92bc.16": {
            "guid": "28070bb2b35645e0a6c4866bb8fc92bc.16",
            "lat": 41.156912,
            "lng": 1.112607,
            "name": "Casa Pujol"
        },
        "28ed117f8c9a494092eab20403d58661.16": {
            "guid": "28ed117f8c9a494092eab20403d58661.16",
            "lat": 40.994576,
            "lng": 0.920008,
            "name": "Centre Cultural Infant Pere"
        },
        "291bc06963314f908858b1ac9248d84e.16": {
            "guid": "291bc06963314f908858b1ac9248d84e.16",
            "lat": 41.136644,
            "lng": 1.09402,
            "name": "Area De Juegos"
        },
        "29338f42d5b346a49f354d86fecf4179.16": {
            "guid": "29338f42d5b346a49f354d86fecf4179.16",
            "lat": 41.081836,
            "lng": 1.098503,
            "name": "unknown"
        },
        "296ffb7e95674fbea5eb8a220c323804.16": {
            "guid": "296ffb7e95674fbea5eb8a220c323804.16",
            "lat": 41.193921,
            "lng": 1.238598,
            "name": "Mural de Puigdelf\u00ed"
        },
        "29a030b057be49c59fbb8826aff943b1.16": {
            "guid": "29a030b057be49c59fbb8826aff943b1.16",
            "lat": 41.076293,
            "lng": 1.147749,
            "name": "unknown"
        },
        "29b766d43c6b42a4adb81ea30d0ce8c6.16": {
            "guid": "29b766d43c6b42a4adb81ea30d0ce8c6.16",
            "lat": 41.122408,
            "lng": 1.249568,
            "name": "Campus Catalunya de la Universitat Rovira i Virgili"
        },
        "29f3ce6b5501461595f71acfe326f3f7.16": {
            "guid": "29f3ce6b5501461595f71acfe326f3f7.16",
            "lat": 41.160177,
            "lng": 1.085559,
            "name": "Parroquia De L'Assumpci\u00f3 "
        },
        "29fd85266e75421db3ca57743d774762.16": {
            "guid": "29fd85266e75421db3ca57743d774762.16",
            "lat": 41.151665,
            "lng": 1.417743,
            "name": "unknown"
        },
        "2a16dc5f5c6c4cdfa3bf909b9b55c9cc.16": {
            "guid": "2a16dc5f5c6c4cdfa3bf909b9b55c9cc.16",
            "lat": 41.156894,
            "lng": 1.136691,
            "name": "Vaca Meditando"
        },
        "2be73ed55ae54167a1f6310e3603b162.16": {
            "guid": "2be73ed55ae54167a1f6310e3603b162.16",
            "lat": 41.160993,
            "lng": 1.271496,
            "name": "Fleca Artesana Gisbert"
        },
        "2c25cfaec1fd45d2b88ab472392b38c2.16": {
            "guid": "2c25cfaec1fd45d2b88ab472392b38c2.16",
            "lat": 41.211033,
            "lng": 1.143783,
            "name": "Elefant de L'Estaci\u00f3"
        },
        "2c5e8ec4dbe34641a977b7f4ce507639.16": {
            "guid": "2c5e8ec4dbe34641a977b7f4ce507639.16",
            "lat": 41.071282,
            "lng": 1.052595,
            "name": "unknown"
        },
        "2ca612ec1f2e464b8ea53035fae62e28.16": {
            "guid": "2ca612ec1f2e464b8ea53035fae62e28.16",
            "lat": 41.120872,
            "lng": 1.267189,
            "name": "Escultura Gaud\u00ed"
        },
        "2d7deb8833b64965b77eb7576c53ef83.16": {
            "guid": "2d7deb8833b64965b77eb7576c53ef83.16",
            "lat": 41.080647,
            "lng": 1.180483,
            "name": "Pavell\u00f3 Esports Pineda"
        },
        "2df0aeeb778f49e48bf2fa8f8531a9c5.16": {
            "guid": "2df0aeeb778f49e48bf2fa8f8531a9c5.16",
            "lat": 41.119148,
            "lng": 1.192509,
            "name": "Font"
        },
        "2f21df27a476412fbb224e24f0c07c34.16": {
            "guid": "2f21df27a476412fbb224e24f0c07c34.16",
            "lat": 41.156273,
            "lng": 1.24041,
            "name": "Parc Dels Prefabricats "
        },
        "2f43cc3b73ef437cb1a8198f4797bd78.16": {
            "guid": "2f43cc3b73ef437cb1a8198f4797bd78.16",
            "lat": 41.139785,
            "lng": 1.366414,
            "name": "unknown"
        },
        "2f9a852d6c974b6885a726e929cb47d0.16": {
            "guid": "2f9a852d6c974b6885a726e929cb47d0.16",
            "lat": 41.149601,
            "lng": 1.396402,
            "name": "Parc Infantil Crisantem"
        },
        "2fcf846dcf6448e09edacfee653cbff2.16": {
            "guid": "2fcf846dcf6448e09edacfee653cbff2.16",
            "lat": 41.090121,
            "lng": 1.156221,
            "name": "Stampida"
        },
        "304b2430ab024461825671b66063c00c.16": {
            "guid": "304b2430ab024461825671b66063c00c.16",
            "lat": 41.14613,
            "lng": 1.113246,
            "name": "Roserar Joaquima Gallis\u00e0 i Rueda"
        },
        "30a0aa3ffd394f4bbd3e28ed68aaec8b.16": {
            "guid": "30a0aa3ffd394f4bbd3e28ed68aaec8b.16",
            "lat": 41.122323,
            "lng": 0.999822,
            "name": "Sant Antoni De Padua"
        },
        "314d2dbf0c04412eb536e87b6c6e426b.16": {
            "guid": "314d2dbf0c04412eb536e87b6c6e426b.16",
            "lat": 41.088821,
            "lng": 0.955245,
            "name": "unknown"
        },
        "31f532b253094224983edabc9b207084.16": {
            "guid": "31f532b253094224983edabc9b207084.16",
            "lat": 41.072689,
            "lng": 1.179219,
            "name": "Home I Dofi"
        },
        "3230294cd060429eaf1b68ed0ff88593.16": {
            "guid": "3230294cd060429eaf1b68ed0ff88593.16",
            "lat": 41.084896,
            "lng": 1.156159,
            "name": "Furius Baco"
        },
        "32c1caaee9c64e0ca283c0e17d80bc9b.16": {
            "guid": "32c1caaee9c64e0ca283c0e17d80bc9b.16",
            "lat": 41.14991,
            "lng": 1.099148,
            "name": "Font Del Centenari"
        },
        "33387d6bd573480693c2604aadb41daa.16": {
            "guid": "33387d6bd573480693c2604aadb41daa.16",
            "lat": 41.036126,
            "lng": 0.975689,
            "name": "Cachoeira Du Sol"
        },
        "336e336714b94726864ea612ee75074d.16": {
            "guid": "336e336714b94726864ea612ee75074d.16",
            "lat": 41.157684,
            "lng": 1.100624,
            "name": "Car Grafitti"
        },
        "3384c58c1be44f9c97d82ef0d1f1987e.16": {
            "guid": "3384c58c1be44f9c97d82ef0d1f1987e.16",
            "lat": 41.144618,
            "lng": 1.270997,
            "name": "El Balc\u00f3 de les Mares"
        },
        "339b12a0cf1f4285b9df1e408efebadd.16": {
            "guid": "339b12a0cf1f4285b9df1e408efebadd.16",
            "lat": 41.123964,
            "lng": 1.267531,
            "name": "Font De La Mosca"
        },
        "34681d8da93e463681226e4059b8b478.11": {
            "guid": "34681d8da93e463681226e4059b8b478.11",
            "lat": 41.114931,
            "lng": 1.254163,
            "name": "Escultura de L'avi Virgili"
        },
        "3487ab22db91499d975715486d549ce9.16": {
            "guid": "3487ab22db91499d975715486d549ce9.16",
            "lat": 41.212562,
            "lng": 1.133218,
            "name": "unknown"
        },
        "3517d1c688a146a5a2b2e9a0d8e4baf1.16": {
            "guid": "3517d1c688a146a5a2b2e9a0d8e4baf1.16",
            "lat": 41.143858,
            "lng": 1.412756,
            "name": "Casita Mar"
        },
        "35d6a24fb85944dea29540d7b9771f3b.16": {
            "guid": "35d6a24fb85944dea29540d7b9771f3b.16",
            "lat": 41.057673,
            "lng": 0.933023,
            "name": "unknown"
        },
        "3607b1f571aa462a836d982000dc97c5.16": {
            "guid": "3607b1f571aa462a836d982000dc97c5.16",
            "lat": 41.132315,
            "lng": 1.249553,
            "name": " Parc de la Muntanyeta"
        },
        "36194d318dea407380c3984fe68504fd.16": {
            "guid": "36194d318dea407380c3984fe68504fd.16",
            "lat": 41.192318,
            "lng": 1.211857,
            "name": "Pla\u00e7a del Mil\u00b7lenari"
        },
        "36acd6e7a7834032b0d650d7f16a3245.16": {
            "guid": "36acd6e7a7834032b0d650d7f16a3245.16",
            "lat": 41.064628,
            "lng": 1.078836,
            "name": "Platja del Cavet"
        },
        "36ebd5ee50fe4be8a5d40dca4a664c80.16": {
            "guid": "36ebd5ee50fe4be8a5d40dca4a664c80.16",
            "lat": 41.140245,
            "lng": 1.370162,
            "name": "unknown"
        },
        "36f6a4a0bf08462c8b43c942d87d7dd5.16": {
            "guid": "36f6a4a0bf08462c8b43c942d87d7dd5.16",
            "lat": 41.118777,
            "lng": 1.19283,
            "name": "Deessa"
        },
        "376d3a7fada14a22bac5962a5e9dc4eb.16": {
            "guid": "376d3a7fada14a22bac5962a5e9dc4eb.16",
            "lat": 41.12225,
            "lng": 1.239528,
            "name": "Otto Club Zutz"
        },
        "37b3e5b3eb0341bf9cc7782c3d279590.16": {
            "guid": "37b3e5b3eb0341bf9cc7782c3d279590.16",
            "lat": 41.132358,
            "lng": 1.251883,
            "name": "Dip\u00f2sits d'Ematsa"
        },
        "37bd7a7b17b0421e90472fe92952f23b.16": {
            "guid": "37bd7a7b17b0421e90472fe92952f23b.16",
            "lat": 41.116402,
            "lng": 1.242171,
            "name": "Quinta de Sant Rafael"
        },
        "37e1b99fac5c420399362ae51fb2adbc.16": {
            "guid": "37e1b99fac5c420399362ae51fb2adbc.16",
            "lat": 41.130674,
            "lng": 1.360464,
            "name": "Creu Castell Tamarit"
        },
        "380461562fee4c448e0dc6417eedabf0.16": {
            "guid": "380461562fee4c448e0dc6417eedabf0.16",
            "lat": 40.990807,
            "lng": 0.929611,
            "name": "Vaixell Encallat"
        },
        "38e7d805809f4c7aaaf2cf22a4ae21b5.16": {
            "guid": "38e7d805809f4c7aaaf2cf22a4ae21b5.16",
            "lat": 41.027532,
            "lng": 0.922839,
            "name": "unknown"
        },
        "39182b86f37d4e6b87e846d5a6c5fa2f.16": {
            "guid": "39182b86f37d4e6b87e846d5a6c5fa2f.16",
            "lat": 41.144007,
            "lng": 1.117533,
            "name": "Biblioteca Municipal Pere Anguera"
        },
        "395068bd6de4468fbca678ed5dd83a87.16": {
            "guid": "395068bd6de4468fbca678ed5dd83a87.16",
            "lat": 41.073674,
            "lng": 1.050413,
            "name": "Ballenita Azul"
        },
        "399193a5b31f4f3bb2d3e514a1d3f3c7.16": {
            "guid": "399193a5b31f4f3bb2d3e514a1d3f3c7.16",
            "lat": 41.129087,
            "lng": 1.346433,
            "name": "unknown"
        },
        "39a710ac3bd44d21a6d80d2f96e900bc.11": {
            "guid": "39a710ac3bd44d21a6d80d2f96e900bc.11",
            "lat": 41.084903,
            "lng": 1.125646,
            "name": "The Public"
        },
        "39aa1d4de10444b0ac5d2f733c29a961.16": {
            "guid": "39aa1d4de10444b0ac5d2f733c29a961.16",
            "lat": 41.117754,
            "lng": 1.237005,
            "name": "Litos"
        },
        "39bc2452e28543c9841607319c5df006.16": {
            "guid": "39bc2452e28543c9841607319c5df006.16",
            "lat": 41.072532,
            "lng": 1.09686,
            "name": "Castillo Vilafortuny"
        },
        "3a15143bda694052be40fd1c2e3307dd.16": {
            "guid": "3a15143bda694052be40fd1c2e3307dd.16",
            "lat": 41.210788,
            "lng": 1.1326,
            "name": "Arcs De L'Abel Ferrater"
        },
        "3b5d5fc1d01e46b39a618d5c8481b0c9.16": {
            "guid": "3b5d5fc1d01e46b39a618d5c8481b0c9.16",
            "lat": 41.153158,
            "lng": 1.108051,
            "name": "Portal Del Carme"
        },
        "3c19498c97bf49809c19855447da5f50.16": {
            "guid": "3c19498c97bf49809c19855447da5f50.16",
            "lat": 41.069983,
            "lng": 1.152939,
            "name": "unknown"
        },
        "3c2d988461184c26958b7cccaf73be66.11": {
            "guid": "3c2d988461184c26958b7cccaf73be66.11",
            "lat": 41.131827,
            "lng": 1.244901,
            "name": "Universitat Rovira i Virgili"
        },
        "3c5d2929a171481c9686d88471cae56c.16": {
            "guid": "3c5d2929a171481c9686d88471cae56c.16",
            "lat": 41.211449,
            "lng": 1.20573,
            "name": "Font de la pla\u00e7a de l'esgl\u00e9sia"
        },
        "3cfab58137714a8b9bfbf5882a8c0c22.16": {
            "guid": "3cfab58137714a8b9bfbf5882a8c0c22.16",
            "lat": 41.157049,
            "lng": 1.108239,
            "name": "gaudi adolescent"
        },
        "3cfcf794a8a745a4b39d19f9c23ca978.16": {
            "guid": "3cfcf794a8a745a4b39d19f9c23ca978.16",
            "lat": 41.154482,
            "lng": 1.210078,
            "name": "unknown"
        },
        "3ed5deb1cdba4e91891203b6d56e0adf.16": {
            "guid": "3ed5deb1cdba4e91891203b6d56e0adf.16",
            "lat": 41.158405,
            "lng": 1.088472,
            "name": "Area Infantil Celia Artiga"
        },
        "3f644ce323704171a3b0018df842ba01.16": {
            "guid": "3f644ce323704171a3b0018df842ba01.16",
            "lat": 40.986817,
            "lng": 0.913575,
            "name": "Mini Parc"
        },
        "3f90869be2af44b68548282a83b6b293.16": {
            "guid": "3f90869be2af44b68548282a83b6b293.16",
            "lat": 41.084193,
            "lng": 0.965056,
            "name": "Pistas De Tenis Mont-Roig"
        },
        "3fd39c6f130647a8990335b850c167f9.16": {
            "guid": "3fd39c6f130647a8990335b850c167f9.16",
            "lat": 41.134453,
            "lng": 0.86618,
            "name": "unknown"
        },
        "4020194e9f6b422fb025b0fe8a9fe219.16": {
            "guid": "4020194e9f6b422fb025b0fe8a9fe219.16",
            "lat": 41.10767,
            "lng": 1.150942,
            "name": "unknown"
        },
        "407bc71a542440438558697bc39bb319.16": {
            "guid": "407bc71a542440438558697bc39bb319.16",
            "lat": 41.080037,
            "lng": 1.178392,
            "name": "Fuente de agua"
        },
        "408e5931b95843adb50ea3d5bcd38fad.16": {
            "guid": "408e5931b95843adb50ea3d5bcd38fad.16",
            "lat": 40.991605,
            "lng": 0.928579,
            "name": "unknown"
        },
        "40bdc6f3a00e43f5a64bb8a9e0fa6c77.16": {
            "guid": "40bdc6f3a00e43f5a64bb8a9e0fa6c77.16",
            "lat": 41.120838,
            "lng": 1.004053,
            "name": "Campanar del Carme"
        },
        "40e7c0ee86814a7d8b986babb3fedfab.16": {
            "guid": "40e7c0ee86814a7d8b986babb3fedfab.16",
            "lat": 41.168001,
            "lng": 1.114428,
            "name": "Old  Gym"
        },
        "413bd6991e8143179f0c6120b3afe81c.16": {
            "guid": "413bd6991e8143179f0c6120b3afe81c.16",
            "lat": 41.077482,
            "lng": 1.178494,
            "name": "Ajuntament de Vila-seca"
        },
        "41905b340e3d446d9982452a95a33f49.16": {
            "guid": "41905b340e3d446d9982452a95a33f49.16",
            "lat": 41.145567,
            "lng": 1.127539,
            "name": "Mini Graffiti"
        },
        "41d0a2108bd646109e10789f7d272dcd.16": {
            "guid": "41d0a2108bd646109e10789f7d272dcd.16",
            "lat": 41.124047,
            "lng": 1.219146,
            "name": "Parc Riuclar - Pla\u00e7a Elena Regidor"
        },
        "425b209bd5d444b7bf429fc46a74afbc.16": {
            "guid": "425b209bd5d444b7bf429fc46a74afbc.16",
            "lat": 41.074531,
            "lng": 1.136842,
            "name": "Water Laberint"
        },
        "42eeeb020482486a8ac7b60246f41555.16": {
            "guid": "42eeeb020482486a8ac7b60246f41555.16",
            "lat": 41.190247,
            "lng": 1.257522,
            "name": "unknown"
        },
        "446a2e0b225040f38f36eeb52e10831e.16": {
            "guid": "446a2e0b225040f38f36eeb52e10831e.16",
            "lat": 41.07176,
            "lng": 1.176486,
            "name": "Mapa Informacion Tur\u00edstica "
        },
        "44bc39b308324c11aa004a8ecb9c5857.16": {
            "guid": "44bc39b308324c11aa004a8ecb9c5857.16",
            "lat": 41.142317,
            "lng": 1.365449,
            "name": "unknown"
        },
        "46475824c5c947ada02ed32582096a70.16": {
            "guid": "46475824c5c947ada02ed32582096a70.16",
            "lat": 41.190158,
            "lng": 1.255189,
            "name": "Casa De La Vila"
        },
        "46f0110864d4459caa1d5228c5327625.16": {
            "guid": "46f0110864d4459caa1d5228c5327625.16",
            "lat": 41.126669,
            "lng": 1.253646,
            "name": "Old Graveyard Door"
        },
        "47256f79dae6439387c9a83de968830d.16": {
            "guid": "47256f79dae6439387c9a83de968830d.16",
            "lat": 41.133298,
            "lng": 0.858791,
            "name": "unknown"
        },
        "47de86ea6fcf4c1a9fdb718c23d447f4.16": {
            "guid": "47de86ea6fcf4c1a9fdb718c23d447f4.16",
            "lat": 41.065306,
            "lng": 1.060026,
            "name": "Torre del Port"
        },
        "48d7ff2dad4640c498e58475648cc49f.16": {
            "guid": "48d7ff2dad4640c498e58475648cc49f.16",
            "lat": 41.118086,
            "lng": 1.261545,
            "name": "Magna Pugna Est in Urbe"
        },
        "48f8fb1dc38f4b16921406745bd25f4a.16": {
            "guid": "48f8fb1dc38f4b16921406745bd25f4a.16",
            "lat": 41.139767,
            "lng": 1.249526,
            "name": "Pavello Municipal de Sant Pere i Sant Pau"
        },
        "49098e3e61ff4ee6a75a1def54c443c5.16": {
            "guid": "49098e3e61ff4ee6a75a1def54c443c5.16",
            "lat": 41.143932,
            "lng": 1.100646,
            "name": "Sheep Playground"
        },
        "491d377488a84aa7a288df7b8fcb79a7.16": {
            "guid": "491d377488a84aa7a288df7b8fcb79a7.16",
            "lat": 41.083328,
            "lng": 1.187501,
            "name": "Mirador del Parc dels Prats"
        },
        "49641e3dc97440659d75319f2a15a0e9.16": {
            "guid": "49641e3dc97440659d75319f2a15a0e9.16",
            "lat": 41.149499,
            "lng": 1.414934,
            "name": "unknown"
        },
        "49b285b6189e45b3b9df84dcb37022de.16": {
            "guid": "49b285b6189e45b3b9df84dcb37022de.16",
            "lat": 41.089894,
            "lng": 1.22806,
            "name": "Parc Subaqu\u00e0tic"
        },
        "49ed1f75d3674707b0648838f3605d6c.16": {
            "guid": "49ed1f75d3674707b0648838f3605d6c.16",
            "lat": 41.12274,
            "lng": 1.202744,
            "name": "El Bosc de Ribera"
        },
        "4a45840a801748c8bdab3fc855b4b6ed.16": {
            "guid": "4a45840a801748c8bdab3fc855b4b6ed.16",
            "lat": 41.135442,
            "lng": 1.378155,
            "name": "Oficina Turismo Altafulla Mar"
        },
        "4a50ffe436ba43b6927f93678475b6b7.16": {
            "guid": "4a50ffe436ba43b6927f93678475b6b7.16",
            "lat": 41.127435,
            "lng": 1.244404,
            "name": "Funk Graffiti "
        },
        "4a89c44c19cd4707bb324774c214cc67.16": {
            "guid": "4a89c44c19cd4707bb324774c214cc67.16",
            "lat": 41.084483,
            "lng": 1.18296,
            "name": "planol de la pineda"
        },
        "4adb16992fb744f8b0ff81148a26c084.16": {
            "guid": "4adb16992fb744f8b0ff81148a26c084.16",
            "lat": 41.15084,
            "lng": 1.102785,
            "name": "Pla\u00e7a Antoni Pedrol Rius"
        },
        "4d3b7e3d98b74261a85e76fd0feeb1a6.16": {
            "guid": "4d3b7e3d98b74261a85e76fd0feeb1a6.16",
            "lat": 41.070348,
            "lng": 1.144437,
            "name": "Stella, Salou"
        },
        "4d6e85f441b7476690e55b46349b7e63.16": {
            "guid": "4d6e85f441b7476690e55b46349b7e63.16",
            "lat": 41.113042,
            "lng": 1.245475,
            "name": "Jardins Vapor"
        },
        "4d96d846c3a74a91aae3f74fa6b0888a.16": {
            "guid": "4d96d846c3a74a91aae3f74fa6b0888a.16",
            "lat": 41.062987,
            "lng": 1.044999,
            "name": "Segundo Cesped"
        },
        "4eff1ef5fb7f47a5883266fdbc1ffa80.16": {
            "guid": "4eff1ef5fb7f47a5883266fdbc1ffa80.16",
            "lat": 41.113671,
            "lng": 1.13937,
            "name": "unknown"
        },
        "4f0eb19b321949448c8f209dd4d7f57e.16": {
            "guid": "4f0eb19b321949448c8f209dd4d7f57e.16",
            "lat": 41.223866,
            "lng": 1.218629,
            "name": "unknown"
        },
        "4f180b3284ab4bdda688baa30ba85359.16": {
            "guid": "4f180b3284ab4bdda688baa30ba85359.16",
            "lat": 41.172986,
            "lng": 1.021387,
            "name": "unknown"
        },
        "4f5726f492f248d7a100d0e63a876e8f.16": {
            "guid": "4f5726f492f248d7a100d0e63a876e8f.16",
            "lat": 41.168625,
            "lng": 1.272025,
            "name": "unknown"
        },
        "50262e96ed6245d3b1d7167e4eea2a81.16": {
            "guid": "50262e96ed6245d3b1d7167e4eea2a81.16",
            "lat": 41.07978,
            "lng": 1.178478,
            "name": "M\u00e1quina para entrenar 3"
        },
        "502ab32f5eab47cfad1e8d072427a810.16": {
            "guid": "502ab32f5eab47cfad1e8d072427a810.16",
            "lat": 41.105356,
            "lng": 1.147576,
            "name": "unknown"
        },
        "50499c25b96b44118a63d241d3f0fa4c.16": {
            "guid": "50499c25b96b44118a63d241d3f0fa4c.16",
            "lat": 41.187941,
            "lng": 1.21216,
            "name": "unknown"
        },
        "5148bba463d24848811ebed57d8ae7b9.16": {
            "guid": "5148bba463d24848811ebed57d8ae7b9.16",
            "lat": 41.083896,
            "lng": 0.960156,
            "name": "Parque Agust\u00ed Sard\u00e1"
        },
        "51e97718bfcc40fab75583418d23d8ae.16": {
            "guid": "51e97718bfcc40fab75583418d23d8ae.16",
            "lat": 41.006012,
            "lng": 0.934065,
            "name": "unknown"
        },
        "52207e7f375d4ff2b88560a38622645c.16": {
            "guid": "52207e7f375d4ff2b88560a38622645c.16",
            "lat": 41.077049,
            "lng": 1.092306,
            "name": "Basketball court"
        },
        "5276b6265c6d482c95e2a57cba1df441.16": {
            "guid": "5276b6265c6d482c95e2a57cba1df441.16",
            "lat": 41.081175,
            "lng": 1.180352,
            "name": "Porteria de f\u00fatbol 2"
        },
        "52a1c2c0bf0648a78139ed0d23148e54.16": {
            "guid": "52a1c2c0bf0648a78139ed0d23148e54.16",
            "lat": 41.070392,
            "lng": 1.153354,
            "name": "Masia Catalana"
        },
        "5335ae414c134b7c8cc384f9feca6221.16": {
            "guid": "5335ae414c134b7c8cc384f9feca6221.16",
            "lat": 41.141214,
            "lng": 1.396094,
            "name": "Senyal Geodesic"
        },
        "538a7993a4b54162b2475e66a34c54ad.16": {
            "guid": "538a7993a4b54162b2475e66a34c54ad.16",
            "lat": 41.213935,
            "lng": 1.174774,
            "name": "L'assotament"
        },
        "53a773f2b8934f8095c886757e145b45.16": {
            "guid": "53a773f2b8934f8095c886757e145b45.16",
            "lat": 41.150991,
            "lng": 1.426383,
            "name": "unknown"
        },
        "542471fa83fa473c984f47fc61a9d059.16": {
            "guid": "542471fa83fa473c984f47fc61a9d059.16",
            "lat": 41.119901,
            "lng": 1.244104,
            "name": "Vidal i Barraquer"
        },
        "5549aa56925b4b048dfb4603bc21a698.11": {
            "guid": "5549aa56925b4b048dfb4603bc21a698.11",
            "lat": 41.189003,
            "lng": 1.20896,
            "name": "unknown"
        },
        "5551490b39fa4a649ca5ac0a1bd59b2a.16": {
            "guid": "5551490b39fa4a649ca5ac0a1bd59b2a.16",
            "lat": 41.065577,
            "lng": 1.075061,
            "name": "unknown"
        },
        "555365c6565c4e97bdcb787610b17be7.16": {
            "guid": "555365c6565c4e97bdcb787610b17be7.16",
            "lat": 41.158763,
            "lng": 1.433492,
            "name": "unknown"
        },
        "558e025ddde44bd98970f8e8f5005c71.16": {
            "guid": "558e025ddde44bd98970f8e8f5005c71.16",
            "lat": 41.160588,
            "lng": 1.433719,
            "name": "unknown"
        },
        "55a8a9c9045342859a685a9e16162e4a.16": {
            "guid": "55a8a9c9045342859a685a9e16162e4a.16",
            "lat": 41.148351,
            "lng": 1.401111,
            "name": "unknown"
        },
        "566c237b160f48f7aa117a312fcbcb2b.16": {
            "guid": "566c237b160f48f7aa117a312fcbcb2b.16",
            "lat": 41.137815,
            "lng": 1.25212,
            "name": "Pla\u00e7a Cuba"
        },
        "569fc287d1244d489f7de19179e247d6.16": {
            "guid": "569fc287d1244d489f7de19179e247d6.16",
            "lat": 41.073388,
            "lng": 1.180189,
            "name": "Font Lluminosa La Pineda"
        },
        "56bffef4f9f5454cac9b99e43edcbdbd.16": {
            "guid": "56bffef4f9f5454cac9b99e43edcbdbd.16",
            "lat": 41.070659,
            "lng": 1.145164,
            "name": "Escudo MUR"
        },
        "570dfa2de70747d4921b6bc9fa5eb6a6.16": {
            "guid": "570dfa2de70747d4921b6bc9fa5eb6a6.16",
            "lat": 41.132229,
            "lng": 1.394798,
            "name": "unknown"
        },
        "576a199a9fe84d25b51dd7722c10f808.16": {
            "guid": "576a199a9fe84d25b51dd7722c10f808.16",
            "lat": 41.145734,
            "lng": 1.121357,
            "name": "Monoliths"
        },
        "57b2b3fb17b64fddb9044eb3e79111d1.16": {
            "guid": "57b2b3fb17b64fddb9044eb3e79111d1.16",
            "lat": 41.079928,
            "lng": 1.179934,
            "name": "Esglesia De L'esperit Sant"
        },
        "5853ba90ad6d4e489a75e40c34c768e0.16": {
            "guid": "5853ba90ad6d4e489a75e40c34c768e0.16",
            "lat": 41.148746,
            "lng": 1.118851,
            "name": "San Jos Obrero Playground"
        },
        "5878158c3a3444e3ab34290ff57b3664.16": {
            "guid": "5878158c3a3444e3ab34290ff57b3664.16",
            "lat": 41.21299,
            "lng": 1.139905,
            "name": "Font del Mol\u00ed"
        },
        "58e1b319a0a7496fb9771cfcb1040d7e.16": {
            "guid": "58e1b319a0a7496fb9771cfcb1040d7e.16",
            "lat": 41.064605,
            "lng": 1.077017,
            "name": "Aguas abiertas"
        },
        "594af10306da466eba71b72df0269fc3.16": {
            "guid": "594af10306da466eba71b72df0269fc3.16",
            "lat": 41.057387,
            "lng": 1.167494,
            "name": "unknown"
        },
        "5a3868e1e4694db8960f7bf3fb08e9b0.16": {
            "guid": "5a3868e1e4694db8960f7bf3fb08e9b0.16",
            "lat": 41.086849,
            "lng": 1.146145,
            "name": "Woody at Entrance"
        },
        "5ab4c099e4c3450997d06bb234ca19a4.16": {
            "guid": "5ab4c099e4c3450997d06bb234ca19a4.16",
            "lat": 41.109336,
            "lng": 1.240497,
            "name": "Mural del Serrallo"
        },
        "5abc8ab2b9624b9685995a1792141381.16": {
            "guid": "5abc8ab2b9624b9685995a1792141381.16",
            "lat": 41.071297,
            "lng": 1.087651,
            "name": "unknown"
        },
        "5b874c2ffb7542ddab62abaade41db14.16": {
            "guid": "5b874c2ffb7542ddab62abaade41db14.16",
            "lat": 41.14561,
            "lng": 1.370414,
            "name": "unknown"
        },
        "5be9d797db6a42ab8c56cf0c6c428fb7.16": {
            "guid": "5be9d797db6a42ab8c56cf0c6c428fb7.16",
            "lat": 41.107301,
            "lng": 1.248677,
            "name": "Parc Infantil Del Port"
        },
        "5c5eef0429d94882981dc6b60f963701.16": {
            "guid": "5c5eef0429d94882981dc6b60f963701.16",
            "lat": 41.008508,
            "lng": 0.940171,
            "name": "unknown"
        },
        "5d7509c9f2a34726927c1fc8ed32c837.16": {
            "guid": "5d7509c9f2a34726927c1fc8ed32c837.16",
            "lat": 41.117936,
            "lng": 1.209543,
            "name": "Plaza Mayor Campoclaro"
        },
        "5e118b37208d4c51be9fecf2de3335a7.16": {
            "guid": "5e118b37208d4c51be9fecf2de3335a7.16",
            "lat": 41.144074,
            "lng": 1.400834,
            "name": "Font Aurrera"
        },
        "5e27d06ed75a43f386a80888db14b1a3.16": {
            "guid": "5e27d06ed75a43f386a80888db14b1a3.16",
            "lat": 41.086133,
            "lng": 1.153991,
            "name": "Ellas Las Ara\u00f1as"
        },
        "5e55a39a03a34ac1aaa91fb8ef8e6b40.16": {
            "guid": "5e55a39a03a34ac1aaa91fb8ef8e6b40.16",
            "lat": 41.082584,
            "lng": 1.18628,
            "name": "Mosaic "
        },
        "5fd15417af3c45acbc3122ad7b1829a2.16": {
            "guid": "5fd15417af3c45acbc3122ad7b1829a2.16",
            "lat": 41.004954,
            "lng": 0.934742,
            "name": "Tubular Fountain"
        },
        "6037bc67b2284d3d9fa8d918aa6e69e1.16": {
            "guid": "6037bc67b2284d3d9fa8d918aa6e69e1.16",
            "lat": 41.16203,
            "lng": 1.262552,
            "name": "unknown"
        },
        "60bca9e816bb4b329f4f45b9992362a2.16": {
            "guid": "60bca9e816bb4b329f4f45b9992362a2.16",
            "lat": 41.125859,
            "lng": 1.232925,
            "name": "Chorisia Speciosa"
        },
        "60eb56fb649843c89dfcd0d7419256b5.16": {
            "guid": "60eb56fb649843c89dfcd0d7419256b5.16",
            "lat": 41.118325,
            "lng": 1.260569,
            "name": "Portal de Sant Antoni"
        },
        "6101b643b10547d6b55d5a34277a2e1c.16": {
            "guid": "6101b643b10547d6b55d5a34277a2e1c.16",
            "lat": 41.077761,
            "lng": 1.183384,
            "name": "Gran mirador de la Pineda"
        },
        "6117b60c8eaf495e9298d7d38bd8acc9.16": {
            "guid": "6117b60c8eaf495e9298d7d38bd8acc9.16",
            "lat": 41.175451,
            "lng": 1.269055,
            "name": "Pla\u00e7a la Estrella"
        },
        "611bcacc66904592a57aa40d649a57e5.16": {
            "guid": "611bcacc66904592a57aa40d649a57e5.16",
            "lat": 41.169307,
            "lng": 1.273258,
            "name": "Els Pallaresos a Casanova"
        },
        "613388878f1f492dacc04e294108b3be.16": {
            "guid": "613388878f1f492dacc04e294108b3be.16",
            "lat": 41.186879,
            "lng": 1.206305,
            "name": "Pla\u00e7a de les Pobles"
        },
        "616f8ab2da1048c0a8576778f2d87d4c.16": {
            "guid": "616f8ab2da1048c0a8576778f2d87d4c.16",
            "lat": 41.158641,
            "lng": 1.096579,
            "name": "Chicken Run"
        },
        "61b55e6c4bbc46058c78ea41108fd799.16": {
            "guid": "61b55e6c4bbc46058c78ea41108fd799.16",
            "lat": 41.124155,
            "lng": 1.234299,
            "name": "Escales del Parc Francol\u00ed"
        },
        "61cc0093afc8484f856e409fd3ca327d.16": {
            "guid": "61cc0093afc8484f856e409fd3ca327d.16",
            "lat": 41.119775,
            "lng": 1.246977,
            "name": "Espai Jove Kesse"
        },
        "61d99c36a9524e7e8f474a157027090b.16": {
            "guid": "61d99c36a9524e7e8f474a157027090b.16",
            "lat": 41.13933,
            "lng": 1.117026,
            "name": "Grafitty pilo de ferro "
        },
        "6261979439ae4e4d909af8b1b00e2ff4.16": {
            "guid": "6261979439ae4e4d909af8b1b00e2ff4.16",
            "lat": 41.141613,
            "lng": 1.346743,
            "name": "Engranaje De Formigo"
        },
        "62771cb1767c408ba9591211d652129f.16": {
            "guid": "62771cb1767c408ba9591211d652129f.16",
            "lat": 41.054345,
            "lng": 1.025741,
            "name": "unknown"
        },
        "629cbe3587f743e2ad2f7b969191b3a2.16": {
            "guid": "629cbe3587f743e2ad2f7b969191b3a2.16",
            "lat": 41.107405,
            "lng": 1.0208,
            "name": "unknown"
        },
        "629f7653c810417bad25d3908151ca7c.16": {
            "guid": "629f7653c810417bad25d3908151ca7c.16",
            "lat": 40.994197,
            "lng": 0.9328,
            "name": "Beach Park"
        },
        "62ba551f946d4368b79d71924a026bb3.16": {
            "guid": "62ba551f946d4368b79d71924a026bb3.16",
            "lat": 41.160406,
            "lng": 1.105178,
            "name": "Placa Ferr\u00e9 Revascall"
        },
        "62bb33e5a343471e8f4f171d2fb1fb66.16": {
            "guid": "62bb33e5a343471e8f4f171d2fb1fb66.16",
            "lat": 41.079916,
            "lng": 1.097673,
            "name": "Parque Sant Joan Vilafortuny "
        },
        "62d33df9a6fd456b9ca26972a2ba142c.16": {
            "guid": "62d33df9a6fd456b9ca26972a2ba142c.16",
            "lat": 41.150807,
            "lng": 1.395199,
            "name": "unknown"
        },
        "62da33a4b6de43ff81e19d1400b94cb9.16": {
            "guid": "62da33a4b6de43ff81e19d1400b94cb9.16",
            "lat": 41.127381,
            "lng": 0.915954,
            "name": "unknown"
        },
        "633fdac54e814b9a82879f486cbdb7d3.16": {
            "guid": "633fdac54e814b9a82879f486cbdb7d3.16",
            "lat": 41.136474,
            "lng": 1.373366,
            "name": "Altafulla Train Station"
        },
        "635edb90666a441c988bb22f3ccb817c.16": {
            "guid": "635edb90666a441c988bb22f3ccb817c.16",
            "lat": 41.006028,
            "lng": 0.935396,
            "name": "unknown"
        },
        "6375128cc152499dbf50813e4b24d645.16": {
            "guid": "6375128cc152499dbf50813e4b24d645.16",
            "lat": 41.137245,
            "lng": 1.248623,
            "name": "Espai Recreatiu del Parc"
        },
        "63a914968d6741d386f92fb6698f71e2.16": {
            "guid": "63a914968d6741d386f92fb6698f71e2.16",
            "lat": 41.158292,
            "lng": 1.105632,
            "name": "Four Columns Monument"
        },
        "63fe1c27a4a1432bb461cde9b9ec9104.16": {
            "guid": "63fe1c27a4a1432bb461cde9b9ec9104.16",
            "lat": 41.073053,
            "lng": 0.946929,
            "name": "unknown"
        },
        "641b1e8c188549d6987ed22af8e18b1f.16": {
            "guid": "641b1e8c188549d6987ed22af8e18b1f.16",
            "lat": 41.145571,
            "lng": 1.101168,
            "name": "Bike Gymkana"
        },
        "6427034d6fbc4d9dbd7a05e07324c323.16": {
            "guid": "6427034d6fbc4d9dbd7a05e07324c323.16",
            "lat": 41.082503,
            "lng": 1.0937,
            "name": "unknown"
        },
        "647c0284e7844715a5a01c534ddc86fe.16": {
            "guid": "647c0284e7844715a5a01c534ddc86fe.16",
            "lat": 41.130074,
            "lng": 0.960947,
            "name": "unknown"
        },
        "65743016c2cd459e89b35b883be95f6b.16": {
            "guid": "65743016c2cd459e89b35b883be95f6b.16",
            "lat": 41.088621,
            "lng": 0.963682,
            "name": "unknown"
        },
        "65b17b1506284411b72bc64367637596.16": {
            "guid": "65b17b1506284411b72bc64367637596.16",
            "lat": 41.113003,
            "lng": 1.042262,
            "name": "Bomba Pou"
        },
        "663a1e5bd055482ea0137f77f4015740.16": {
            "guid": "663a1e5bd055482ea0137f77f4015740.16",
            "lat": 41.209784,
            "lng": 1.20558,
            "name": "Monument al Doctor Pere Virgili"
        },
        "678b63c50fcf4dca97b8758a8f798c57.11": {
            "guid": "678b63c50fcf4dca97b8758a8f798c57.11",
            "lat": 41.157702,
            "lng": 1.105318,
            "name": "Fortuny (Condesito)"
        },
        "680a4ca234024200b79dd0b138680eec.16": {
            "guid": "680a4ca234024200b79dd0b138680eec.16",
            "lat": 41.064565,
            "lng": 1.085279,
            "name": "Wood Wave"
        },
        "683ef27a75724f6cbafacf3ed2559f81.16": {
            "guid": "683ef27a75724f6cbafacf3ed2559f81.16",
            "lat": 41.081431,
            "lng": 1.134243,
            "name": "Pla\u00e7a De La Segregaci\u00f3 De Salou"
        },
        "68979e12dbdf486b8782c05623dcbe21.16": {
            "guid": "68979e12dbdf486b8782c05623dcbe21.16",
            "lat": 41.117223,
            "lng": 1.201419,
            "name": "Club Futbol Campclar"
        },
        "689e02d7298d45f7a43d466984398e0a.16": {
            "guid": "689e02d7298d45f7a43d466984398e0a.16",
            "lat": 41.122721,
            "lng": 1.249524,
            "name": "CRAI CAMPUS CATALUNYA"
        },
        "68c86e246072429baffd92e86e1a13af.16": {
            "guid": "68c86e246072429baffd92e86e1a13af.16",
            "lat": 41.181194,
            "lng": 1.096403,
            "name": "Esgl\u00e9sia Sant Vicen\u00e7"
        },
        "690e531e8c5c4cfab2314db9229c917d.16": {
            "guid": "690e531e8c5c4cfab2314db9229c917d.16",
            "lat": 41.115753,
            "lng": 1.257853,
            "name": "Thales mirant les estrelles"
        },
        "69215e802969413eb687578bef38bf42.16": {
            "guid": "69215e802969413eb687578bef38bf42.16",
            "lat": 41.073485,
            "lng": 1.047584,
            "name": "Cambrils map"
        },
        "694ab052f008460faa0d9493d21bbf87.16": {
            "guid": "694ab052f008460faa0d9493d21bbf87.16",
            "lat": 41.137584,
            "lng": 1.251883,
            "name": "Fonts Fresquetes"
        },
        "69ce91f7b43a4e088c8814c7b3e4758c.16": {
            "guid": "69ce91f7b43a4e088c8814c7b3e4758c.16",
            "lat": 41.117183,
            "lng": 1.204718,
            "name": "Casal C\u00edvic"
        },
        "6bc74a54906f4b7a91d0d4912135b995.16": {
            "guid": "6bc74a54906f4b7a91d0d4912135b995.16",
            "lat": 41.211711,
            "lng": 1.139092,
            "name": "Rosers Del Parc"
        },
        "6c049948100b4379affcb6fd4092f5c0.16": {
            "guid": "6c049948100b4379affcb6fd4092f5c0.16",
            "lat": 41.086546,
            "lng": 0.960688,
            "name": "Plaza Miramar"
        },
        "6c7c34fe653241099e55192b9b940718.16": {
            "guid": "6c7c34fe653241099e55192b9b940718.16",
            "lat": 41.135383,
            "lng": 1.271852,
            "name": "Ermita Llorito"
        },
        "6cb9a478739b4f52beaf6c2647cddb93.16": {
            "guid": "6cb9a478739b4f52beaf6c2647cddb93.16",
            "lat": 41.153902,
            "lng": 1.212569,
            "name": "Esgl\u00e9sia de Constant\u00ed"
        },
        "6cca4f17e3e5496abba134238b2778a6.16": {
            "guid": "6cca4f17e3e5496abba134238b2778a6.16",
            "lat": 41.077328,
            "lng": 1.130118,
            "name": "Coloured Wall"
        },
        "6d098c5e63774bb9a1a09a4de2be4cef.16": {
            "guid": "6d098c5e63774bb9a1a09a4de2be4cef.16",
            "lat": 41.148852,
            "lng": 1.411868,
            "name": "unknown"
        },
        "6d169d8e4ab84825a8b3d121d3c78ecf.16": {
            "guid": "6d169d8e4ab84825a8b3d121d3c78ecf.16",
            "lat": 41.088161,
            "lng": 0.962254,
            "name": "Parque Maria Martori"
        },
        "6d385758ea404288a0ad721da46e110e.16": {
            "guid": "6d385758ea404288a0ad721da46e110e.16",
            "lat": 41.057471,
            "lng": 1.03133,
            "name": "Ondas P\u00e9treas"
        },
        "6dc6965f80f44cbfb7b33ab0e6a491d4.16": {
            "guid": "6dc6965f80f44cbfb7b33ab0e6a491d4.16",
            "lat": 41.160928,
            "lng": 1.114294,
            "name": "Plaa Pau Casals "
        },
        "6e856f6b2fca45afb4a2c44fa446169b.16": {
            "guid": "6e856f6b2fca45afb4a2c44fa446169b.16",
            "lat": 41.077058,
            "lng": 1.182488,
            "name": "Barco del Parc"
        },
        "6eb01eeac9bc4b2cb0741b8d1aff0ca4.16": {
            "guid": "6eb01eeac9bc4b2cb0741b8d1aff0ca4.16",
            "lat": 41.194427,
            "lng": 1.209234,
            "name": "unknown"
        },
        "6ee8bc2ba8fd44a89b0793c8cdfdfd81.16": {
            "guid": "6ee8bc2ba8fd44a89b0793c8cdfdfd81.16",
            "lat": 41.137269,
            "lng": 1.249784,
            "name": "Parc del Trenet"
        },
        "6f0842cd91a04e099c048d6660c2a9e7.16": {
            "guid": "6f0842cd91a04e099c048d6660c2a9e7.16",
            "lat": 41.106124,
            "lng": 1.020176,
            "name": "Casita del Guarda"
        },
        "6f9832c684f44bf889da552ea4e79ace.16": {
            "guid": "6f9832c684f44bf889da552ea4e79ace.16",
            "lat": 41.150839,
            "lng": 1.248116,
            "name": "\u00c0ngel del Mas dels Arcs"
        },
        "70ccf59db48844bc92ffe57a3110d661.16": {
            "guid": "70ccf59db48844bc92ffe57a3110d661.16",
            "lat": 41.055948,
            "lng": 1.171859,
            "name": "unknown"
        },
        "70e64324d5c641b096b41c03041cfb29.16": {
            "guid": "70e64324d5c641b096b41c03041cfb29.16",
            "lat": 41.134823,
            "lng": 1.112674,
            "name": "Parque de Ocio Sur"
        },
        "70f7152eb2284d0b8526382cba2c996e.16": {
            "guid": "70f7152eb2284d0b8526382cba2c996e.16",
            "lat": 41.005557,
            "lng": 0.934842,
            "name": "El Pozo "
        },
        "710b784e86c34451b47a5cd08344e40c.16": {
            "guid": "710b784e86c34451b47a5cd08344e40c.16",
            "lat": 41.181049,
            "lng": 1.043913,
            "name": "unknown"
        },
        "7197f958befc43b1bf4c9c79b9be045d.16": {
            "guid": "7197f958befc43b1bf4c9c79b9be045d.16",
            "lat": 41.130554,
            "lng": 0.963348,
            "name": "Mol\u00ed De La Vila "
        },
        "71e8e3afd61247028659511b5985b027.16": {
            "guid": "71e8e3afd61247028659511b5985b027.16",
            "lat": 41.104034,
            "lng": 1.021937,
            "name": "Jarr\u00f3n de los Dragones"
        },
        "72533dd478264e4282b9d963fe18f3ca.16": {
            "guid": "72533dd478264e4282b9d963fe18f3ca.16",
            "lat": 41.0798,
            "lng": 1.178434,
            "name": "unknown"
        },
        "72a95143e3f240178048f6d941d7593b.16": {
            "guid": "72a95143e3f240178048f6d941d7593b.16",
            "lat": 41.12137,
            "lng": 1.214336,
            "name": "A F\u00e9lix Rodr\u00edguez de la Fuente"
        },
        "73467fafcfe2454cb4fe260fe596b97c.16": {
            "guid": "73467fafcfe2454cb4fe260fe596b97c.16",
            "lat": 41.136158,
            "lng": 0.989637,
            "name": "Esglesia Sant Lloren\u00e7"
        },
        "73725c9c829140eeba987276feb74a9a.16": {
            "guid": "73725c9c829140eeba987276feb74a9a.16",
            "lat": 41.06409,
            "lng": 1.081741,
            "name": "Aiguamolls Riera de Riudoms"
        },
        "73a16b1791dd4aa0b0f6722cf72b2d03.16": {
            "guid": "73a16b1791dd4aa0b0f6722cf72b2d03.16",
            "lat": 40.992414,
            "lng": 0.922521,
            "name": "Informacio L'H "
        },
        "7439f65781d449e7821ffedd12c81ecc.16": {
            "guid": "7439f65781d449e7821ffedd12c81ecc.16",
            "lat": 41.019504,
            "lng": 0.939836,
            "name": "Oficina Turismo Costa Zefir"
        },
        "743f3b0531924c7681037f49bd8c9ddd.16": {
            "guid": "743f3b0531924c7681037f49bd8c9ddd.16",
            "lat": 41.066145,
            "lng": 1.06659,
            "name": "unknown"
        },
        "74892cd91d7e4f698d713687996bd773.16": {
            "guid": "74892cd91d7e4f698d713687996bd773.16",
            "lat": 41.12048,
            "lng": 1.186473,
            "name": "Manuel Carrasco"
        },
        "75b45368ad8f4bbdb60f7b18e72757c8.16": {
            "guid": "75b45368ad8f4bbdb60f7b18e72757c8.16",
            "lat": 41.110875,
            "lng": 1.242415,
            "name": "Hulka"
        },
        "75d0547993fe441ba2286681ef467a32.16": {
            "guid": "75d0547993fe441ba2286681ef467a32.16",
            "lat": 41.124241,
            "lng": 1.211274,
            "name": "Rambla de Campclar"
        },
        "75f059aa37844781a0bd8fa0d38aef4a.16": {
            "guid": "75f059aa37844781a0bd8fa0d38aef4a.16",
            "lat": 41.147825,
            "lng": 1.372628,
            "name": "Ermita de St. Antoni"
        },
        "76213d1cab9f44fcb7356ec1e2340f68.16": {
            "guid": "76213d1cab9f44fcb7356ec1e2340f68.16",
            "lat": 41.079019,
            "lng": 1.124967,
            "name": "unknown"
        },
        "764175b3ad6d45fab55b19a4fb6cdbf6.16": {
            "guid": "764175b3ad6d45fab55b19a4fb6cdbf6.16",
            "lat": 41.10739,
            "lng": 1.249469,
            "name": "Torre-Rellotge del Port"
        },
        "76445f14776549f182f197f73aad838e.16": {
            "guid": "76445f14776549f182f197f73aad838e.16",
            "lat": 41.138418,
            "lng": 1.383319,
            "name": "Blue Ocean"
        },
        "766389af1ab045d793cda8d8dc2e549f.16": {
            "guid": "766389af1ab045d793cda8d8dc2e549f.16",
            "lat": 41.065943,
            "lng": 1.089422,
            "name": "Platja de l'Esquirol"
        },
        "769489407c5a48e4a4c2486861ba1f67.16": {
            "guid": "769489407c5a48e4a4c2486861ba1f67.16",
            "lat": 41.127251,
            "lng": 0.916411,
            "name": "Pou Del Jardi"
        },
        "76a3fc66ffc44473b8e85c8a23abfa2d.16": {
            "guid": "76a3fc66ffc44473b8e85c8a23abfa2d.16",
            "lat": 41.175497,
            "lng": 1.270941,
            "name": "Casa Natura"
        },
        "771e514ab8794d8c9f1bb496cb0a4af6.16": {
            "guid": "771e514ab8794d8c9f1bb496cb0a4af6.16",
            "lat": 41.01208,
            "lng": 0.935263,
            "name": "Arco Miami Platja "
        },
        "7759546d4ca641ae9ba6b5b184f9574c.16": {
            "guid": "7759546d4ca641ae9ba6b5b184f9574c.16",
            "lat": 41.141389,
            "lng": 1.373535,
            "name": "Biblioteca Altafulla"
        },
        "77a7cc9dd03a4c67961a698e44304ef6.16": {
            "guid": "77a7cc9dd03a4c67961a698e44304ef6.16",
            "lat": 41.066912,
            "lng": 0.976424,
            "name": "Area de Jocs Club Mont-roig"
        },
        "78328d8d49f8487a977779b2582b7ea4.16": {
            "guid": "78328d8d49f8487a977779b2582b7ea4.16",
            "lat": 41.149229,
            "lng": 1.103397,
            "name": "Antic Velodrom"
        },
        "78a588f2410d4be9a575cfc7a998e3b5.11": {
            "guid": "78a588f2410d4be9a575cfc7a998e3b5.11",
            "lat": 41.116523,
            "lng": 1.250618,
            "name": "Est\u00e0tua dels Despullats"
        },
        "78ae9dd867eb40f7a42a116429d0bbac.16": {
            "guid": "78ae9dd867eb40f7a42a116429d0bbac.16",
            "lat": 41.123217,
            "lng": 0.862995,
            "name": "unknown"
        },
        "7943ff59799b409a8a6a6ec448f506db.16": {
            "guid": "7943ff59799b409a8a6a6ec448f506db.16",
            "lat": 41.14538,
            "lng": 1.414677,
            "name": "Cal Bofill"
        },
        "7965c053d52b4bd2b543448048498058.16": {
            "guid": "7965c053d52b4bd2b543448048498058.16",
            "lat": 41.217982,
            "lng": 1.149809,
            "name": "unknown"
        },
        "79f78f08be6b405da9e2a0515871c144.16": {
            "guid": "79f78f08be6b405da9e2a0515871c144.16",
            "lat": 41.117831,
            "lng": 1.152094,
            "name": "Tanatori Vila-seca"
        },
        "7a0e720f359f475080b51d4379396993.11": {
            "guid": "7a0e720f359f475080b51d4379396993.11",
            "lat": 41.146198,
            "lng": 1.133981,
            "name": "International Nut and Dried Fruit Council (INC)"
        },
        "7a1c63d7cb444aa880ebd371e0aefd78.16": {
            "guid": "7a1c63d7cb444aa880ebd371e0aefd78.16",
            "lat": 41.138855,
            "lng": 1.402032,
            "name": "Barco Pirata"
        },
        "7a9456299a684e39bde1afe29acf20e1.16": {
            "guid": "7a9456299a684e39bde1afe29acf20e1.16",
            "lat": 41.129061,
            "lng": 1.128174,
            "name": "Playground"
        },
        "7aa52e7371004e95899ccdfb102001cd.16": {
            "guid": "7aa52e7371004e95899ccdfb102001cd.16",
            "lat": 41.148698,
            "lng": 1.102079,
            "name": "Dengue Playground"
        },
        "7b277c3b823b4705abb77668a3c3d383.16": {
            "guid": "7b277c3b823b4705abb77668a3c3d383.16",
            "lat": 41.144576,
            "lng": 1.402684,
            "name": "unknown"
        },
        "7b2f56a864b64001be132b551534ed23.16": {
            "guid": "7b2f56a864b64001be132b551534ed23.16",
            "lat": 41.075651,
            "lng": 1.132612,
            "name": "Casa Bonet"
        },
        "7bbe78a167bb4ea7bc08235dcce65cf1.16": {
            "guid": "7bbe78a167bb4ea7bc08235dcce65cf1.16",
            "lat": 41.143875,
            "lng": 1.112145,
            "name": "Diposit d'Aigua"
        },
        "7bddf143216541219b9527cde259d0b4.16": {
            "guid": "7bddf143216541219b9527cde259d0b4.16",
            "lat": 40.989136,
            "lng": 0.918266,
            "name": "unknown"
        },
        "7c4cfc7f6358404d9e90a746784024fa.16": {
            "guid": "7c4cfc7f6358404d9e90a746784024fa.16",
            "lat": 41.176459,
            "lng": 1.328177,
            "name": "Als Morts En Defensa De Les Llibertats"
        },
        "7c952f55a0ca436d8f5701cd584e3760.16": {
            "guid": "7c952f55a0ca436d8f5701cd584e3760.16",
            "lat": 41.150302,
            "lng": 1.38891,
            "name": "unknown"
        },
        "7c9eb57d274746279d8c0d395bb4bc70.16": {
            "guid": "7c9eb57d274746279d8c0d395bb4bc70.16",
            "lat": 41.152889,
            "lng": 1.241845,
            "name": "Leon de San Ramon"
        },
        "7d3f0715f94240a285afc7c8fdeec373.16": {
            "guid": "7d3f0715f94240a285afc7c8fdeec373.16",
            "lat": 40.992367,
            "lng": 0.914731,
            "name": "unknown"
        },
        "7d8e83b3603449dd8b6eabda640ccaf6.16": {
            "guid": "7d8e83b3603449dd8b6eabda640ccaf6.16",
            "lat": 41.003569,
            "lng": 0.932956,
            "name": "unknown"
        },
        "7dfb2a9d0474402c91e73c1a0aa3f69d.16": {
            "guid": "7dfb2a9d0474402c91e73c1a0aa3f69d.16",
            "lat": 41.149219,
            "lng": 1.110138,
            "name": "Avinguda Jaume I"
        },
        "7e646f75808d44f5a07f6786825aed25.16": {
            "guid": "7e646f75808d44f5a07f6786825aed25.16",
            "lat": 41.039544,
            "lng": 0.929015,
            "name": "unknown"
        },
        "7ec819bad4454b989a83ee6cc4324102.16": {
            "guid": "7ec819bad4454b989a83ee6cc4324102.16",
            "lat": 41.073785,
            "lng": 1.173972,
            "name": "unknown"
        },
        "7ec8c4810bc04023afba71d00c9cd979.16": {
            "guid": "7ec8c4810bc04023afba71d00c9cd979.16",
            "lat": 41.16065,
            "lng": 1.095674,
            "name": "Centre c\u00edvic Mestral "
        },
        "7f66ef709768408ba9f84b47994c5cd3.16": {
            "guid": "7f66ef709768408ba9f84b47994c5cd3.16",
            "lat": 41.074765,
            "lng": 1.133071,
            "name": "Nautic Club Fountain"
        },
        "7f68f25531ea4e08a5570d45b5f6615e.16": {
            "guid": "7f68f25531ea4e08a5570d45b5f6615e.16",
            "lat": 41.039978,
            "lng": 0.943271,
            "name": "Pedra Seca 8176"
        },
        "80a353f1839e4528add7f49186d109a9.16": {
            "guid": "80a353f1839e4528add7f49186d109a9.16",
            "lat": 41.064054,
            "lng": 1.083059,
            "name": "unknown"
        },
        "80be8b52596d4e5aa8e6883c152fd13c.16": {
            "guid": "80be8b52596d4e5aa8e6883c152fd13c.16",
            "lat": 41.074602,
            "lng": 1.175811,
            "name": "unknown"
        },
        "811cbc15d63044ffbae1d0787f44485e.16": {
            "guid": "811cbc15d63044ffbae1d0787f44485e.16",
            "lat": 41.177727,
            "lng": 1.021817,
            "name": "unknown"
        },
        "81a2f2ac026545148334f72b26500c4e.16": {
            "guid": "81a2f2ac026545148334f72b26500c4e.16",
            "lat": 41.056062,
            "lng": 1.16075,
            "name": "unknown"
        },
        "829e7d43918a497fbbe2eb5891b1d488.16": {
            "guid": "829e7d43918a497fbbe2eb5891b1d488.16",
            "lat": 40.99208,
            "lng": 0.925706,
            "name": "unknown"
        },
        "834bbdc49657435091d9226a3e2b8978.16": {
            "guid": "834bbdc49657435091d9226a3e2b8978.16",
            "lat": 41.151844,
            "lng": 1.218793,
            "name": "unknown"
        },
        "84002c338177451682a3759ad8364bf4.16": {
            "guid": "84002c338177451682a3759ad8364bf4.16",
            "lat": 41.089279,
            "lng": 1.130378,
            "name": "unknown"
        },
        "84274845139b457494e9966bb7eb8d3c.16": {
            "guid": "84274845139b457494e9966bb7eb8d3c.16",
            "lat": 41.154917,
            "lng": 1.105099,
            "name": "Fallera Major "
        },
        "849450ee094b4d8abfe325dff69ebc69.16": {
            "guid": "849450ee094b4d8abfe325dff69ebc69.16",
            "lat": 41.170522,
            "lng": 1.404348,
            "name": "unknown"
        },
        "84c08e0161ad4b5a8c0bffbc98100b30.16": {
            "guid": "84c08e0161ad4b5a8c0bffbc98100b30.16",
            "lat": 41.064546,
            "lng": 1.058686,
            "name": "El Nen Pescador"
        },
        "8524fdb18bb74130a6fd0f8b5ee8f718.16": {
            "guid": "8524fdb18bb74130a6fd0f8b5ee8f718.16",
            "lat": 41.146454,
            "lng": 1.242634,
            "name": "Cartells de l'Ecoruta"
        },
        "85a584c9091b4fc5bc05ee2eef2689a9.16": {
            "guid": "85a584c9091b4fc5bc05ee2eef2689a9.16",
            "lat": 41.146622,
            "lng": 1.103861,
            "name": "Gym per gran Gent"
        },
        "861c92d75f6b43cb9853faaa19c0cc32.16": {
            "guid": "861c92d75f6b43cb9853faaa19c0cc32.16",
            "lat": 41.062792,
            "lng": 1.06193,
            "name": "Far Vermell"
        },
        "86222a642ed84954a7b9474c7f823d0a.16": {
            "guid": "86222a642ed84954a7b9474c7f823d0a.16",
            "lat": 41.071703,
            "lng": 1.17367,
            "name": "Puente Amarillo"
        },
        "86b0abbd56464df4b0deac390dee9797.16": {
            "guid": "86b0abbd56464df4b0deac390dee9797.16",
            "lat": 41.144332,
            "lng": 1.102785,
            "name": "Kids Playground"
        },
        "8795cfff48d24c72a47d4990839aefa0.16": {
            "guid": "8795cfff48d24c72a47d4990839aefa0.16",
            "lat": 41.158858,
            "lng": 0.879074,
            "name": "unknown"
        },
        "87a677715fde40559b43594e69e213f0.11": {
            "guid": "87a677715fde40559b43594e69e213f0.11",
            "lat": 41.15425,
            "lng": 1.109664,
            "name": "Prioral de Sant Pere"
        },
        "87c7dda05cff44be91fc7a7f512af909.16": {
            "guid": "87c7dda05cff44be91fc7a7f512af909.16",
            "lat": 41.117007,
            "lng": 1.250056,
            "name": "Banc d'Espanya"
        },
        "882fb171dfa34f4196c430e5c51e40c4.16": {
            "guid": "882fb171dfa34f4196c430e5c51e40c4.16",
            "lat": 40.990381,
            "lng": 0.922908,
            "name": "AXA"
        },
        "8879b1673ad546b590163f92ff09c620.16": {
            "guid": "8879b1673ad546b590163f92ff09c620.16",
            "lat": 41.09628,
            "lng": 1.169873,
            "name": "Monolito Pineda"
        },
        "888c5dc42dc447ebba89c0fb3eb3a1bd.16": {
            "guid": "888c5dc42dc447ebba89c0fb3eb3a1bd.16",
            "lat": 41.080894,
            "lng": 1.18022,
            "name": "unknown"
        },
        "88e45568eca644c2890643c42a61d812.16": {
            "guid": "88e45568eca644c2890643c42a61d812.16",
            "lat": 41.12264,
            "lng": 1.234991,
            "name": "Castell del Francol\u00ed "
        },
        "88f58202c5154baa9ba6e131e50f7fac.16": {
            "guid": "88f58202c5154baa9ba6e131e50f7fac.16",
            "lat": 41.080114,
            "lng": 1.178541,
            "name": "Peque\u00f1a casa para jugar"
        },
        "894edb1427164dc1b67027c479e9ce97.16": {
            "guid": "894edb1427164dc1b67027c479e9ce97.16",
            "lat": 41.129354,
            "lng": 1.349645,
            "name": "unknown"
        },
        "89e11e34db7d4769a92670a387b0d65c.16": {
            "guid": "89e11e34db7d4769a92670a387b0d65c.16",
            "lat": 41.121985,
            "lng": 1.239197,
            "name": "Font Rambla President Maci\u00e0"
        },
        "8a166874f54f48e9ac3ef25a92990817.16": {
            "guid": "8a166874f54f48e9ac3ef25a92990817.16",
            "lat": 41.077365,
            "lng": 1.108036,
            "name": "unknown"
        },
        "8a527a0617b24ed481d8e1d3dc7d941a.16": {
            "guid": "8a527a0617b24ed481d8e1d3dc7d941a.16",
            "lat": 41.079723,
            "lng": 1.184041,
            "name": "Tourist Information La Pineda"
        },
        "8b01e5430df54f89b58d6a0e0437052e.16": {
            "guid": "8b01e5430df54f89b58d6a0e0437052e.16",
            "lat": 40.998574,
            "lng": 0.93435,
            "name": "unknown"
        },
        "8b57adc310dd4d418f93410dedf78400.16": {
            "guid": "8b57adc310dd4d418f93410dedf78400.16",
            "lat": 41.109107,
            "lng": 1.248855,
            "name": "Fuente Porto Tarragona"
        },
        "8b6a42fe723b4a7eb73eea5e0d33906f.16": {
            "guid": "8b6a42fe723b4a7eb73eea5e0d33906f.16",
            "lat": 41.091735,
            "lng": 1.129538,
            "name": "unknown"
        },
        "8b6f7388da9d4167b63d7f9b2821da1a.16": {
            "guid": "8b6f7388da9d4167b63d7f9b2821da1a.16",
            "lat": 41.154233,
            "lng": 1.24349,
            "name": "Zona de jocs de Sant Ramon"
        },
        "8b88a57f43c044acba7b58f7ce2db37b.16": {
            "guid": "8b88a57f43c044acba7b58f7ce2db37b.16",
            "lat": 41.129298,
            "lng": 1.305485,
            "name": "Restaurant Mirall D'Estiu"
        },
        "8bbed7689a9641ba999be2eb44519f20.16": {
            "guid": "8bbed7689a9641ba999be2eb44519f20.16",
            "lat": 41.213007,
            "lng": 1.187542,
            "name": "Restaurant La Montoliva"
        },
        "8c28618d3c734622a7e16331efa8e5d9.16": {
            "guid": "8c28618d3c734622a7e16331efa8e5d9.16",
            "lat": 41.164687,
            "lng": 1.362089,
            "name": "Campanar La Riera"
        },
        "8c32827a26b441a5a712e0a9b52987cd.16": {
            "guid": "8c32827a26b441a5a712e0a9b52987cd.16",
            "lat": 41.073649,
            "lng": 0.934331,
            "name": "unknown"
        },
        "8cf00244fbd14f8f8fb28a3008862ddb.16": {
            "guid": "8cf00244fbd14f8f8fb28a3008862ddb.16",
            "lat": 41.213004,
            "lng": 1.142726,
            "name": "Font del Poliesportiu"
        },
        "8cf025d6fa544e028dea82813c95545a.16": {
            "guid": "8cf025d6fa544e028dea82813c95545a.16",
            "lat": 41.112391,
            "lng": 1.249936,
            "name": "Sedesa Akimgraff"
        },
        "8d03b241de974dfda7a76aa12e89dd1d.16": {
            "guid": "8d03b241de974dfda7a76aa12e89dd1d.16",
            "lat": 41.049194,
            "lng": 0.947297,
            "name": "unknown"
        },
        "8d244092830345f288ae65bd4a577a21.16": {
            "guid": "8d244092830345f288ae65bd4a577a21.16",
            "lat": 41.162368,
            "lng": 1.100001,
            "name": "Dr Manhattan"
        },
        "8d90e09f135547d6b4f5acfe240a1c6f.16": {
            "guid": "8d90e09f135547d6b4f5acfe240a1c6f.16",
            "lat": 41.069984,
            "lng": 1.070527,
            "name": "unknown"
        },
        "8dd5b29e153c405caa8f2fd19d886625.16": {
            "guid": "8dd5b29e153c405caa8f2fd19d886625.16",
            "lat": 41.075141,
            "lng": 1.117299,
            "name": "unknown"
        },
        "8e3ae556a86f463c940c79317fc621a5.16": {
            "guid": "8e3ae556a86f463c940c79317fc621a5.16",
            "lat": 40.991406,
            "lng": 0.913628,
            "name": "Piscina municipal de L'Hospitalet"
        },
        "8f0590b4e9844a30adf1c676cb4a6c5b.16": {
            "guid": "8f0590b4e9844a30adf1c676cb4a6c5b.16",
            "lat": 41.193545,
            "lng": 1.108453,
            "name": "unknown"
        },
        "8f1e08fa325448e2b589678f7bf8e6d7.16": {
            "guid": "8f1e08fa325448e2b589678f7bf8e6d7.16",
            "lat": 41.077478,
            "lng": 1.149336,
            "name": "unknown"
        },
        "8f4c35e24fca4fec8ecdadbaac04afc2.16": {
            "guid": "8f4c35e24fca4fec8ecdadbaac04afc2.16",
            "lat": 41.014509,
            "lng": 0.949759,
            "name": "unknown"
        },
        "8fc972db4e3b48c6bf6564dffdbd4f74.16": {
            "guid": "8fc972db4e3b48c6bf6564dffdbd4f74.16",
            "lat": 41.120964,
            "lng": 1.224847,
            "name": "Monumento Locomotora"
        },
        "903b582aba4f43a9a490f7bc6b95dca7.16": {
            "guid": "903b582aba4f43a9a490f7bc6b95dca7.16",
            "lat": 41.119069,
            "lng": 1.218519,
            "name": "TGN - Torreforta, Esgl\u00e8sia"
        },
        "9070fb0f0b1c433e8a91a89ccf79422d.16": {
            "guid": "9070fb0f0b1c433e8a91a89ccf79422d.16",
            "lat": 41.172262,
            "lng": 1.102609,
            "name": "Pistes De Futbol"
        },
        "90b06ce7140445a4a39ad410a4cef646.16": {
            "guid": "90b06ce7140445a4a39ad410a4cef646.16",
            "lat": 41.160176,
            "lng": 1.107106,
            "name": "Gat del Parc"
        },
        "91468b3d568045f9b9316b1a52a26aa5.16": {
            "guid": "91468b3d568045f9b9316b1a52a26aa5.16",
            "lat": 41.151942,
            "lng": 1.092215,
            "name": "Ninfa Dels Nanufars"
        },
        "91663632cc7c4fb3980b404e62a920b0.16": {
            "guid": "91663632cc7c4fb3980b404e62a920b0.16",
            "lat": 41.064112,
            "lng": 1.168152,
            "name": "Columpis Del Pavello"
        },
        "918d9801aa5d4f8f9bbd365f8a5869ad.16": {
            "guid": "918d9801aa5d4f8f9bbd365f8a5869ad.16",
            "lat": 40.990983,
            "lng": 0.923363,
            "name": "Iglesia"
        },
        "9190ca23d215400a916f50de66b5307a.16": {
            "guid": "9190ca23d215400a916f50de66b5307a.16",
            "lat": 41.076216,
            "lng": 1.049658,
            "name": "Parc Pinaret"
        },
        "92a80fdd7111406eb40154c2df676f37.16": {
            "guid": "92a80fdd7111406eb40154c2df676f37.16",
            "lat": 41.11889,
            "lng": 1.245543,
            "name": "Fuente de la Imperial Tarraco"
        },
        "93a98e9fa9a64d18802537099d6d63a6.16": {
            "guid": "93a98e9fa9a64d18802537099d6d63a6.16",
            "lat": 41.058292,
            "lng": 0.925492,
            "name": "unknown"
        },
        "93d5403095b64d9dba88720b99f7185d.16": {
            "guid": "93d5403095b64d9dba88720b99f7185d.16",
            "lat": 41.064072,
            "lng": 1.169189,
            "name": "unknown"
        },
        "95221891bd1e4010a9b5b53ee5fc0010.16": {
            "guid": "95221891bd1e4010a9b5b53ee5fc0010.16",
            "lat": 41.187412,
            "lng": 1.21053,
            "name": "unknown"
        },
        "956bec7d84e54827b0ee5c6a6fc36cb5.16": {
            "guid": "956bec7d84e54827b0ee5c6a6fc36cb5.16",
            "lat": 41.12197,
            "lng": 1.207586,
            "name": "Polisportiu Municipal Camp Clar"
        },
        "959b082d2b234f75b0dc4068f0729767.16": {
            "guid": "959b082d2b234f75b0dc4068f0729767.16",
            "lat": 41.215566,
            "lng": 1.137313,
            "name": "Agr\u00edcola Agrari"
        },
        "95c608674c1842b196604b5ffec3658d.16": {
            "guid": "95c608674c1842b196604b5ffec3658d.16",
            "lat": 41.080776,
            "lng": 1.106542,
            "name": "unknown"
        },
        "961e97c234cb4096a55ab99a87e616cb.16": {
            "guid": "961e97c234cb4096a55ab99a87e616cb.16",
            "lat": 41.110521,
            "lng": 1.144309,
            "name": "Escut de Vila-seca"
        },
        "9641e313d3ea44f597ce8354fa9921a4.16": {
            "guid": "9641e313d3ea44f597ce8354fa9921a4.16",
            "lat": 41.071214,
            "lng": 1.099651,
            "name": "unknown"
        },
        "965a10fe375a497d92295978beb07252.16": {
            "guid": "965a10fe375a497d92295978beb07252.16",
            "lat": 41.18841,
            "lng": 1.104787,
            "name": "unknown"
        },
        "9706b16af4e84087948587bed41626ef.16": {
            "guid": "9706b16af4e84087948587bed41626ef.16",
            "lat": 41.113973,
            "lng": 1.270474,
            "name": "Parc Petit"
        },
        "973ca67baa78448196d59e6ddd899ccc.16": {
            "guid": "973ca67baa78448196d59e6ddd899ccc.16",
            "lat": 41.146403,
            "lng": 1.110239,
            "name": "Pla\u00e7a D'europa"
        },
        "973d99ec53bd4ddeb5573a92910f97ca.16": {
            "guid": "973d99ec53bd4ddeb5573a92910f97ca.16",
            "lat": 41.139456,
            "lng": 1.402665,
            "name": "unknown"
        },
        "9797f2adf3a84c1e8e36ad648c49d034.16": {
            "guid": "9797f2adf3a84c1e8e36ad648c49d034.16",
            "lat": 41.208167,
            "lng": 1.207052,
            "name": "unknown"
        },
        "986779dcbbad4604904af7c1649a3844.16": {
            "guid": "986779dcbbad4604904af7c1649a3844.16",
            "lat": 41.130071,
            "lng": 1.203009,
            "name": "Le Bufalo"
        },
        "988be39cf6b94bacb02fa2a67617ba9f.16": {
            "guid": "988be39cf6b94bacb02fa2a67617ba9f.16",
            "lat": 41.089269,
            "lng": 0.951847,
            "name": "\u00c1rea De Juegos 2.0"
        },
        "9907c164ef93450abfeae5301665ecd7.16": {
            "guid": "9907c164ef93450abfeae5301665ecd7.16",
            "lat": 41.105554,
            "lng": 0.96225,
            "name": "unknown"
        },
        "998c377f5be54e0db94c35f036f97e55.16": {
            "guid": "998c377f5be54e0db94c35f036f97e55.16",
            "lat": 41.114157,
            "lng": 1.266241,
            "name": "Poema Joan Maragall"
        },
        "99bd433507874e3f9621879a07bf256c.16": {
            "guid": "99bd433507874e3f9621879a07bf256c.16",
            "lat": 41.080303,
            "lng": 1.17905,
            "name": "Centre Civic De La Pineda"
        },
        "9a0f314934a64ebfae07fdae17186d38.16": {
            "guid": "9a0f314934a64ebfae07fdae17186d38.16",
            "lat": 41.160351,
            "lng": 1.107598,
            "name": "Les Fonts D'aigua"
        },
        "9a10b316a7ec4fc198b9c9625007cf9e.16": {
            "guid": "9a10b316a7ec4fc198b9c9625007cf9e.16",
            "lat": 41.11857,
            "lng": 1.254948,
            "name": "Passeig Arqueol\u00f2gic"
        },
        "9a8f2dda08da4f6ca90761554c942c4d.16": {
            "guid": "9a8f2dda08da4f6ca90761554c942c4d.16",
            "lat": 41.191654,
            "lng": 1.204934,
            "name": "unknown"
        },
        "9aaf3c258eb345509bddc7ede64d9555.16": {
            "guid": "9aaf3c258eb345509bddc7ede64d9555.16",
            "lat": 41.165991,
            "lng": 1.26578,
            "name": "unknown"
        },
        "9bdf74c5905b40ff8696f79632cb156b.16": {
            "guid": "9bdf74c5905b40ff8696f79632cb156b.16",
            "lat": 41.14825,
            "lng": 1.09031,
            "name": "Mural \u201cLos Banana\u201d"
        },
        "9cb5cb3e3bc148dca21f78653a8f5709.16": {
            "guid": "9cb5cb3e3bc148dca21f78653a8f5709.16",
            "lat": 41.068285,
            "lng": 1.04588,
            "name": "Parque De La Llosa"
        },
        "9cf85fd7458a4cb79fc1b6605481fbd4.16": {
            "guid": "9cf85fd7458a4cb79fc1b6605481fbd4.16",
            "lat": 41.136019,
            "lng": 1.375943,
            "name": "La Fassina"
        },
        "9d35ccafd7854f9a96be4f8fc1583a21.16": {
            "guid": "9d35ccafd7854f9a96be4f8fc1583a21.16",
            "lat": 40.995529,
            "lng": 0.920239,
            "name": "unknown"
        },
        "9d58e65ae469433da0faffa8b1f33c5e.11": {
            "guid": "9d58e65ae469433da0faffa8b1f33c5e.11",
            "lat": 41.066051,
            "lng": 1.060326,
            "name": "Esglesia sant pere"
        },
        "9d618041c6394f8cbb16ed2faf6b09fe.16": {
            "guid": "9d618041c6394f8cbb16ed2faf6b09fe.16",
            "lat": 41.149851,
            "lng": 1.095918,
            "name": "Grafiti Atur i Amor"
        },
        "9ddd75aa5aa8467998166487e5741269.16": {
            "guid": "9ddd75aa5aa8467998166487e5741269.16",
            "lat": 41.166425,
            "lng": 1.022149,
            "name": "unknown"
        },
        "9e60c6a6d8ee474fbff6427ffed010bf.16": {
            "guid": "9e60c6a6d8ee474fbff6427ffed010bf.16",
            "lat": 41.118918,
            "lng": 1.193429,
            "name": "Font de Bonavista"
        },
        "9e75b1542d20466fb1361b3797c700ff.16": {
            "guid": "9e75b1542d20466fb1361b3797c700ff.16",
            "lat": 41.157222,
            "lng": 1.096742,
            "name": "Es Forner Mallorqu\u00ed"
        },
        "9edc380d236f41d5b84d8ef6b2eb0c51.16": {
            "guid": "9edc380d236f41d5b84d8ef6b2eb0c51.16",
            "lat": 41.072249,
            "lng": 1.055135,
            "name": "Mural La Salle"
        },
        "9ee48135cf624adca2ffdbc0b0492dee.16": {
            "guid": "9ee48135cf624adca2ffdbc0b0492dee.16",
            "lat": 41.131702,
            "lng": 1.367697,
            "name": "Desembocadura Del Gai\u00e0"
        },
        "9efc0d585d804abeb3e736f391557cac.16": {
            "guid": "9efc0d585d804abeb3e736f391557cac.16",
            "lat": 41.191097,
            "lng": 1.204016,
            "name": "unknown"
        },
        "9f2687018115404eb735f6ad463971c2.16": {
            "guid": "9f2687018115404eb735f6ad463971c2.16",
            "lat": 41.117785,
            "lng": 1.262361,
            "name": "Resid\u00e8ncia de la Merc\u00e8"
        },
        "9f7995c8cd934676bd33cf85ffab4f82.16": {
            "guid": "9f7995c8cd934676bd33cf85ffab4f82.16",
            "lat": 41.121435,
            "lng": 0.870752,
            "name": "unknown"
        },
        "9fa973d4553d467faf1161f5f41d2bc6.16": {
            "guid": "9fa973d4553d467faf1161f5f41d2bc6.16",
            "lat": 41.011439,
            "lng": 0.93618,
            "name": "Iglesia Miami Platja "
        },
        "9fedeb9644034b5b9ceb4ce7073d4ff3.16": {
            "guid": "9fedeb9644034b5b9ceb4ce7073d4ff3.16",
            "lat": 41.077778,
            "lng": 1.047933,
            "name": "unknown"
        },
        "a05d687742644abfaeb3bd6633d1aedf.16": {
            "guid": "a05d687742644abfaeb3bd6633d1aedf.16",
            "lat": 41.141131,
            "lng": 1.376841,
            "name": "unknown"
        },
        "a07f136cf78649ebaebcf2708e059215.16": {
            "guid": "a07f136cf78649ebaebcf2708e059215.16",
            "lat": 41.166454,
            "lng": 1.08676,
            "name": "Centenari Institut Pere Mata"
        },
        "a08adfb3b00647fb96b637b815b985e1.16": {
            "guid": "a08adfb3b00647fb96b637b815b985e1.16",
            "lat": 40.992934,
            "lng": 0.919067,
            "name": "unknown"
        },
        "a10af6d1531840068f21798a8692081b.16": {
            "guid": "a10af6d1531840068f21798a8692081b.16",
            "lat": 41.140327,
            "lng": 1.112405,
            "name": "Pavell\u00f3 Ol\u00edmpic Municipal"
        },
        "a1658bc2dafa4ac7875356a80f5dde29.16": {
            "guid": "a1658bc2dafa4ac7875356a80f5dde29.16",
            "lat": 41.16544,
            "lng": 1.270604,
            "name": "unknown"
        },
        "a1b6fbcd612a4628aa1566167edef6a9.11": {
            "guid": "a1b6fbcd612a4628aa1566167edef6a9.11",
            "lat": 41.152774,
            "lng": 1.105165,
            "name": "Dona Treballadora"
        },
        "a1ccdaa0e5f44ab7acad7b71982a1748.16": {
            "guid": "a1ccdaa0e5f44ab7acad7b71982a1748.16",
            "lat": 41.144733,
            "lng": 1.405123,
            "name": "Flor Pompeu Fabra"
        },
        "a32158feccc949e487646723b61410d9.16": {
            "guid": "a32158feccc949e487646723b61410d9.16",
            "lat": 41.146091,
            "lng": 1.115214,
            "name": "Parc De Jocs Infantils"
        },
        "a3c11c1132a9482b8b47cc14eb5afb6c.16": {
            "guid": "a3c11c1132a9482b8b47cc14eb5afb6c.16",
            "lat": 41.142493,
            "lng": 1.376928,
            "name": "Pou d'aigua fresca"
        },
        "a3f9f45e2ba344a8b28df921b954bf66.16": {
            "guid": "a3f9f45e2ba344a8b28df921b954bf66.16",
            "lat": 41.124639,
            "lng": 1.253531,
            "name": "Les Fonts del Cementiri"
        },
        "a4229cd9222b456db9e989f8b3d952a4.16": {
            "guid": "a4229cd9222b456db9e989f8b3d952a4.16",
            "lat": 41.216671,
            "lng": 1.134776,
            "name": "Zona de Jocs Infantils de la Part Alta"
        },