{
    "gyms": {
        "0023f4c0206c45d3a69a0ad3e6ee0d52.16": {
            "guid": "0023f4c0206c45d3a69a0ad3e6ee0d52.16",
            "lat": 41.110319,
            "lng": 1.25002,
            "name": "Monument a Mercuri"
        },
        "00ecc4670a2a46bcb965192bcda11649.16": {
            "guid": "00ecc4670a2a46bcb965192bcda11649.16",
            "lat": 41.162432,
            "lng": 1.093293,
            "name": "Cigne I Gorgona"
        },
        "00fa51c51c9b40bd913469ac8ad0369d.16": {
            "guid": "00fa51c51c9b40bd913469ac8ad0369d.16",
            "lat": 41.155862,
            "lng": 1.111915,
            "name": "Font de la Pla\u00e7a de la Sang"
        },
        "00ffd236a0a0430b8d2e92f3cc56a34a.16": {
            "guid": "00ffd236a0a0430b8d2e92f3cc56a34a.16",
            "lat": 41.15745,
            "lng": 1.118132,
            "name": "Font de la Pla\u00e7a dels Ganxets"
        },
        "0129480999264049854469243ef20f65.16": {
            "guid": "0129480999264049854469243ef20f65.16",
            "lat": 41.155283,
            "lng": 1.078196,
            "name": "Campo de saltos"
        },
        "01a7519b7d1f44feafba94abb96ddeb6.16": {
            "guid": "01a7519b7d1f44feafba94abb96ddeb6.16",
            "lat": 41.163226,
            "lng": 1.112514,
            "name": "Mas Sabater"
        },
        "0218bca6be494a1fb6c931bcbbd73aa9.16": {
            "guid": "0218bca6be494a1fb6c931bcbbd73aa9.16",
            "lat": 41.114235,
            "lng": 1.267027,
            "name": "Abanico"
        },
        "027cc35d3ef241ddbfba825075e662bb.16": {
            "guid": "027cc35d3ef241ddbfba825075e662bb.16",
            "lat": 41.161975,
            "lng": 1.09191,
            "name": "Pista De Futbol"
        },
        "0438ad97c0b14c59bcc1a58f09775a57.16": {
            "guid": "0438ad97c0b14c59bcc1a58f09775a57.16",
            "lat": 41.131174,
            "lng": 1.200511,
            "name": "La Tagliatella Gavarres"
        },
        "0473bc11a87c4aaf967389720a182db8.16": {
            "guid": "0473bc11a87c4aaf967389720a182db8.16",
            "lat": 41.144175,
            "lng": 1.107847,
            "name": "Grafitty taller"
        },
        "050f9eaa655f441aa0852d800f65f789.16": {
            "guid": "050f9eaa655f441aa0852d800f65f789.16",
            "lat": 41.120717,
            "lng": 1.266783,
            "name": "Mol\u00ed de Llevant"
        },
        "05cc602bf34247c599cdc84f192ecafc.16": {
            "guid": "05cc602bf34247c599cdc84f192ecafc.16",
            "lat": 41.071383,
            "lng": 1.051444,
            "name": "Creu Al 11 De Setembre"
        },
        "05ed628ef48a467392a3f9c49090f29b.16": {
            "guid": "05ed628ef48a467392a3f9c49090f29b.16",
            "lat": 41.069013,
            "lng": 1.094214,
            "name": "tren CHU CHU"
        },
        "06d1b1ec8f5c44989bbf695c689d910b.16": {
            "guid": "06d1b1ec8f5c44989bbf695c689d910b.16",
            "lat": 41.166098,
            "lng": 1.110609,
            "name": "Escut Reus Deportiu"
        },
        "07784a89e63f440a80671496d48740c5.11": {
            "guid": "07784a89e63f440a80671496d48740c5.11",
            "lat": 41.144349,
            "lng": 1.123296,
            "name": "Neob-Reus"
        },
        "07b5c253960e425c8254c4fddfc9a809.16": {
            "guid": "07b5c253960e425c8254c4fddfc9a809.16",
            "lat": 41.113915,
            "lng": 1.224166,
            "name": "Almac\u00e9n De Libros"
        },
        "07d7c7f69b144b1dbdc6fcb0a68339a8.16": {
            "guid": "07d7c7f69b144b1dbdc6fcb0a68339a8.16",
            "lat": 41.071656,
            "lng": 1.10734,
            "name": "Iron Structure"
        },
        "08604f84d98a463697f420396dae5186.16": {
            "guid": "08604f84d98a463697f420396dae5186.16",
            "lat": 41.129822,
            "lng": 1.128874,
            "name": "Playground Tobogan"
        },
        "0972f80a9c5f4acc934bf76e1d18dc3e.16": {
            "guid": "0972f80a9c5f4acc934bf76e1d18dc3e.16",
            "lat": 41.067108,
            "lng": 1.057113,
            "name": "Fountain Square"
        },
        "0a084e983b7b4aefa92192aea31b2e9a.16": {
            "guid": "0a084e983b7b4aefa92192aea31b2e9a.16",
            "lat": 41.147351,
            "lng": 1.119854,
            "name": "Verge del Calvari"
        },
        "0b2cc76c9c06487f8f90ba07a81b6017.16": {
            "guid": "0b2cc76c9c06487f8f90ba07a81b6017.16",
            "lat": 41.075804,
            "lng": 1.087833,
            "name": "columpios en c\u00edrculo"
        },
        "0b3d7937e76e4ed7b5c4c957ebad7944.16": {
            "guid": "0b3d7937e76e4ed7b5c4c957ebad7944.16",
            "lat": 41.12537,
            "lng": 1.217266,
            "name": "Parc L'Albada"
        },
        "0b89adc74cae419d9a42dc9cbe20f6c9.16": {
            "guid": "0b89adc74cae419d9a42dc9cbe20f6c9.16",
            "lat": 41.11748,
            "lng": 1.184617,
            "name": "Font del Parc de l'Escultor Martorell"
        },
        "0bb532ecc0f945ffbdd93b4433468237.16": {
            "guid": "0bb532ecc0f945ffbdd93b4433468237.16",
            "lat": 41.148589,
            "lng": 1.093446,
            "name": "Parr\u00f2quia Immaculada"
        },
        "0c7df9479381407f805186018755cec6.16": {
            "guid": "0c7df9479381407f805186018755cec6.16",
            "lat": 41.154038,
            "lng": 1.100173,
            "name": "Biblioteca Central Xavier Amor\u00f3s"
        },
        "0caecbec9a3d4458acdaa3b5729f5f2a.16": {
            "guid": "0caecbec9a3d4458acdaa3b5729f5f2a.16",
            "lat": 41.164592,
            "lng": 1.102457,
            "name": "Estatua Nens Jugant a la pla\u00e7a Mineta"
        },
        "0d12beaddee94557a5a50abee5bbcab8.16": {
            "guid": "0d12beaddee94557a5a50abee5bbcab8.16",
            "lat": 41.061318,
            "lng": 1.040352,
            "name": "Parque Infantil Augusto Renoir"
        },
        "0d3135e01eca49f0ac9cca4e50cbfeaa.16": {
            "guid": "0d3135e01eca49f0ac9cca4e50cbfeaa.16",
            "lat": 41.147634,
            "lng": 1.079851,
            "name": "Dip\u00f2sit d\u2019Aigua \u00c0ntic"
        },
        "0e4f617df8954649b2d027ed576cedf4.16": {
            "guid": "0e4f617df8954649b2d027ed576cedf4.16",
            "lat": 41.06406,
            "lng": 1.057002,
            "name": "Ancla Cambrils"
        },
        "0e9a9813393d4620a04d575eea4eec86.16": {
            "guid": "0e9a9813393d4620a04d575eea4eec86.16",
            "lat": 41.080887,
            "lng": 1.136301,
            "name": "\u0410\u0440\u043a\u0430"
        },
        "0ec2ef39c7214ea4a7c86f84576cb33b.11": {
            "guid": "0ec2ef39c7214ea4a7c86f84576cb33b.11",
            "lat": 41.154802,
            "lng": 1.108606,
            "name": "Casa Nav\u00e0s"
        },
        "0ee74a1ebc244a7199a936fe8a76794e.16": {
            "guid": "0ee74a1ebc244a7199a936fe8a76794e.16",
            "lat": 41.117984,
            "lng": 1.25864,
            "name": "Calendar Tree"
        },
        "0f28b54e16d24a6e87a37fa8228afbae.11": {
            "guid": "0f28b54e16d24a6e87a37fa8228afbae.11",
            "lat": 41.145789,
            "lng": 1.099431,
            "name": "Pare Manyanet"
        },
        "0f67692c7dfc43f9a17b93b26186f756.16": {
            "guid": "0f67692c7dfc43f9a17b93b26186f756.16",
            "lat": 41.120884,
            "lng": 1.241028,
            "name": "Mural Cer\u00e0mic - Edificio Zeus"
        },
        "1043017b0ce54c42ad2d9cbbca572777.16": {
            "guid": "1043017b0ce54c42ad2d9cbbca572777.16",
            "lat": 41.062585,
            "lng": 1.171135,
            "name": "Cap Salou Gym"
        },
        "1106f79253cc4bdd8b319f256e36c423.16": {
            "guid": "1106f79253cc4bdd8b319f256e36c423.16",
            "lat": 41.143595,
            "lng": 1.099764,
            "name": "Esgl\u00e9sia de Miseric\u00f2rdia"
        },
        "125971d666f14104abb71053484250f6.11": {
            "guid": "125971d666f14104abb71053484250f6.11",
            "lat": 41.147905,
            "lng": 1.111417,
            "name": "Estaci\u00f3 Bus"
        },
        "13699b3085fb4b7ea6723777f032dc28.16": {
            "guid": "13699b3085fb4b7ea6723777f032dc28.16",
            "lat": 41.083999,
            "lng": 1.182299,
            "name": "Fuente Hacienda"
        },
        "13b4f8cffa9041aab4fb6e6cfbc157fe.16": {
            "guid": "13b4f8cffa9041aab4fb6e6cfbc157fe.16",
            "lat": 41.075392,
            "lng": 1.054006,
            "name": "A jugar..."
        },
        "143d2673fe9f4c60a76199817640ad2d.16": {
            "guid": "143d2673fe9f4c60a76199817640ad2d.16",
            "lat": 41.162859,
            "lng": 1.243579,
            "name": "Complex Esportiu de Sant Salvador"
        },
        "1496e4653eac40289dd1e7492527273f.16": {
            "guid": "1496e4653eac40289dd1e7492527273f.16",
            "lat": 41.156701,
            "lng": 1.118151,
            "name": "Spiderman Playground"
        },
        "157076459b1f417ca148ae4a2ac3c0be.16": {
            "guid": "157076459b1f417ca148ae4a2ac3c0be.16",
            "lat": 41.088951,
            "lng": 1.159981,
            "name": "Gran Teatre Imperial"
        },
        "1607a58e239547aa883fd8efd73671b1.16": {
            "guid": "1607a58e239547aa883fd8efd73671b1.16",
            "lat": 41.124185,
            "lng": 1.238657,
            "name": "Joan XXIII"
        },
        "16b99452e4814a9abba4fdd946c528ab.16": {
            "guid": "16b99452e4814a9abba4fdd946c528ab.16",
            "lat": 41.070188,
            "lng": 1.176222,
            "name": "Aquum Entrance"
        },
        "16ddcd1460e94c2fb3293fdaeeebad27.16": {
            "guid": "16ddcd1460e94c2fb3293fdaeeebad27.16",
            "lat": 41.189003,
            "lng": 1.101772,
            "name": "indicador camino de Santiago"
        },
        "17d3b9c274494f59865f4080c7b7ba97.16": {
            "guid": "17d3b9c274494f59865f4080c7b7ba97.16",
            "lat": 41.123498,
            "lng": 1.178409,
            "name": "Autoretrat S.Martorell"
        },
        "17fa34a8779747289c5e33dda3585775.16": {
            "guid": "17fa34a8779747289c5e33dda3585775.16",
            "lat": 41.165744,
            "lng": 1.101907,
            "name": "Old Tower"
        },
        "19d48379199440fe8f9e41ca700c4e98.16": {
            "guid": "19d48379199440fe8f9e41ca700c4e98.16",
            "lat": 41.101943,
            "lng": 1.149007,
            "name": "Pista de Hockey sobre Patines"
        },
        "1a0bdb06fd0f42e494b2c4aad6001ee7.16": {
            "guid": "1a0bdb06fd0f42e494b2c4aad6001ee7.16",
            "lat": 41.179807,
            "lng": 1.098701,
            "name": "Les Terres"
        },
        "1a8dbee1673b433a929e9e9525cc81cd.16": {
            "guid": "1a8dbee1673b433a929e9e9525cc81cd.16",
            "lat": 41.117288,
            "lng": 1.255704,
            "name": "Pla\u00e7a dels Sedassos"
        },
        "1aa3d0e4862e4484b2b385a736cb7173.16": {
            "guid": "1aa3d0e4862e4484b2b385a736cb7173.16",
            "lat": 41.120171,
            "lng": 1.189761,
            "name": "Fes Esport"
        },
        "1ab05bbc6099441c84496c0438837bb1.16": {
            "guid": "1ab05bbc6099441c84496c0438837bb1.16",
            "lat": 41.069437,
            "lng": 1.099178,
            "name": "Estructura de Hierro"
        },
        "1ac121d83b6a4ef49acf55d126cfd8a5.16": {
            "guid": "1ac121d83b6a4ef49acf55d126cfd8a5.16",
            "lat": 41.12591,
            "lng": 1.244932,
            "name": "Tarragona 2 Park"
        },
        "1c09d6e2537145ad93326fedec22a23e.16": {
            "guid": "1c09d6e2537145ad93326fedec22a23e.16",
            "lat": 41.129848,
            "lng": 1.200148,
            "name": "Monumento Homenatge Josep Maria Folch I Torres"
        },
        "1d5fa22a9be94d58b6c8b9e70b549cef.16": {
            "guid": "1d5fa22a9be94d58b6c8b9e70b549cef.16",
            "lat": 41.116721,
            "lng": 1.241972,
            "name": "Restes Del Parc"
        },
        "1dc2dd42b21a430d981dd625b2d97301.16": {
            "guid": "1dc2dd42b21a430d981dd625b2d97301.16",
            "lat": 41.161514,
            "lng": 1.079912,
            "name": "Monument a la Pagesia"
        },
        "1e8f6825528f4ee19ea8e155ce4d1a62.16": {
            "guid": "1e8f6825528f4ee19ea8e155ce4d1a62.16",
            "lat": 41.066404,
            "lng": 1.148757,
            "name": "Architetture Spagnole Gaud\u00ed"
        },
        "1ecf5821358e41eea2f3b6abe303a6dd.16": {
            "guid": "1ecf5821358e41eea2f3b6abe303a6dd.16",
            "lat": 41.084711,
            "lng": 1.187637,
            "name": "Ancla Parc Dels Prats"
        },
        "1f6db87d8efb453daeccb624ba254044.16": {
            "guid": "1f6db87d8efb453daeccb624ba254044.16",
            "lat": 41.107063,
            "lng": 1.144751,
            "name": "Triple balanc\u00edn"
        },
        "1f954da775ea4f64a6a528f1d82ebe4e.16": {
            "guid": "1f954da775ea4f64a6a528f1d82ebe4e.16",
            "lat": 41.06688,
            "lng": 1.176587,
            "name": "Lotus"
        },
        "201f844cdb0649bdb3cfc7bd3cc72441.16": {
            "guid": "201f844cdb0649bdb3cfc7bd3cc72441.16",
            "lat": 41.181318,
            "lng": 1.096999,
            "name": "Old Castle Fountain"
        },
        "2064d4a683e841aebe832ab4dc0b2731.16": {
            "guid": "2064d4a683e841aebe832ab4dc0b2731.16",
            "lat": 41.1442,
            "lng": 1.116374,
            "name": "Mini Playground"
        },
        "20a4521ebc6a483ca7451cff7029a5d1.16": {
            "guid": "20a4521ebc6a483ca7451cff7029a5d1.16",
            "lat": 41.138569,
            "lng": 1.253363,
            "name": "Parc Europa"
        },
        "20aeb362fae94bb2bb66b560af75627f.16": {
            "guid": "20aeb362fae94bb2bb66b560af75627f.16",
            "lat": 41.155465,
            "lng": 1.11145,
            "name": "Highbury Irish Pub"
        },
        "20c9000ff1a04a92b266f608a12da223.16": {
            "guid": "20c9000ff1a04a92b266f608a12da223.16",
            "lat": 41.08484,
            "lng": 1.188849,
            "name": "Skatepark La Caracola"
        },
        "210044c0b0164099a0e9ddc6d3aadf6b.12": {
            "guid": "210044c0b0164099a0e9ddc6d3aadf6b.12",
            "lat": 41.111715,
            "lng": 1.14603,
            "name": "Sant Bernat Calv\u00f3"
        },
        "2136ab8ec7f342bc8afaa81e78c36e20.16": {
            "guid": "2136ab8ec7f342bc8afaa81e78c36e20.16",
            "lat": 41.091794,
            "lng": 1.153815,
            "name": "Gold River"
        },
        "2140c3bbbb714d3bb2e8f4497d6cec3d.16": {
            "guid": "2140c3bbbb714d3bb2e8f4497d6cec3d.16",
            "lat": 41.12406,
            "lng": 1.238246,
            "name": "Los Frutos del Ayer"
        },
        "225229aa497444a386d2c0be3a246741.16": {
            "guid": "225229aa497444a386d2c0be3a246741.16",
            "lat": 41.124599,
            "lng": 1.180259,
            "name": "Parc D'infants"
        },
        "227e22e427e24adb99ec868dbd4c7a37.16": {
            "guid": "227e22e427e24adb99ec868dbd4c7a37.16",
            "lat": 41.085291,
            "lng": 1.094543,
            "name": "Cartell \u201cMas d'en Bosch\u201d"
        },
        "2374dba5eafd4945a43e7a873ae4884b.16": {
            "guid": "2374dba5eafd4945a43e7a873ae4884b.16",
            "lat": 41.116441,
            "lng": 1.213094,
            "name": "Pilarica Font Virgin"
        },
        "2422a8c6903e4339840f7a4483d0e1d0.16": {
            "guid": "2422a8c6903e4339840f7a4483d0e1d0.16",
            "lat": 41.162979,
            "lng": 1.117391,
            "name": "Gaudi Bust"
        },
        "2422c0a8922a4b97922619ffe1bc46a8.16": {
            "guid": "2422c0a8922a4b97922619ffe1bc46a8.16",
            "lat": 41.067121,
            "lng": 1.056681,
            "name": "Creu de la missi\u00f3"
        },
        "2432e20a70584e2f84eaa59b0945ac0d.11": {
            "guid": "2432e20a70584e2f84eaa59b0945ac0d.11",
            "lat": 41.111389,
            "lng": 1.252862,
            "name": "Estaci\u00f3 de Trens Renfe de Tarragona"
        },
        "24f25b05dcdf49fdb86ceda4a2b48013.16": {
            "guid": "24f25b05dcdf49fdb86ceda4a2b48013.16",
            "lat": 41.086194,
            "lng": 1.134571,
            "name": "Urban Park"
        },
        "250c42432bef4cd18226f10c9f1d9fbe.16": {
            "guid": "250c42432bef4cd18226f10c9f1d9fbe.16",
            "lat": 41.059282,
            "lng": 1.024796,
            "name": "Campo de F\u00fatbol"
        },
        "25197960da6b4eb2ac3925cb2932158c.16": {
            "guid": "25197960da6b4eb2ac3925cb2932158c.16",
            "lat": 41.151268,
            "lng": 1.100449,
            "name": "Aliga de Reus Graffiti"
        },
        "251d589588fd4eed9dfa4b2ca701575d.16": {
            "guid": "251d589588fd4eed9dfa4b2ca701575d.16",
            "lat": 41.145161,
            "lng": 1.27628,
            "name": "Balc\u00f3 de Tarragona"
        },
        "257478b382b24bf6898fc0ce1d8b69e4.16": {
            "guid": "257478b382b24bf6898fc0ce1d8b69e4.16",
            "lat": 41.1176,
            "lng": 1.214222,
            "name": "Espai L\u00fadic Los Naranjos"
        },
        "25fee3d840734f63b3d7d78274db4b49.16": {
            "guid": "25fee3d840734f63b3d7d78274db4b49.16",
            "lat": 41.119186,
            "lng": 1.25371,
            "name": "Drac Amagat"
        },
        "26688aea3c5f49d091f0980f8bb0d468.16": {
            "guid": "26688aea3c5f49d091f0980f8bb0d468.16",
            "lat": 41.122629,
            "lng": 1.210554,
            "name": "Cat Sculpture"
        },
        "26d26bdbd9b34cc0bec975de487b4faf.16": {
            "guid": "26d26bdbd9b34cc0bec975de487b4faf.16",
            "lat": 41.080692,
            "lng": 1.124537,
            "name": "Fountain park"
        },
        "2805c466244f4368a12877d5ad2daf7e.16": {
            "guid": "2805c466244f4368a12877d5ad2daf7e.16",
            "lat": 41.111101,
            "lng": 1.240909,
            "name": "Poliesportiu Del Serrallo"
        },
        "28070bb2b35645e0a6c4866bb8fc92bc.16": {
            "guid": "28070bb2b35645e0a6c4866bb8fc92bc.16",
            "lat": 41.156912,
            "lng": 1.112607,
            "name": "Casa Pujol"
        },
        "291bc06963314f908858b1ac9248d84e.16": {
            "guid": "291bc06963314f908858b1ac9248d84e.16",
            "lat": 41.136644,
            "lng": 1.09402,
            "name": "Area De Juegos"
        },
        "29338f42d5b346a49f354d86fecf4179.16": {
            "guid": "29338f42d5b346a49f354d86fecf4179.16",
            "lat": 41.081836,
            "lng": 1.098503,
            "name": "Circuito de entrenamiento"
        },
        "2948ac25cbf64315834aae8ae5fd6bc2.16": {
            "guid": "2948ac25cbf64315834aae8ae5fd6bc2.16",
            "lat": 41.111679,
            "lng": 1.24014,
            "name": "Trenecito"
        },
        "29a030b057be49c59fbb8826aff943b1.16": {
            "guid": "29a030b057be49c59fbb8826aff943b1.16",
            "lat": 41.076293,
            "lng": 1.147749,
            "name": "Fuente De Los 4 Chorros De Salou"
        },
        "29b766d43c6b42a4adb81ea30d0ce8c6.16": {
            "guid": "29b766d43c6b42a4adb81ea30d0ce8c6.16",
            "lat": 41.122408,
            "lng": 1.249568,
            "name": "Campus Catalunya de la Universitat Rovira i Virgili"
        },
        "29f3ce6b5501461595f71acfe326f3f7.16": {
            "guid": "29f3ce6b5501461595f71acfe326f3f7.16",
            "lat": 41.160177,
            "lng": 1.085559,
            "name": "Parroquia De L'Assumpci\u00f3 "
        },
        "2a16dc5f5c6c4cdfa3bf909b9b55c9cc.16": {
            "guid": "2a16dc5f5c6c4cdfa3bf909b9b55c9cc.16",
            "lat": 41.156894,
            "lng": 1.136691,
            "name": "Vaca Meditando"
        },
        "2b1292c3b79c443d9d596c5a815016b3.16": {
            "guid": "2b1292c3b79c443d9d596c5a815016b3.16",
            "lat": 41.127537,
            "lng": 1.292011,
            "name": "Tarraco Tennis Club"
        },
        "2c5e8ec4dbe34641a977b7f4ce507639.16": {
            "guid": "2c5e8ec4dbe34641a977b7f4ce507639.16",
            "lat": 41.071282,
            "lng": 1.052595,
            "name": "Monument Antoni Gimbernat"
        },
        "2ca612ec1f2e464b8ea53035fae62e28.16": {
            "guid": "2ca612ec1f2e464b8ea53035fae62e28.16",
            "lat": 41.120872,
            "lng": 1.267189,
            "name": "Escultura Gaud\u00ed"
        },
        "2d7deb8833b64965b77eb7576c53ef83.16": {
            "guid": "2d7deb8833b64965b77eb7576c53ef83.16",
            "lat": 41.080647,
            "lng": 1.180483,
            "name": "Pavell\u00f3 Esports Pineda"
        },
        "2df0aeeb778f49e48bf2fa8f8531a9c5.16": {
            "guid": "2df0aeeb778f49e48bf2fa8f8531a9c5.16",
            "lat": 41.119148,
            "lng": 1.192509,
            "name": "Font"
        },
        "2f21df27a476412fbb224e24f0c07c34.16": {
            "guid": "2f21df27a476412fbb224e24f0c07c34.16",
            "lat": 41.156273,
            "lng": 1.24041,
            "name": "Parc Dels Prefabricats"
        },
        "2fcf846dcf6448e09edacfee653cbff2.16": {
            "guid": "2fcf846dcf6448e09edacfee653cbff2.16",
            "lat": 41.090121,
            "lng": 1.156221,
            "name": "Stampida"
        },
        "304b2430ab024461825671b66063c00c.16": {
            "guid": "304b2430ab024461825671b66063c00c.16",
            "lat": 41.14613,
            "lng": 1.113246,
            "name": "Roserar Joaquima Gallis\u00e0 i Rueda"
        },
        "31f532b253094224983edabc9b207084.16": {
            "guid": "31f532b253094224983edabc9b207084.16",
            "lat": 41.072689,
            "lng": 1.179219,
            "name": "Home I Dofi"
        },
        "3230294cd060429eaf1b68ed0ff88593.16": {
            "guid": "3230294cd060429eaf1b68ed0ff88593.16",
            "lat": 41.084896,
            "lng": 1.156159,
            "name": "Furius Baco"
        },
        "32c1caaee9c64e0ca283c0e17d80bc9b.16": {
            "guid": "32c1caaee9c64e0ca283c0e17d80bc9b.16",
            "lat": 41.14991,
            "lng": 1.099148,
            "name": "Font Del Centenari"
        },
        "336e336714b94726864ea612ee75074d.16": {
            "guid": "336e336714b94726864ea612ee75074d.16",
            "lat": 41.157684,
            "lng": 1.100624,
            "name": "Car Grafitti"
        },
        "3384c58c1be44f9c97d82ef0d1f1987e.16": {
            "guid": "3384c58c1be44f9c97d82ef0d1f1987e.16",
            "lat": 41.144618,
            "lng": 1.270997,
            "name": "El Balc\u00f3 de les Mares"
        },
        "339b12a0cf1f4285b9df1e408efebadd.16": {
            "guid": "339b12a0cf1f4285b9df1e408efebadd.16",
            "lat": 41.123964,
            "lng": 1.267531,
            "name": "Font De La Mosca"
        },
        "34681d8da93e463681226e4059b8b478.11": {
            "guid": "34681d8da93e463681226e4059b8b478.11",
            "lat": 41.114925,
            "lng": 1.25404,
            "name": "Escultura de l'Avi Virgili"
        },
        "3607b1f571aa462a836d982000dc97c5.16": {
            "guid": "3607b1f571aa462a836d982000dc97c5.16",
            "lat": 41.132315,
            "lng": 1.249553,
            "name": "Parc de la Muntanyeta"
        },
        "36acd6e7a7834032b0d650d7f16a3245.16": {
            "guid": "36acd6e7a7834032b0d650d7f16a3245.16",
            "lat": 41.064561,
            "lng": 1.078845,
            "name": "Platja del Cavet"
        },
        "36f6a4a0bf08462c8b43c942d87d7dd5.16": {
            "guid": "36f6a4a0bf08462c8b43c942d87d7dd5.16",
            "lat": 41.118777,
            "lng": 1.19283,
            "name": "Deessa"
        },
        "376d3a7fada14a22bac5962a5e9dc4eb.16": {
            "guid": "376d3a7fada14a22bac5962a5e9dc4eb.16",
            "lat": 41.12225,
            "lng": 1.239528,
            "name": "Otto Club Zutz"
        },
        "37b3e5b3eb0341bf9cc7782c3d279590.16": {
            "guid": "37b3e5b3eb0341bf9cc7782c3d279590.16",
            "lat": 41.132358,
            "lng": 1.251883,
            "name": "Dip\u00f2sits d'Ematsa"
        },
        "37bd7a7b17b0421e90472fe92952f23b.16": {
            "guid": "37bd7a7b17b0421e90472fe92952f23b.16",
            "lat": 41.116402,
            "lng": 1.242171,
            "name": "Quinta de Sant Rafael"
        },
        "39182b86f37d4e6b87e846d5a6c5fa2f.16": {
            "guid": "39182b86f37d4e6b87e846d5a6c5fa2f.16",
            "lat": 41.144007,
            "lng": 1.117533,
            "name": "Biblioteca Municipal Pere Anguera"
        },
        "395068bd6de4468fbca678ed5dd83a87.16": {
            "guid": "395068bd6de4468fbca678ed5dd83a87.16",
            "lat": 41.073694,
            "lng": 1.050425,
            "name": "Ballenita Azul"
        },
        "39a710ac3bd44d21a6d80d2f96e900bc.11": {
            "guid": "39a710ac3bd44d21a6d80d2f96e900bc.11",
            "lat": 41.084903,
            "lng": 1.125646,
            "name": "The Public"
        },
        "39aa1d4de10444b0ac5d2f733c29a961.16": {
            "guid": "39aa1d4de10444b0ac5d2f733c29a961.16",
            "lat": 41.117754,
            "lng": 1.237005,
            "name": "Litos"
        },
        "39bc2452e28543c9841607319c5df006.16": {
            "guid": "39bc2452e28543c9841607319c5df006.16",
            "lat": 41.072532,
            "lng": 1.09686,
            "name": "Castillo Vilafortuny"
        },
        "3b5d5fc1d01e46b39a618d5c8481b0c9.16": {
            "guid": "3b5d5fc1d01e46b39a618d5c8481b0c9.16",
            "lat": 41.153158,
            "lng": 1.108051,
            "name": "Portal Del Carme"
        },
        "3c19498c97bf49809c19855447da5f50.16": {
            "guid": "3c19498c97bf49809c19855447da5f50.16",
            "lat": 41.069983,
            "lng": 1.152939,
            "name": "Mol\u00ed d'Aigua"
        },
        "3c2d988461184c26958b7cccaf73be66.11": {
            "guid": "3c2d988461184c26958b7cccaf73be66.11",
            "lat": 41.131827,
            "lng": 1.244901,
            "name": "Universitat Rovira i Virgili"
        },
        "3cf276abc7ea49a2829af21c62d11b65.16": {
            "guid": "3cf276abc7ea49a2829af21c62d11b65.16",
            "lat": 41.062912,
            "lng": 1.059812,
            "name": "Moll De Ponent"
        },
        "3cfab58137714a8b9bfbf5882a8c0c22.16": {
            "guid": "3cfab58137714a8b9bfbf5882a8c0c22.16",
            "lat": 41.157049,
            "lng": 1.108239,
            "name": "El Gaud\u00ed Adolescent"
        },
        "3d9c7a2824d34c1cbd4a2e42c9e1a50a.16": {
            "guid": "3d9c7a2824d34c1cbd4a2e42c9e1a50a.16",
            "lat": 41.115334,
            "lng": 1.262291,
            "name": "Pilons pintats"
        },
        "3dd6e0c7d8b34114b82aac91b7f09075.16": {
            "guid": "3dd6e0c7d8b34114b82aac91b7f09075.16",
            "lat": 41.116451,
            "lng": 1.217115,
            "name": "Carpa Nou Centre"
        },
        "3ed5deb1cdba4e91891203b6d56e0adf.16": {
            "guid": "3ed5deb1cdba4e91891203b6d56e0adf.16",
            "lat": 41.158405,
            "lng": 1.088472,
            "name": "Area Infantil Celia Artiga"
        },
        "3f44e6778079487080b281ac40b030ef.16": {
            "guid": "3f44e6778079487080b281ac40b030ef.16",
            "lat": 41.116134,
            "lng": 1.253148,
            "name": "Font de les Flors"
        },
        "4020194e9f6b422fb025b0fe8a9fe219.16": {
            "guid": "4020194e9f6b422fb025b0fe8a9fe219.16",
            "lat": 41.10767,
            "lng": 1.150942,
            "name": "Santa Missi\u00f3"
        },
        "407bc71a542440438558697bc39bb319.16": {
            "guid": "407bc71a542440438558697bc39bb319.16",
            "lat": 41.080037,
            "lng": 1.178392,
            "name": "Fuente de agua"
        },
        "40e7c0ee86814a7d8b986babb3fedfab.16": {
            "guid": "40e7c0ee86814a7d8b986babb3fedfab.16",
            "lat": 41.168001,
            "lng": 1.114428,
            "name": "Old Gym"
        },
        "413bd6991e8143179f0c6120b3afe81c.16": {
            "guid": "413bd6991e8143179f0c6120b3afe81c.16",
            "lat": 41.077482,
            "lng": 1.178494,
            "name": "Ajuntament de Vila-seca"
        },
        "41905b340e3d446d9982452a95a33f49.16": {
            "guid": "41905b340e3d446d9982452a95a33f49.16",
            "lat": 41.145567,
            "lng": 1.127539,
            "name": "Mini Graffiti"
        },
        "41c779948971469db41d44f60c35f706.16": {
            "guid": "41c779948971469db41d44f60c35f706.16",
            "lat": 41.147636,
            "lng": 1.293817,
            "name": "Indicador del Cam\u00ed de la Q\u00fcesti\u00f3"
        },
        "41d0a2108bd646109e10789f7d272dcd.16": {
            "guid": "41d0a2108bd646109e10789f7d272dcd.16",
            "lat": 41.124047,
            "lng": 1.219146,
            "name": "Parc Riuclar - Pla\u00e7a Elena Regidor"
        },
        "425b209bd5d444b7bf429fc46a74afbc.16": {
            "guid": "425b209bd5d444b7bf429fc46a74afbc.16",
            "lat": 41.074531,
            "lng": 1.136842,
            "name": "Water Laberint"
        },
        "446a2e0b225040f38f36eeb52e10831e.16": {
            "guid": "446a2e0b225040f38f36eeb52e10831e.16",
            "lat": 41.07176,
            "lng": 1.176486,
            "name": "Mapa Informacion Tur\u00edstica "
        },
        "44a6681f39184ee1959f0bafd466c82b.16": {
            "guid": "44a6681f39184ee1959f0bafd466c82b.16",
            "lat": 41.106838,
            "lng": 1.150677,
            "name": "Fuente del Parc dels Urogalls"
        },
        "45b3bd10b3914779a20f6e362e9a74b7.16": {
            "guid": "45b3bd10b3914779a20f6e362e9a74b7.16",
            "lat": 41.064341,
            "lng": 1.056204,
            "name": "Parque Del Pescador"
        },
        "46f0110864d4459caa1d5228c5327625.16": {
            "guid": "46f0110864d4459caa1d5228c5327625.16",
            "lat": 41.126669,
            "lng": 1.253646,
            "name": "Old Graveyard Door"
        },
        "47de86ea6fcf4c1a9fdb718c23d447f4.16": {
            "guid": "47de86ea6fcf4c1a9fdb718c23d447f4.16",
            "lat": 41.065306,
            "lng": 1.060026,
            "name": "Torre del Port"
        },
        "48d7ff2dad4640c498e58475648cc49f.16": {
            "guid": "48d7ff2dad4640c498e58475648cc49f.16",
            "lat": 41.118356,
            "lng": 1.26133,
            "name": "Magna Pugna Est in Urbe"
        },
        "48f8fb1dc38f4b16921406745bd25f4a.16": {
            "guid": "48f8fb1dc38f4b16921406745bd25f4a.16",
            "lat": 41.139767,
            "lng": 1.249526,
            "name": "Pavello Municipal de Sant Pere i Sant Pau"
        },
        "49098e3e61ff4ee6a75a1def54c443c5.16": {
            "guid": "49098e3e61ff4ee6a75a1def54c443c5.16",
            "lat": 41.143932,
            "lng": 1.100646,
            "name": "Sheep Playground"
        },
        "491d377488a84aa7a288df7b8fcb79a7.16": {
            "guid": "491d377488a84aa7a288df7b8fcb79a7.16",
            "lat": 41.083328,
            "lng": 1.187501,
            "name": "Mirador del Parc dels Prats"
        },
        "49506a4f5438437eaa74c8f46aed5bd1.16": {
            "guid": "49506a4f5438437eaa74c8f46aed5bd1.16",
            "lat": 41.118777,
            "lng": 1.257803,
            "name": "Catedral de Tarragona"
        },
        "49ed1f75d3674707b0648838f3605d6c.16": {
            "guid": "49ed1f75d3674707b0648838f3605d6c.16",
            "lat": 41.12274,
            "lng": 1.202744,
            "name": "El Bosc de Ribera"
        },
        "4a50ffe436ba43b6927f93678475b6b7.16": {
            "guid": "4a50ffe436ba43b6927f93678475b6b7.16",
            "lat": 41.127435,
            "lng": 1.244404,
            "name": "Funk Graffiti"
        },
        "4a89c44c19cd4707bb324774c214cc67.16": {
            "guid": "4a89c44c19cd4707bb324774c214cc67.16",
            "lat": 41.084483,
            "lng": 1.18296,
            "name": "planol de la pineda"
        },
        "4adb16992fb744f8b0ff81148a26c084.16": {
            "guid": "4adb16992fb744f8b0ff81148a26c084.16",
            "lat": 41.15084,
            "lng": 1.102785,
            "name": "Pla\u00e7a Antoni Pedrol Rius"
        },
        "4cfc917d572f402e8f8ee53c1b296874.16": {
            "guid": "4cfc917d572f402e8f8ee53c1b296874.16",
            "lat": 41.168752,
            "lng": 1.116269,
            "name": "Sant Joan Playground"
        },
        "4d3b7e3d98b74261a85e76fd0feeb1a6.16": {
            "guid": "4d3b7e3d98b74261a85e76fd0feeb1a6.16",
            "lat": 41.070348,
            "lng": 1.144437,
            "name": "Stella, Salou"
        },
        "4d6e85f441b7476690e55b46349b7e63.16": {
            "guid": "4d6e85f441b7476690e55b46349b7e63.16",
            "lat": 41.113042,
            "lng": 1.245475,
            "name": "Jardins Vapor"
        },
        "4d96d846c3a74a91aae3f74fa6b0888a.16": {
            "guid": "4d96d846c3a74a91aae3f74fa6b0888a.16",
            "lat": 41.062987,
            "lng": 1.044999,
            "name": "Segundo Cesped"
        },
        "4eff1ef5fb7f47a5883266fdbc1ffa80.16": {
            "guid": "4eff1ef5fb7f47a5883266fdbc1ffa80.16",
            "lat": 41.113671,
            "lng": 1.13937,
            "name": "Antic Estadi Municipal"
        },
        "50262e96ed6245d3b1d7167e4eea2a81.16": {
            "guid": "50262e96ed6245d3b1d7167e4eea2a81.16",
            "lat": 41.07978,
            "lng": 1.178478,
            "name": "M\u00e1quina para entrenar 3"
        },
        "502ab32f5eab47cfad1e8d072427a810.16": {
            "guid": "502ab32f5eab47cfad1e8d072427a810.16",
            "lat": 41.105356,
            "lng": 1.147576,
            "name": "Play"
        },
        "52207e7f375d4ff2b88560a38622645c.16": {
            "guid": "52207e7f375d4ff2b88560a38622645c.16",
            "lat": 41.077049,
            "lng": 1.092306,
            "name": "Basketball court"
        },
        "5276b6265c6d482c95e2a57cba1df441.16": {
            "guid": "5276b6265c6d482c95e2a57cba1df441.16",
            "lat": 41.081175,
            "lng": 1.180352,
            "name": "Porteria de f\u00fatbol 2"
        },
        "52a1c2c0bf0648a78139ed0d23148e54.16": {
            "guid": "52a1c2c0bf0648a78139ed0d23148e54.16",
            "lat": 41.070392,
            "lng": 1.153354,
            "name": "Masia Catalana"
        },
        "542471fa83fa473c984f47fc61a9d059.16": {
            "guid": "542471fa83fa473c984f47fc61a9d059.16",
            "lat": 41.119901,
            "lng": 1.244104,
            "name": "Vidal i Barraquer"
        },
        "544b74ab0d1b489bbea372a8c8b798c4.16": {
            "guid": "544b74ab0d1b489bbea372a8c8b798c4.16",
            "lat": 41.071473,
            "lng": 1.058641,
            "name": "Pistas de padel"
        },
        "5456065ea1e54c9eb6f3c5ce24b68cdd.16": {
            "guid": "5456065ea1e54c9eb6f3c5ce24b68cdd.16",
            "lat": 41.114581,
            "lng": 1.229898,
            "name": "Kids Graffiti"
        },
        "55230ed3ab3d455fbc234d6e357aa330.16": {
            "guid": "55230ed3ab3d455fbc234d6e357aa330.16",
            "lat": 41.154398,
            "lng": 1.101445,
            "name": "Estaci\u00f3 Enol\u00f2gica"
        },
        "5551490b39fa4a649ca5ac0a1bd59b2a.16": {
            "guid": "5551490b39fa4a649ca5ac0a1bd59b2a.16",
            "lat": 41.065577,
            "lng": 1.075061,
            "name": "Fuente zona picnic"
        },
        "566c237b160f48f7aa117a312fcbcb2b.16": {
            "guid": "566c237b160f48f7aa117a312fcbcb2b.16",
            "lat": 41.137815,
            "lng": 1.25212,
            "name": "Pla\u00e7a Cuba"
        },
        "569fc287d1244d489f7de19179e247d6.16": {
            "guid": "569fc287d1244d489f7de19179e247d6.16",
            "lat": 41.073388,
            "lng": 1.180189,
            "name": "Font Lluminosa La Pineda"
        },
        "56bffef4f9f5454cac9b99e43edcbdbd.16": {
            "guid": "56bffef4f9f5454cac9b99e43edcbdbd.16",
            "lat": 41.070659,
            "lng": 1.145164,
            "name": "Escudo MUR"
        },
        "576a199a9fe84d25b51dd7722c10f808.16": {
            "guid": "576a199a9fe84d25b51dd7722c10f808.16",
            "lat": 41.145734,
            "lng": 1.121357,
            "name": "Monoliths"
        },
        "57b2b3fb17b64fddb9044eb3e79111d1.16": {
            "guid": "57b2b3fb17b64fddb9044eb3e79111d1.16",
            "lat": 41.079928,
            "lng": 1.179934,
            "name": "Esglesia De L'esperit Sant"
        },
        "5853ba90ad6d4e489a75e40c34c768e0.16": {
            "guid": "5853ba90ad6d4e489a75e40c34c768e0.16",
            "lat": 41.148746,
            "lng": 1.118851,
            "name": "San Jos\u00e9 Obrero Playground"
        },
        "58e1b319a0a7496fb9771cfcb1040d7e.16": {
            "guid": "58e1b319a0a7496fb9771cfcb1040d7e.16",
            "lat": 41.064605,
            "lng": 1.077017,
            "name": "Aguas abiertas"
        },
        "594af10306da466eba71b72df0269fc3.16": {
            "guid": "594af10306da466eba71b72df0269fc3.16",
            "lat": 41.057387,
            "lng": 1.167494,
            "name": "Cap Salou Playground"
        },
        "5a3868e1e4694db8960f7bf3fb08e9b0.16": {
            "guid": "5a3868e1e4694db8960f7bf3fb08e9b0.16",
            "lat": 41.086849,
            "lng": 1.146145,
            "name": "Woody at Entrance"
        },
        "5ab4c099e4c3450997d06bb234ca19a4.16": {
            "guid": "5ab4c099e4c3450997d06bb234ca19a4.16",
            "lat": 41.109336,
            "lng": 1.240497,
            "name": "Mural del Serrallo"
        },
        "5abc8ab2b9624b9685995a1792141381.16": {
            "guid": "5abc8ab2b9624b9685995a1792141381.16",
            "lat": 41.071297,
            "lng": 1.087651,
            "name": "Hidr\u00e1tate"
        },
        "5be9d797db6a42ab8c56cf0c6c428fb7.16": {
            "guid": "5be9d797db6a42ab8c56cf0c6c428fb7.16",
            "lat": 41.107301,
            "lng": 1.248677,
            "name": "Parc Infantil Del Port"
        },
        "5d7509c9f2a34726927c1fc8ed32c837.16": {
            "guid": "5d7509c9f2a34726927c1fc8ed32c837.16",
            "lat": 41.117318,
            "lng": 1.210274,
            "name": "Plaza Mayor Campoclaro"
        },
        "5d94150531694242af2766b2f0c065a1.11": {
            "guid": "5d94150531694242af2766b2f0c065a1.11",
            "lat": 41.111781,
            "lng": 1.240268,
            "name": "Fumeral Torres Jordi"
        },
        "5e27d06ed75a43f386a80888db14b1a3.16": {
            "guid": "5e27d06ed75a43f386a80888db14b1a3.16",
            "lat": 41.086133,
            "lng": 1.153991,
            "name": "Ellas Las Ara\u00f1as"
        },
        "5e55a39a03a34ac1aaa91fb8ef8e6b40.16": {
            "guid": "5e55a39a03a34ac1aaa91fb8ef8e6b40.16",
            "lat": 41.082584,
            "lng": 1.18628,
            "name": "Mosaic"
        },
        "60bca9e816bb4b329f4f45b9992362a2.16": {
            "guid": "60bca9e816bb4b329f4f45b9992362a2.16",
            "lat": 41.125859,
            "lng": 1.232925,
            "name": "Chorisia Speciosa"
        },
        "60eb56fb649843c89dfcd0d7419256b5.16": {
            "guid": "60eb56fb649843c89dfcd0d7419256b5.16",
            "lat": 41.118325,
            "lng": 1.260569,
            "name": "Portal de Sant Antoni"
        },
        "6101b643b10547d6b55d5a34277a2e1c.16": {
            "guid": "6101b643b10547d6b55d5a34277a2e1c.16",
            "lat": 41.077761,
            "lng": 1.183384,
            "name": "Gran mirador de la Pineda"
        },
        "616f8ab2da1048c0a8576778f2d87d4c.16": {
            "guid": "616f8ab2da1048c0a8576778f2d87d4c.16",
            "lat": 41.158641,
            "lng": 1.096579,
            "name": "Chicken Run"
        },
        "61b55e6c4bbc46058c78ea41108fd799.16": {
            "guid": "61b55e6c4bbc46058c78ea41108fd799.16",
            "lat": 41.124155,
            "lng": 1.234299,
            "name": "Escales del Parc Francol\u00ed"
        },
        "61cc0093afc8484f856e409fd3ca327d.16": {
            "guid": "61cc0093afc8484f856e409fd3ca327d.16",
            "lat": 41.119775,
            "lng": 1.246977,
            "name": "Espai Jove Kesse"
        },
        "61d99c36a9524e7e8f474a157027090b.16": {
            "guid": "61d99c36a9524e7e8f474a157027090b.16",
            "lat": 41.13933,
            "lng": 1.117026,
            "name": "Grafitty pilo de ferro "
        },
        "62771cb1767c408ba9591211d652129f.16": {
            "guid": "62771cb1767c408ba9591211d652129f.16",
            "lat": 41.054345,
            "lng": 1.025741,
            "name": "Banco Adornado Con Mosaico"
        },
        "62ba551f946d4368b79d71924a026bb3.16": {
            "guid": "62ba551f946d4368b79d71924a026bb3.16",
            "lat": 41.160339,
            "lng": 1.105224,
            "name": "Pla\u00e7a Ferr\u00e9 Revascall"
        },
        "62bb33e5a343471e8f4f171d2fb1fb66.16": {
            "guid": "62bb33e5a343471e8f4f171d2fb1fb66.16",
            "lat": 41.079916,
            "lng": 1.097673,
            "name": "Parque Sant Joan Vilafortuny"
        },
        "6375128cc152499dbf50813e4b24d645.16": {
            "guid": "6375128cc152499dbf50813e4b24d645.16",
            "lat": 41.137245,
            "lng": 1.248623,
            "name": "Espai Recreatiu del Parc"
        },
        "63a914968d6741d386f92fb6698f71e2.16": {
            "guid": "63a914968d6741d386f92fb6698f71e2.16",
            "lat": 41.158292,
            "lng": 1.105632,
            "name": "Les Columnes del Kursaal"
        },
        "63dbfec5f5dc430b9456f00ba84a21de.16": {
            "guid": "63dbfec5f5dc430b9456f00ba84a21de.16",
            "lat": 41.118177,
            "lng": 1.261008,
            "name": "Jardins Sant Antoni"
        },
        "641b1e8c188549d6987ed22af8e18b1f.16": {
            "guid": "641b1e8c188549d6987ed22af8e18b1f.16",
            "lat": 41.145571,
            "lng": 1.101168,
            "name": "Bike Gymkana"
        },
        "6427034d6fbc4d9dbd7a05e07324c323.16": {
            "guid": "6427034d6fbc4d9dbd7a05e07324c323.16",
            "lat": 41.082503,
            "lng": 1.0937,
            "name": "Cancha de Basquet \u201cJosep Maria Subirachs\u201d"
        },
        "66cecfc2cfe34a86ac0bbbe2431ab820.16": {
            "guid": "66cecfc2cfe34a86ac0bbbe2431ab820.16",
            "lat": 41.138725,
            "lng": 1.108495,
            "name": "Graffiti de Ovni"
        },
        "678b63c50fcf4dca97b8758a8f798c57.11": {
            "guid": "678b63c50fcf4dca97b8758a8f798c57.11",
            "lat": 41.157702,
            "lng": 1.105318,
            "name": "Fortuny (Condesito)"
        },
        "680a4ca234024200b79dd0b138680eec.16": {
            "guid": "680a4ca234024200b79dd0b138680eec.16",
            "lat": 41.064565,
            "lng": 1.085279,
            "name": "Wood Wave"
        },
        "683ef27a75724f6cbafacf3ed2559f81.16": {
            "guid": "683ef27a75724f6cbafacf3ed2559f81.16",
            "lat": 41.081431,
            "lng": 1.134243,
            "name": "Pla\u00e7a De La Segregaci\u00f3 De Salou"
        },
        "68979e12dbdf486b8782c05623dcbe21.16": {
            "guid": "68979e12dbdf486b8782c05623dcbe21.16",
            "lat": 41.117223,
            "lng": 1.201419,
            "name": "Club Futbol Campclar"
        },
        "689e02d7298d45f7a43d466984398e0a.16": {
            "guid": "689e02d7298d45f7a43d466984398e0a.16",
            "lat": 41.122721,
            "lng": 1.249524,
            "name": "CRAI Campus Catalunya"
        },
        "68a2759363234962b33ac1ceab3bb653.16": {
            "guid": "68a2759363234962b33ac1ceab3bb653.16",
            "lat": 41.117438,
            "lng": 1.241345,
            "name": "Creu estrambotica"
        },
        "68c86e246072429baffd92e86e1a13af.16": {
            "guid": "68c86e246072429baffd92e86e1a13af.16",
            "lat": 41.181194,
            "lng": 1.096403,
            "name": "Esgl\u00e9sia Sant Vicen\u00e7"
        },
        "690e531e8c5c4cfab2314db9229c917d.16": {
            "guid": "690e531e8c5c4cfab2314db9229c917d.16",
            "lat": 41.115753,
            "lng": 1.257853,
            "name": "Thales mirant les estrelles"
        },
        "69215e802969413eb687578bef38bf42.16": {
            "guid": "69215e802969413eb687578bef38bf42.16",
            "lat": 41.073485,
            "lng": 1.047584,
            "name": "Cambrils map"
        },
        "694ab052f008460faa0d9493d21bbf87.16": {
            "guid": "694ab052f008460faa0d9493d21bbf87.16",
            "lat": 41.137584,
            "lng": 1.251883,
            "name": "Fonts Fresquetes"
        },
        "69ce91f7b43a4e088c8814c7b3e4758c.16": {
            "guid": "69ce91f7b43a4e088c8814c7b3e4758c.16",
            "lat": 41.117183,
            "lng": 1.204718,
            "name": "Casal C\u00edvic"
        },
        "6c7c34fe653241099e55192b9b940718.16": {
            "guid": "6c7c34fe653241099e55192b9b940718.16",
            "lat": 41.135383,
            "lng": 1.271852,
            "name": "Ermita Llorito"
        },
        "6ca17e02873f43bd92127207f57e19f1.16": {
            "guid": "6ca17e02873f43bd92127207f57e19f1.16",
            "lat": 41.072601,
            "lng": 1.097099,
            "name": "Abstract Decoration"
        },
        "6cca4f17e3e5496abba134238b2778a6.16": {
            "guid": "6cca4f17e3e5496abba134238b2778a6.16",
            "lat": 41.077328,
            "lng": 1.130118,
            "name": "Coloured Wall"
        },
        "6d385758ea404288a0ad721da46e110e.16": {
            "guid": "6d385758ea404288a0ad721da46e110e.16",
            "lat": 41.057471,
            "lng": 1.03133,
            "name": "Ondas P\u00e9treas"
        },
        "6dc6965f80f44cbfb7b33ab0e6a491d4.16": {
            "guid": "6dc6965f80f44cbfb7b33ab0e6a491d4.16",
            "lat": 41.160928,
            "lng": 1.114294,
            "name": "Pla\u00e7a Pau Casals "
        },
        "6e856f6b2fca45afb4a2c44fa446169b.16": {
            "guid": "6e856f6b2fca45afb4a2c44fa446169b.16",
            "lat": 41.077058,
            "lng": 1.182488,
            "name": "Barco del Parc"
        },
        "6ee8bc2ba8fd44a89b0793c8cdfdfd81.16": {
            "guid": "6ee8bc2ba8fd44a89b0793c8cdfdfd81.16",
            "lat": 41.137269,
            "lng": 1.249784,
            "name": "Parc del Trenet"
        },
        "6f310d4fd4a5498ebd9311d83629d5ee.16": {
            "guid": "6f310d4fd4a5498ebd9311d83629d5ee.16",
            "lat": 41.137549,
            "lng": 1.302671,
            "name": "Mas de l'Hereuet"
        },
        "6f9832c684f44bf889da552ea4e79ace.16": {
            "guid": "6f9832c684f44bf889da552ea4e79ace.16",
            "lat": 41.150839,
            "lng": 1.248116,
            "name": "\u00c0ngel del Mas dels Arcs"
        },
        "70ccf59db48844bc92ffe57a3110d661.16": {
            "guid": "70ccf59db48844bc92ffe57a3110d661.16",
            "lat": 41.055948,
            "lng": 1.171859,
            "name": "Far de Salou"
        },
        "70e64324d5c641b096b41c03041cfb29.16": {
            "guid": "70e64324d5c641b096b41c03041cfb29.16",
            "lat": 41.134823,
            "lng": 1.112674,
            "name": "Parque de Ocio Sur"
        },
        "72533dd478264e4282b9d963fe18f3ca.16": {
            "guid": "72533dd478264e4282b9d963fe18f3ca.16",
            "lat": 41.0798,
            "lng": 1.178434,
            "name": "Area deportiva 2"
        },
        "726f209f98474fc5b284bf736c5ae404.16": {
            "guid": "726f209f98474fc5b284bf736c5ae404.16",
            "lat": 41.16755,
            "lng": 1.1024,
            "name": "Public Gym"
        },
        "72a95143e3f240178048f6d941d7593b.16": {
            "guid": "72a95143e3f240178048f6d941d7593b.16",
            "lat": 41.12137,
            "lng": 1.214336,
            "name": "A F\u00e9lix Rodr\u00edguez de la Fuente"
        },
        "73463070239240ebb85e86fdb4abbb3d.16": {
            "guid": "73463070239240ebb85e86fdb4abbb3d.16",
            "lat": 41.119558,
            "lng": 1.275542,
            "name": "Platja Arrabassada"
        },
        "73725c9c829140eeba987276feb74a9a.16": {
            "guid": "73725c9c829140eeba987276feb74a9a.16",
            "lat": 41.06409,
            "lng": 1.081741,
            "name": "Aiguamolls Riera de Riudoms"
        },
        "73fca2ad4f5043b0b6dd1a2861d36930.16": {
            "guid": "73fca2ad4f5043b0b6dd1a2861d36930.16",
            "lat": 41.108773,
            "lng": 1.250541,
            "name": "Autoritat Portu\u00e0ria de Tarragona"
        },
        "743f3b0531924c7681037f49bd8c9ddd.16": {
            "guid": "743f3b0531924c7681037f49bd8c9ddd.16",
            "lat": 41.066145,
            "lng": 1.06659,
            "name": "Juguemos"
        },
        "74892cd91d7e4f698d713687996bd773.16": {
            "guid": "74892cd91d7e4f698d713687996bd773.16",
            "lat": 41.12048,
            "lng": 1.186473,
            "name": "Manuel Carrasco"
        },
        "75b45368ad8f4bbdb60f7b18e72757c8.16": {
            "guid": "75b45368ad8f4bbdb60f7b18e72757c8.16",
            "lat": 41.110875,
            "lng": 1.242415,
            "name": "Hulka"
        },
        "75d0547993fe441ba2286681ef467a32.16": {
            "guid": "75d0547993fe441ba2286681ef467a32.16",
            "lat": 41.124241,
            "lng": 1.211274,
            "name": "Rambla de Campclar"
        },
        "76213d1cab9f44fcb7356ec1e2340f68.16": {
            "guid": "76213d1cab9f44fcb7356ec1e2340f68.16",
            "lat": 41.079019,
            "lng": 1.124967,
            "name": "Parque de la v\u00eda Aurelia "
        },
        "764175b3ad6d45fab55b19a4fb6cdbf6.16": {
            "guid": "764175b3ad6d45fab55b19a4fb6cdbf6.16",
            "lat": 41.10739,
            "lng": 1.249469,
            "name": "Torre-Rellotge del Port"
        },
        "766389af1ab045d793cda8d8dc2e549f.16": {
            "guid": "766389af1ab045d793cda8d8dc2e549f.16",
            "lat": 41.065943,
            "lng": 1.089422,
            "name": "Platja de l'Esquirol"
        },
        "7813b6ca56c44267895c3d7bbd5d4882.16": {
            "guid": "7813b6ca56c44267895c3d7bbd5d4882.16",
            "lat": 41.069444,
            "lng": 1.098597,
            "name": "Circuito de entrenamiento playa de Vilafortuny"
        },
        "78328d8d49f8487a977779b2582b7ea4.16": {
            "guid": "78328d8d49f8487a977779b2582b7ea4.16",
            "lat": 41.149229,
            "lng": 1.103397,
            "name": "Antic Velodrom"
        },
        "78a588f2410d4be9a575cfc7a998e3b5.11": {
            "guid": "78a588f2410d4be9a575cfc7a998e3b5.11",
            "lat": 41.11651,
            "lng": 1.250687,
            "name": "Est\u00e0tua dels Despullats"
        },
        "7984f89680e54dedbd4e914e606d7c6d.16": {
            "guid": "7984f89680e54dedbd4e914e606d7c6d.16",
            "lat": 41.083403,
            "lng": 1.044893,
            "name": "Parque canino"
        },
        "79f78f08be6b405da9e2a0515871c144.16": {
            "guid": "79f78f08be6b405da9e2a0515871c144.16",
            "lat": 41.117831,
            "lng": 1.152094,
            "name": "Tanatori Vila-seca"
        },
        "7a0e720f359f475080b51d4379396993.11": {
            "guid": "7a0e720f359f475080b51d4379396993.11",
            "lat": 41.146198,
            "lng": 1.133981,
            "name": "International Nut and Dried Fruit Council (INC)"
        },
        "7a9456299a684e39bde1afe29acf20e1.16": {
            "guid": "7a9456299a684e39bde1afe29acf20e1.16",
            "lat": 41.129061,
            "lng": 1.128174,
            "name": "Playground"
        },
        "7aa52e7371004e95899ccdfb102001cd.16": {
            "guid": "7aa52e7371004e95899ccdfb102001cd.16",
            "lat": 41.148698,
            "lng": 1.102079,
            "name": "Dengue Dog Park"
        },
        "7b2f56a864b64001be132b551534ed23.16": {
            "guid": "7b2f56a864b64001be132b551534ed23.16",
            "lat": 41.075651,
            "lng": 1.132612,
            "name": "Casa Bonet"
        },
        "7bbe78a167bb4ea7bc08235dcce65cf1.16": {
            "guid": "7bbe78a167bb4ea7bc08235dcce65cf1.16",
            "lat": 41.143875,
            "lng": 1.112145,
            "name": "Diposit d'Aigua"
        },
        "7c9eb57d274746279d8c0d395bb4bc70.16": {
            "guid": "7c9eb57d274746279d8c0d395bb4bc70.16",
            "lat": 41.152889,
            "lng": 1.241845,
            "name": "Leon de San Ramon"
        },
        "7dfb2a9d0474402c91e73c1a0aa3f69d.16": {
            "guid": "7dfb2a9d0474402c91e73c1a0aa3f69d.16",
            "lat": 41.149219,
            "lng": 1.110138,
            "name": "Avinguda Jaume I"
        },
        "7ec819bad4454b989a83ee6cc4324102.16": {
            "guid": "7ec819bad4454b989a83ee6cc4324102.16",
            "lat": 41.073785,
            "lng": 1.173972,
            "name": "Vell Mol\u00ed"
        },
        "7ec8c4810bc04023afba71d00c9cd979.16": {
            "guid": "7ec8c4810bc04023afba71d00c9cd979.16",
            "lat": 41.16065,
            "lng": 1.095674,
            "name": "Centre c\u00edvic Mestral"
        },
        "7f5746bbcd314c6d8196ff53927c7114.16": {
            "guid": "7f5746bbcd314c6d8196ff53927c7114.16",
            "lat": 41.125422,
            "lng": 1.280321,
            "name": "Escultura Tubular"
        },
        "7f66ef709768408ba9f84b47994c5cd3.16": {
            "guid": "7f66ef709768408ba9f84b47994c5cd3.16",
            "lat": 41.074765,
            "lng": 1.133071,
            "name": "Nautic Club Fountain"
        },
        "80a353f1839e4528add7f49186d109a9.16": {
            "guid": "80a353f1839e4528add7f49186d109a9.16",
            "lat": 41.064054,
            "lng": 1.083059,
            "name": "Antigua Fuente de Platja Dels Esquirols"
        },
        "80be8b52596d4e5aa8e6883c152fd13c.16": {
            "guid": "80be8b52596d4e5aa8e6883c152fd13c.16",
            "lat": 41.074602,
            "lng": 1.175811,
            "name": "Torre Pacha"
        },
        "81a2f2ac026545148334f72b26500c4e.16": {
            "guid": "81a2f2ac026545148334f72b26500c4e.16",
            "lat": 41.056062,
            "lng": 1.16075,
            "name": "B\u00fanker "
        },
        "83ec4dc1dfc844468771bb2e09f0890a.16": {
            "guid": "83ec4dc1dfc844468771bb2e09f0890a.16",
            "lat": 41.179429,
            "lng": 1.099394,
            "name": "La Pista"
        },
        "84002c338177451682a3759ad8364bf4.16": {
            "guid": "84002c338177451682a3759ad8364bf4.16",
            "lat": 41.089279,
            "lng": 1.130378,
            "name": "Engranaje"
        },
        "84274845139b457494e9966bb7eb8d3c.16": {
            "guid": "84274845139b457494e9966bb7eb8d3c.16",
            "lat": 41.154917,
            "lng": 1.105099,
            "name": "Fallera Major"
        },
        "84c08e0161ad4b5a8c0bffbc98100b30.16": {
            "guid": "84c08e0161ad4b5a8c0bffbc98100b30.16",
            "lat": 41.064546,
            "lng": 1.058682,
            "name": "El Nen Pescador"
        },
        "8524fdb18bb74130a6fd0f8b5ee8f718.16": {
            "guid": "8524fdb18bb74130a6fd0f8b5ee8f718.16",
            "lat": 41.146454,
            "lng": 1.242634,
            "name": "Cartells de l'Ecoruta"
        },
        "85266d6c98d543d1bf9751af0b7e8936.16": {
            "guid": "85266d6c98d543d1bf9751af0b7e8936.16",
            "lat": 41.112565,
            "lng": 1.139938,
            "name": "Vaixell Pirata"
        },
        "85a584c9091b4fc5bc05ee2eef2689a9.16": {
            "guid": "85a584c9091b4fc5bc05ee2eef2689a9.16",
            "lat": 41.146622,
            "lng": 1.103861,
            "name": "Gimn\u00e0s al carrer"
        },
        "861c92d75f6b43cb9853faaa19c0cc32.16": {
            "guid": "861c92d75f6b43cb9853faaa19c0cc32.16",
            "lat": 41.062792,
            "lng": 1.06193,
            "name": "Far Vermell"
        },
        "86222a642ed84954a7b9474c7f823d0a.16": {
            "guid": "86222a642ed84954a7b9474c7f823d0a.16",
            "lat": 41.071703,
            "lng": 1.17367,
            "name": "Puente Amarillo"
        },
        "86b0abbd56464df4b0deac390dee9797.16": {
            "guid": "86b0abbd56464df4b0deac390dee9797.16",
            "lat": 41.144332,
            "lng": 1.102785,
            "name": "Kids Playground"
        },
        "8733f1f6da3e4bdf81d38b4b99223ebd.16": {
            "guid": "8733f1f6da3e4bdf81d38b4b99223ebd.16",
            "lat": 41.078971,
            "lng": 1.103144,
            "name": "Centro c\u00edvico Vilafortuny"
        },
        "87a677715fde40559b43594e69e213f0.11": {
            "guid": "87a677715fde40559b43594e69e213f0.11",
            "lat": 41.15425,
            "lng": 1.109664,
            "name": "Prioral de Sant Pere"
        },
        "87c7dda05cff44be91fc7a7f512af909.16": {
            "guid": "87c7dda05cff44be91fc7a7f512af909.16",
            "lat": 41.117055,
            "lng": 1.250052,
            "name": "Banc d'Espanya"
        },
        "888c5dc42dc447ebba89c0fb3eb3a1bd.16": {
            "guid": "888c5dc42dc447ebba89c0fb3eb3a1bd.16",
            "lat": 41.080894,
            "lng": 1.18022,
            "name": "Gran entrada del pabell\u00f3n de La Pineda"
        },
        "88e45568eca644c2890643c42a61d812.16": {
            "guid": "88e45568eca644c2890643c42a61d812.16",
            "lat": 41.12264,
            "lng": 1.234991,
            "name": "Castell del Francol\u00ed"
        },
        "88f58202c5154baa9ba6e131e50f7fac.16": {
            "guid": "88f58202c5154baa9ba6e131e50f7fac.16",
            "lat": 41.080114,
            "lng": 1.178541,
            "name": "Peque\u00f1a casa para jugar"
        },
        "89e11e34db7d4769a92670a387b0d65c.16": {
            "guid": "89e11e34db7d4769a92670a387b0d65c.16",
            "lat": 41.121985,
            "lng": 1.239197,
            "name": "Font Rambla President Maci\u00e0"
        },
        "8a166874f54f48e9ac3ef25a92990817.16": {
            "guid": "8a166874f54f48e9ac3ef25a92990817.16",
            "lat": 41.077365,
            "lng": 1.108036,
            "name": "Faro De Cambrils Park"
        },
        "8a527a0617b24ed481d8e1d3dc7d941a.16": {
            "guid": "8a527a0617b24ed481d8e1d3dc7d941a.16",
            "lat": 41.079723,
            "lng": 1.184041,
            "name": "Tourist Information La Pineda"
        },
        "8b57adc310dd4d418f93410dedf78400.16": {
            "guid": "8b57adc310dd4d418f93410dedf78400.16",
            "lat": 41.109107,
            "lng": 1.248855,
            "name": "Fuente Port de Tarragona"
        },
        "8b6a42fe723b4a7eb73eea5e0d33906f.16": {
            "guid": "8b6a42fe723b4a7eb73eea5e0d33906f.16",
            "lat": 41.091735,
            "lng": 1.129538,
            "name": "Power Light"
        },
        "8b6f7388da9d4167b63d7f9b2821da1a.16": {
            "guid": "8b6f7388da9d4167b63d7f9b2821da1a.16",
            "lat": 41.154233,
            "lng": 1.24349,
            "name": "Zona de jocs de Sant Ramon"
        },
        "8b88a57f43c044acba7b58f7ce2db37b.16": {
            "guid": "8b88a57f43c044acba7b58f7ce2db37b.16",
            "lat": 41.129298,
            "lng": 1.305485,
            "name": "Restaurant Mirall D'Estiu"
        },
        "8cf025d6fa544e028dea82813c95545a.16": {
            "guid": "8cf025d6fa544e028dea82813c95545a.16",
            "lat": 41.112391,
            "lng": 1.249936,
            "name": "Sedesa Akimgraff"
        },
        "8d244092830345f288ae65bd4a577a21.16": {
            "guid": "8d244092830345f288ae65bd4a577a21.16",
            "lat": 41.162368,
            "lng": 1.100001,
            "name": "Dr Manhattan"
        },
        "8d90e09f135547d6b4f5acfe240a1c6f.16": {
            "guid": "8d90e09f135547d6b4f5acfe240a1c6f.16",
            "lat": 41.069984,
            "lng": 1.070527,
            "name": "Street Work Out"
        },
        "8dd5b29e153c405caa8f2fd19d886625.16": {
            "guid": "8dd5b29e153c405caa8f2fd19d886625.16",
            "lat": 41.075141,
            "lng": 1.117299,
            "name": "Camping Sanguli"
        },
        "8f1e08fa325448e2b589678f7bf8e6d7.16": {
            "guid": "8f1e08fa325448e2b589678f7bf8e6d7.16",
            "lat": 41.077478,
            "lng": 1.149336,
            "name": "Playground \u201cLa Dorada\u201d"
        },
        "8fc972db4e3b48c6bf6564dffdbd4f74.16": {
            "guid": "8fc972db4e3b48c6bf6564dffdbd4f74.16",
            "lat": 41.120964,
            "lng": 1.224847,
            "name": "Monumento Locomotora"
        },
        "8fea9a606fdd407b95f481f93de8a9e3.16": {
            "guid": "8fea9a606fdd407b95f481f93de8a9e3.16",
            "lat": 41.174719,
            "lng": 1.100751,
            "name": "Fita"
        },
        "903b582aba4f43a9a490f7bc6b95dca7.16": {
            "guid": "903b582aba4f43a9a490f7bc6b95dca7.16",
            "lat": 41.119069,
            "lng": 1.218519,
            "name": "TGN - Torreforta, Esgl\u00e8sia"
        },
        "9070fb0f0b1c433e8a91a89ccf79422d.16": {
            "guid": "9070fb0f0b1c433e8a91a89ccf79422d.16",
            "lat": 41.172262,
            "lng": 1.102609,
            "name": "Pistes De Futbol"
        },
        "90b06ce7140445a4a39ad410a4cef646.16": {
            "guid": "90b06ce7140445a4a39ad410a4cef646.16",
            "lat": 41.160176,
            "lng": 1.107106,
            "name": "Gat del Parc"
        },
        "91468b3d568045f9b9316b1a52a26aa5.16": {
            "guid": "91468b3d568045f9b9316b1a52a26aa5.16",
            "lat": 41.151942,
            "lng": 1.092215,
            "name": "Ninfa Dels Nanufars"
        },
        "91663632cc7c4fb3980b404e62a920b0.16": {
            "guid": "91663632cc7c4fb3980b404e62a920b0.16",
            "lat": 41.064112,
            "lng": 1.168152,
            "name": "Columpis Del Pavello"
        },
        "9190ca23d215400a916f50de66b5307a.16": {
            "guid": "9190ca23d215400a916f50de66b5307a.16",
            "lat": 41.076169,
            "lng": 1.049715,
            "name": "Parc Pinaret"
        },
        "93d5403095b64d9dba88720b99f7185d.16": {
            "guid": "93d5403095b64d9dba88720b99f7185d.16",
            "lat": 41.064072,
            "lng": 1.169189,
            "name": "Pista de futbol 5"
        },
        "956bec7d84e54827b0ee5c6a6fc36cb5.16": {
            "guid": "956bec7d84e54827b0ee5c6a6fc36cb5.16",
            "lat": 41.12197,
            "lng": 1.207586,
            "name": "Polisportiu Municipal Camp Clar"
        },
        "95c608674c1842b196604b5ffec3658d.16": {
            "guid": "95c608674c1842b196604b5ffec3658d.16",
            "lat": 41.080776,
            "lng": 1.106542,
            "name": "Porta Vilafortuny"
        },
        "961e97c234cb4096a55ab99a87e616cb.16": {
            "guid": "961e97c234cb4096a55ab99a87e616cb.16",
            "lat": 41.110521,
            "lng": 1.144309,
            "name": "Escut de Vila-seca"
        },
        "9641e313d3ea44f597ce8354fa9921a4.16": {
            "guid": "9641e313d3ea44f597ce8354fa9921a4.16",
            "lat": 41.071214,
            "lng": 1.099651,
            "name": "Esgl\u00e9sia de Santa Maria de Vilafortuny"
        },
        "9706b16af4e84087948587bed41626ef.16": {
            "guid": "9706b16af4e84087948587bed41626ef.16",
            "lat": 41.113973,
            "lng": 1.270474,
            "name": "Parc Petit"
        },
        "973ca67baa78448196d59e6ddd899ccc.16": {
            "guid": "973ca67baa78448196d59e6ddd899ccc.16",
            "lat": 41.146403,
            "lng": 1.110239,
            "name": "Pla\u00e7a d\u2019Europa"
        },
        "986779dcbbad4604904af7c1649a3844.16": {
            "guid": "986779dcbbad4604904af7c1649a3844.16",
            "lat": 41.130071,
            "lng": 1.203009,
            "name": "Le Bufalo"
        },
        "98b16632def24059b58efa6ecd598d3a.16": {
            "guid": "98b16632def24059b58efa6ecd598d3a.16",
            "lat": 41.112804,
            "lng": 1.266142,
            "name": "Fuente de agua potable del Fort\u00ed de la Reina"
        },
        "998c377f5be54e0db94c35f036f97e55.16": {
            "guid": "998c377f5be54e0db94c35f036f97e55.16",
            "lat": 41.114157,
            "lng": 1.266241,
            "name": "Poema Joan Maragall"
        },
        "99bd433507874e3f9621879a07bf256c.16": {
            "guid": "99bd433507874e3f9621879a07bf256c.16",
            "lat": 41.080303,
            "lng": 1.17905,
            "name": "Centre Civic De La Pineda"
        },
        "9a0f314934a64ebfae07fdae17186d38.16": {
            "guid": "9a0f314934a64ebfae07fdae17186d38.16",
            "lat": 41.160351,
            "lng": 1.107598,
            "name": "Les Fonts D'aigua"
        },
        "9a10b316a7ec4fc198b9c9625007cf9e.16": {
            "guid": "9a10b316a7ec4fc198b9c9625007cf9e.16",
            "lat": 41.11857,
            "lng": 1.254948,
            "name": "Passeig Arqueol\u00f2gic"
        },
        "9b6339e727334c16b1e4273ef8061b5a.16": {
            "guid": "9b6339e727334c16b1e4273ef8061b5a.16",
            "lat": 41.064831,
            "lng": 1.05712,
            "name": "Mediterranean Trees"
        },
        "9bdf74c5905b40ff8696f79632cb156b.16": {
            "guid": "9bdf74c5905b40ff8696f79632cb156b.16",
            "lat": 41.14825,
            "lng": 1.09031,
            "name": "Grafitti Friends"
        },
        "9cb5cb3e3bc148dca21f78653a8f5709.16": {
            "guid": "9cb5cb3e3bc148dca21f78653a8f5709.16",
            "lat": 41.068285,
            "lng": 1.04588,
            "name": "Parque De La Llosa"
        },
        "9d58e65ae469433da0faffa8b1f33c5e.11": {
            "guid": "9d58e65ae469433da0faffa8b1f33c5e.11",
            "lat": 41.066051,
            "lng": 1.060326,
            "name": "Esglesia sant pere"
        },
        "9d618041c6394f8cbb16ed2faf6b09fe.16": {
            "guid": "9d618041c6394f8cbb16ed2faf6b09fe.16",
            "lat": 41.149851,
            "lng": 1.095918,
            "name": "Grafiti Atur i Amor"
        },
        "9dd14729dffe4f7bbb30856c17cd84c3.16": {
            "guid": "9dd14729dffe4f7bbb30856c17cd84c3.16",
            "lat": 41.065325,
            "lng": 1.081786,
            "name": "Bird Observatory "
        },
        "9e60c6a6d8ee474fbff6427ffed010bf.16": {
            "guid": "9e60c6a6d8ee474fbff6427ffed010bf.16",
            "lat": 41.118918,
            "lng": 1.193429,
            "name": "Font de Bonavista"
        },
        "9e75b1542d20466fb1361b3797c700ff.16": {
            "guid": "9e75b1542d20466fb1361b3797c700ff.16",
            "lat": 41.157222,
            "lng": 1.096742,
            "name": "Es Forner Mallorqu\u00ed"
        },
        "9edc380d236f41d5b84d8ef6b2eb0c51.16": {
            "guid": "9edc380d236f41d5b84d8ef6b2eb0c51.16",
            "lat": 41.072249,
            "lng": 1.055135,
            "name": "Mural La Salle"
        },
        "9f2687018115404eb735f6ad463971c2.16": {
            "guid": "9f2687018115404eb735f6ad463971c2.16",
            "lat": 41.117827,
            "lng": 1.262338,
            "name": "Resid\u00e8ncia de la Merc\u00e8"
        },
        "9fedeb9644034b5b9ceb4ce7073d4ff3.16": {
            "guid": "9fedeb9644034b5b9ceb4ce7073d4ff3.16",
            "lat": 41.077778,
            "lng": 1.047933,
            "name": "zona juegos infantiles"
        },
        "a07f136cf78649ebaebcf2708e059215.16": {
            "guid": "a07f136cf78649ebaebcf2708e059215.16",
            "lat": 41.166454,
            "lng": 1.08676,
            "name": "Centenari Institut Pere Mata"
        },
        "a10af6d1531840068f21798a8692081b.16": {
            "guid": "a10af6d1531840068f21798a8692081b.16",
            "lat": 41.140327,
            "lng": 1.112405,
            "name": "Pavell\u00f3 Ol\u00edmpic Municipal"
        },
        "a1a2a321beff4525b0f58d2fd7de8e09.16": {
            "guid": "a1a2a321beff4525b0f58d2fd7de8e09.16",
            "lat": 41.064839,
            "lng": 1.056203,
            "name": "A Salvador Allende"
        },
        "a1b6fbcd612a4628aa1566167edef6a9.11": {
            "guid": "a1b6fbcd612a4628aa1566167edef6a9.11",
            "lat": 41.152774,
            "lng": 1.105165,
            "name": "Dona Treballadora"
        },
        "a32158feccc949e487646723b61410d9.16": {
            "guid": "a32158feccc949e487646723b61410d9.16",
            "lat": 41.146091,
            "lng": 1.115214,
            "name": "Parc De Jocs Infantils"
        },
        "a3f9f45e2ba344a8b28df921b954bf66.16": {
            "guid": "a3f9f45e2ba344a8b28df921b954bf66.16",
            "lat": 41.124639,
            "lng": 1.253531,
            "name": "Les Fonts del Cementiri"
        },
        "a433e13882884309b8e2171224a38017.12": {
            "guid": "a433e13882884309b8e2171224a38017.12",
            "lat": 41.071122,
            "lng": 1.179153,
            "name": "Monumento \u201cPineda\u201d"
        },
        "a46fbb9d72774068903579eec4d04b60.16": {
            "guid": "a46fbb9d72774068903579eec4d04b60.16",
            "lat": 41.070901,
            "lng": 1.05751,
            "name": "Ajuntament De Cambrils"
        },
        "a4cbbf0202f945239fe8fa6f7c43b3af.16": {
            "guid": "a4cbbf0202f945239fe8fa6f7c43b3af.16",
            "lat": 41.141719,
            "lng": 1.294075,
            "name": "Puerta de Adan y Eva"
        },
        "a4cd9f51ff1d4267905c71885d421c41.16": {
            "guid": "a4cd9f51ff1d4267905c71885d421c41.16",
            "lat": 41.066673,
            "lng": 1.069558,
            "name": "beach volleyball courts"
        },
        "a4f48ffb1e6246d2905cc79e200a15d4.16": {
            "guid": "a4f48ffb1e6246d2905cc79e200a15d4.16",
            "lat": 41.075702,
            "lng": 1.050602,
            "name": "Estela Fal\u00e7"
        },
        "a54b04a17cbc41e3a5ccf3d8b2bf3c87.16": {
            "guid": "a54b04a17cbc41e3a5ccf3d8b2bf3c87.16",
            "lat": 41.144152,
            "lng": 1.270935,
            "name": "Comella Escultura Natura"
        },
        "a56b8384a53b44089ab406298aa7931c.16": {
            "guid": "a56b8384a53b44089ab406298aa7931c.16",
            "lat": 41.083956,
            "lng": 1.182589,
            "name": "Fuente Roble"
        },
        "a885b741ba8d43e1909f0a6e86f4d2fc.16": {
            "guid": "a885b741ba8d43e1909f0a6e86f4d2fc.16",
            "lat": 41.083003,
            "lng": 1.183095,
            "name": "Fuente Los Juncos"
        },
        "a90f3bf0223841b687020660f103e55b.16": {
            "guid": "a90f3bf0223841b687020660f103e55b.16",
            "lat": 41.086667,
            "lng": 1.158985,
            "name": "La Granja De Elmo"
        },
        "a9396240a9e34dbbbd4edcbcc8547e26.16": {
            "guid": "a9396240a9e34dbbbd4edcbcc8547e26.16",
            "lat": 41.152325,
            "lng": 1.118512,
            "name": "La B\u00f2bila Sugranyes "
        },
        "a95350db2c7a4e89b9d99da0b7176797.16": {
            "guid": "a95350db2c7a4e89b9d99da0b7176797.16",
            "lat": 41.066063,
            "lng": 1.064261,
            "name": "Dones Remendadores"
        },
        "a99d0d50834f4dc1b8939631074f4e64.16": {
            "guid": "a99d0d50834f4dc1b8939631074f4e64.16",
            "lat": 41.072986,
            "lng": 1.144034,
            "name": "Font Lluminosa"
        },
        "a9f1fc660ab34a18b145d08e00f59c4e.16": {
            "guid": "a9f1fc660ab34a18b145d08e00f59c4e.16",
            "lat": 41.152048,
            "lng": 1.091829,
            "name": "Zoidberg Grafiter"
        },
        "aa36d90993fe44bd9bfe0325f549bca2.16": {
            "guid": "aa36d90993fe44bd9bfe0325f549bca2.16",
            "lat": 41.137409,
            "lng": 1.095869,
            "name": "Pistes de P\u00e0del Monterols"
        },
        "aa74774cce0d4954a24c47fdcd786ddf.16": {
            "guid": "aa74774cce0d4954a24c47fdcd786ddf.16",
            "lat": 41.069248,
            "lng": 1.052937,
            "name": "Estacio De Cambrils"
        },
        "aae8f919c09b4bd89a1c4675edf34708.16": {
            "guid": "aae8f919c09b4bd89a1c4675edf34708.16",
            "lat": 41.081851,
            "lng": 1.104288,
            "name": "Velero En Chapa"
        },
        "aae96af26b6e48f684e3a7b404bce158.16": {
            "guid": "aae96af26b6e48f684e3a7b404bce158.16",
            "lat": 41.119871,
            "lng": 1.243009,
            "name": "Esgl\u00e9sia de Sant Pau"
        },
        "ac35e4cc23a34f03b6a29c23a8f50be9.16": {
            "guid": "ac35e4cc23a34f03b6a29c23a8f50be9.16",
            "lat": 41.126021,
            "lng": 1.272758,
            "name": "Club Gimn\u00e0stic"
        },
        "acdabc42b762473dbb8eea0f03140dae.16": {
            "guid": "acdabc42b762473dbb8eea0f03140dae.16",
            "lat": 41.154788,
            "lng": 1.11148,
            "name": "Arte Urb\u00e0. P\u00e0rquing Riera Mir\u00f3"
        },
        "ae43555fa79b4bd59d7640713b959a8e.16": {
            "guid": "ae43555fa79b4bd59d7640713b959a8e.16",
            "lat": 41.110081,
            "lng": 1.242637,
            "name": "Mentitus Scriptum"
        },
        "af7a48e778e74bb8b409b339375cc888.16": {
            "guid": "af7a48e778e74bb8b409b339375cc888.16",
            "lat": 41.152463,
            "lng": 1.093782,
            "name": "Grafitti Final Xplosion"
        },
        "b0c3b42201844b39adf0297bce09c01c.16": {
            "guid": "b0c3b42201844b39adf0297bce09c01c.16",
            "lat": 41.122457,
            "lng": 1.273488,
            "name": "Poem In The Ground"
        },
        "b1232a92bdf741029163dbe3cf6c38a8.16": {
            "guid": "b1232a92bdf741029163dbe3cf6c38a8.16",
            "lat": 41.11715,
            "lng": 1.179811,
            "name": "Maquin\u00e0ria"
        },
        "b1b52ddd8fda4e7cb7269aaa2ac8fb6f.16": {
            "guid": "b1b52ddd8fda4e7cb7269aaa2ac8fb6f.16",
            "lat": 41.122853,
            "lng": 1.178896,
            "name": "Ajuntament de la Canonja"
        },
        "b1b58f54b6a74a92b53f7e04409f4ff6.16": {
            "guid": "b1b58f54b6a74a92b53f7e04409f4ff6.16",
            "lat": 41.073734,
            "lng": 1.094042,
            "name": "jardines plaza rosaleda"
        },
        "b2209fc2fa704b22b9f81c1192914644.16": {
            "guid": "b2209fc2fa704b22b9f81c1192914644.16",
            "lat": 41.111965,
            "lng": 1.149762,
            "name": "Pista De Futbol para Jugones"
        },
        "b24f8efaeecd4948abf49ab41d8bacaf.16": {
            "guid": "b24f8efaeecd4948abf49ab41d8bacaf.16",
            "lat": 41.153844,
            "lng": 1.116694,
            "name": "Club Nataci\u00f3 Reus Ploms"
        },
        "b28a1d7fce174f45a3fe32ae82cfd0d1.16": {
            "guid": "b28a1d7fce174f45a3fe32ae82cfd0d1.16",
            "lat": 41.112774,
            "lng": 1.1504,
            "name": "estacion vila-seca"
        },
        "b2e1cdbce0c94edcb1f8621bbae602e8.16": {
            "guid": "b2e1cdbce0c94edcb1f8621bbae602e8.16",
            "lat": 41.079417,
            "lng": 1.14638,
            "name": "Salauris"
        },
        "b2f92784939a4a82901c4561ceb42b08.16": {
            "guid": "b2f92784939a4a82901c4561ceb42b08.16",
            "lat": 41.146652,
            "lng": 1.240202,
            "name": "Paso Exclusivo para el Puente"
        },
        "b362fe564e53486c951616a0d7367ca8.12": {
            "guid": "b362fe564e53486c951616a0d7367ca8.12",
            "lat": 41.076775,
            "lng": 1.182082,
            "name": "La Pineda"
        },
        "b3d815e6749d4996a865924032e434f9.16": {
            "guid": "b3d815e6749d4996a865924032e434f9.16",
            "lat": 41.06529,
            "lng": 1.061296,
            "name": "L'anima Monument"
        },
        "b3e5f1eb5b2d4a0a8b0483f32b127738.16": {
            "guid": "b3e5f1eb5b2d4a0a8b0483f32b127738.16",
            "lat": 41.163058,
            "lng": 1.241709,
            "name": "MR Tuning"
        },
        "b4134a0005fd4044811b7878be2837e3.16": {
            "guid": "b4134a0005fd4044811b7878be2837e3.16",
            "lat": 41.121235,
            "lng": 1.217105,
            "name": "Camp de Futbol Torreforta"
        },
        "b4fcded5fa374ef8b1e7d9e10d77b877.16": {
            "guid": "b4fcded5fa374ef8b1e7d9e10d77b877.16",
            "lat": 41.084252,
            "lng": 1.135362,
            "name": "Sport Park"
        },
        "b720372202634b1dbc6c47f2cc42ded2.16": {
            "guid": "b720372202634b1dbc6c47f2cc42ded2.16",
            "lat": 41.161694,
            "lng": 1.093749,
            "name": "Mas Carandell"
        },
        "b76dc067fddd4a33ad4f016f742699c3.16": {
            "guid": "b76dc067fddd4a33ad4f016f742699c3.16",
            "lat": 41.158093,
            "lng": 1.088029,
            "name": "Playground Tirant Lo Blanc"
        },
        "b850441902944c268032cf0ffafdad3c.16": {
            "guid": "b850441902944c268032cf0ffafdad3c.16",
            "lat": 41.150527,
            "lng": 1.277629,
            "name": "Parc infantil amb columpis"
        },
        "b8578b2251724b65b9599b5d075609f2.16": {
            "guid": "b8578b2251724b65b9599b5d075609f2.16",
            "lat": 41.164344,
            "lng": 1.087001,
            "name": "Institut Pere Mata"
        },
        "b9500c65f7104b7a96055d671353a3be.16": {
            "guid": "b9500c65f7104b7a96055d671353a3be.16",
            "lat": 41.11452,
            "lng": 1.255373,
            "name": "Casa Maria Salas"
        },
        "ba5fdc2e7eaa4cd490a1d01842b399f1.16": {
            "guid": "ba5fdc2e7eaa4cd490a1d01842b399f1.16",
            "lat": 41.066088,
            "lng": 1.179433,
            "name": "Pedra seca a la Platja"
        },
        "bba460c252714f4cb182ebac8baa7cb0.16": {
            "guid": "bba460c252714f4cb182ebac8baa7cb0.16",
            "lat": 41.068782,
            "lng": 1.177884,
            "name": "Banderes Carrer Muntanyals"
        },
        "bbbe3632e0b74ffc9626df0e46212eb2.16": {
            "guid": "bbbe3632e0b74ffc9626df0e46212eb2.16",
            "lat": 41.108864,
            "lng": 1.143111,
            "name": "Els Ocells"
        },
        "bbed7985675545f4bb2f62e4e0757c4e.16": {
            "guid": "bbed7985675545f4bb2f62e4e0757c4e.16",
            "lat": 41.06617,
            "lng": 1.178917,
            "name": "Water Flame"
        },
        "bbeddec2732f4bedad3887c803af622c.16": {
            "guid": "bbeddec2732f4bedad3887c803af622c.16",
            "lat": 41.115963,
            "lng": 1.239671,
            "name": "Museu Nacional Arqueol\u00f2gic de Tarragona"
        },
        "bbf6647a6a294745a067049b7587f697.16": {
            "guid": "bbf6647a6a294745a067049b7587f697.16",
            "lat": 41.116117,
            "lng": 1.235925,
            "name": "Blue bubbles"
        },
        "bc101b59e45a428ab8f5715e7cc4e930.16": {
            "guid": "bc101b59e45a428ab8f5715e7cc4e930.16",
            "lat": 41.157534,
            "lng": 1.101384,
            "name": "Font del Passeig"
        },
        "bcc2d58835b348cf87495b9030b7172c.12": {
            "guid": "bcc2d58835b348cf87495b9030b7172c.12",
            "lat": 41.117162,
            "lng": 1.249364,
            "name": "Font del Centenari"
        },
        "bd1be41abbe44fa8a772f76e063761a9.16": {
            "guid": "bd1be41abbe44fa8a772f76e063761a9.16",
            "lat": 41.132675,
            "lng": 1.240273,
            "name": "Antiga F\u00e0brica Loste"
        },
        "bd65050780c64de59fceec0530d91d21.16": {
            "guid": "bd65050780c64de59fceec0530d91d21.16",
            "lat": 41.113425,
            "lng": 1.147893,
            "name": "Celler"
        },
        "bd9fb1949b7143849d6c08fffc41614c.16": {
            "guid": "bd9fb1949b7143849d6c08fffc41614c.16",
            "lat": 41.066794,
            "lng": 1.072805,
            "name": "Pi Rod\u00f3"
        },
        "bfb1462161cc44bab6c199be2e6fcc2b.11": {
            "guid": "bfb1462161cc44bab6c199be2e6fcc2b.11",
            "lat": 41.157393,
            "lng": 1.103719,
            "name": "St Joan Baptista"
        },
        "bfb226ab8e8c4815875e3399af2f3016.16": {
            "guid": "bfb226ab8e8c4815875e3399af2f3016.16",
            "lat": 41.140045,
            "lng": 1.259938,
            "name": "Parc de Miquel Servet"
        },
        "c0a1d56820bd4f34aa01d6effdd3f36f.16": {
            "guid": "c0a1d56820bd4f34aa01d6effdd3f36f.16",
            "lat": 41.061526,
            "lng": 1.164675,
            "name": "El Templo"
        },
        "c0f777a9e8024badbb7b9af759f4502e.16": {
            "guid": "c0f777a9e8024badbb7b9af759f4502e.16",
            "lat": 41.126512,
            "lng": 1.247949,
            "name": "Casa Mallol"
        },
        "c181cb6f4ad946838fe5f6cd31b792d6.16": {
            "guid": "c181cb6f4ad946838fe5f6cd31b792d6.16",
            "lat": 41.083289,
            "lng": 1.187057,
            "name": "Gran pista de petanca"
        },
        "c2a7a8c26ade4b9a99bd91139ff3d42d.16": {
            "guid": "c2a7a8c26ade4b9a99bd91139ff3d42d.16",
            "lat": 41.120024,
            "lng": 1.149128,
            "name": "Skatepark Vila-seca"
        },
        "c2a8d941df75495ea077b5be4c197e78.16": {
            "guid": "c2a8d941df75495ea077b5be4c197e78.16",
            "lat": 41.064066,
            "lng": 1.048155,
            "name": "Rosa Dels Vents"
        },
        "c300ec3c1d3443958969c1ec4330c905.16": {
            "guid": "c300ec3c1d3443958969c1ec4330c905.16",
            "lat": 41.123375,
            "lng": 1.246445,
            "name": "Canalizaci\u00f3n Romana"
        },
        "c34ddec0f285477eb7a99d7981fdeaaa.16": {
            "guid": "c34ddec0f285477eb7a99d7981fdeaaa.16",
            "lat": 41.084421,
            "lng": 1.188405,
            "name": "Viewrpoint Of La Pineda"
        },
        "c3c9620b4eff437e9f733ace1aa1e51f.16": {
            "guid": "c3c9620b4eff437e9f733ace1aa1e51f.16",
            "lat": 41.139717,
            "lng": 1.253203,
            "name": "Monument a la Sardana"
        },
        "c3eae72308634613a6eb6c270dac71ec.16": {
            "guid": "c3eae72308634613a6eb6c270dac71ec.16",
            "lat": 41.134264,
            "lng": 1.242946,
            "name": "Facultat De Qu\u00edmica I D'Enologia"
        },
        "c591a08145774d078a3ccc0f13ecfaeb.11": {
            "guid": "c591a08145774d078a3ccc0f13ecfaeb.11",
            "lat": 41.160358,
            "lng": 1.100016,
            "name": "Estacion de Tren de Reus"
        },
        "c59685cafe614c67a47116267ee9bd56.16": {
            "guid": "c59685cafe614c67a47116267ee9bd56.16",
            "lat": 41.166949,
            "lng": 1.122989,
            "name": "Reus Graveyard"
        },
        "c5be64ae0fa14cd9827f820382a1825b.16": {
            "guid": "c5be64ae0fa14cd9827f820382a1825b.16",
            "lat": 41.075858,
            "lng": 1.176742,
            "name": "Vegetaci\u00f3 S\u00e8quia Major"
        },
        "c6eee11fad2c4b5e9b8de65fa1334a21.16": {
            "guid": "c6eee11fad2c4b5e9b8de65fa1334a21.16",
            "lat": 41.121359,
            "lng": 1.193597,
            "name": "Font Antiga BonaVista"
        },
        "c739ed58449445e7b33a2fb009fb742d.12": {
            "guid": "c739ed58449445e7b33a2fb009fb742d.12",
            "lat": 41.146677,
            "lng": 1.243408,
            "name": "Pont del Diable o Aq\u00fceducte de les Ferreres"
        },
        "c74a7e767b9742bc8523a4d500fe6a00.16": {
            "guid": "c74a7e767b9742bc8523a4d500fe6a00.16",
            "lat": 41.112282,
            "lng": 1.149556,
            "name": "Josep Anselm Clav\u00e9"
        },
        "c8367a9f701a41a8b7cee5cd5260e9d6.16": {
            "guid": "c8367a9f701a41a8b7cee5cd5260e9d6.16",
            "lat": 41.119695,
            "lng": 1.259754,
            "name": "Casa Pintada"
        },
        "c8576bd51ada43858eebb75c86c22d19.16": {
            "guid": "c8576bd51ada43858eebb75c86c22d19.16",
            "lat": 41.112403,
            "lng": 1.252289,
            "name": "Parc Infantil del Palau Firal"
        },
        "c85ebcf039ef4fd5a220e4fb165353d1.16": {
            "guid": "c85ebcf039ef4fd5a220e4fb165353d1.16",
            "lat": 41.13498,
            "lng": 1.271871,
            "name": "Parc d'Oci del Llorito"
        },
        "c8b0b982aec94abebbe891961561a149.16": {
            "guid": "c8b0b982aec94abebbe891961561a149.16",
            "lat": 41.088553,
            "lng": 1.160719,
            "name": "Dragon Khan"
        },
        "c8e196d7e34d44a4b978373174a08048.16": {
            "guid": "c8e196d7e34d44a4b978373174a08048.16",
            "lat": 41.073972,
            "lng": 1.117432,
            "name": "Porta de llevant CAMBRILS"
        },
        "c9114b9866584458853d73c0d8434c97.16": {
            "guid": "c9114b9866584458853d73c0d8434c97.16",
            "lat": 41.066324,
            "lng": 1.176318,
            "name": "H\u00f4tel Gran Palas"
        },
        "c96394c292dc41018ce404994ca74e11.16": {
            "guid": "c96394c292dc41018ce404994ca74e11.16",
            "lat": 41.167552,
            "lng": 1.087161,
            "name": "Boca De La Mina"
        },
        "c9af080b8d39409ebe028ceaccbc0c6b.11": {
            "guid": "c9af080b8d39409ebe028ceaccbc0c6b.11",
            "lat": 41.156389,
            "lng": 1.085639,
            "name": "Estadi del Reus Deportiu"
        },
        "cac816a881a34fc2809e9e651dda969a.11": {
            "guid": "cac816a881a34fc2809e9e651dda969a.11",
            "lat": 41.108286,
            "lng": 1.148712,
            "name": "Fuente Luminosa Vilaseca"
        },
        "cb53c158d3094daba15128e8f5332c11.16": {
            "guid": "cb53c158d3094daba15128e8f5332c11.16",
            "lat": 41.151935,
            "lng": 1.114122,
            "name": "La Fumera"
        },
        "cb83a2e70b8b42c59c4094246b96cefb.16": {
            "guid": "cb83a2e70b8b42c59c4094246b96cefb.16",
            "lat": 41.109333,
            "lng": 1.250873,
            "name": "Rellotge de sol equatorial cil\u00edndric"
        },
        "cc6be42ddb7e4d92a77efa27b8badb27.16": {
            "guid": "cc6be42ddb7e4d92a77efa27b8badb27.16",
            "lat": 41.102975,
            "lng": 1.150772,
            "name": "Campus Educatiu I Esportiu"
        },
        "cca5cc9e248444fb86e2141aa14e08d4.16": {
            "guid": "cca5cc9e248444fb86e2141aa14e08d4.16",
            "lat": 41.089838,
            "lng": 1.159103,
            "name": "Hurakan Condor"
        },
        "cd04390298cc4fbf8b0a854f1b0b8b9b.16": {
            "guid": "cd04390298cc4fbf8b0a854f1b0b8b9b.16",
            "lat": 41.059066,
            "lng": 1.03743,
            "name": "Parque Infantil El Dorado"
        },
        "cd7c23effbda4f628876fda252559674.16": {
            "guid": "cd7c23effbda4f628876fda252559674.16",
            "lat": 41.08127,
            "lng": 1.134027,
            "name": "Passeig 30 D'octubre"
        },
        "cde4203285ab43aa83ea20c67ab93191.16": {
            "guid": "cde4203285ab43aa83ea20c67ab93191.16",
            "lat": 41.166323,
            "lng": 1.111446,
            "name": "Tenis Man"
        },
        "ce5b64dc68e140b08b90bde55451aa18.16": {
            "guid": "ce5b64dc68e140b08b90bde55451aa18.16",
            "lat": 41.137951,
            "lng": 1.303013,
            "name": "Restos de l\u2019Heueret"
        },
        "ce6eb864a7f64892befd4f505bc8d1d1.16": {
            "guid": "ce6eb864a7f64892befd4f505bc8d1d1.16",
            "lat": 41.157749,
            "lng": 1.107343,
            "name": "Vermuts Rofes"
        },
        "ce76098898c24c2db9f8adf0afe783f1.16": {
            "guid": "ce76098898c24c2db9f8adf0afe783f1.16",
            "lat": 41.120825,
            "lng": 1.179949,
            "name": "Palmera De Metall"
        },
        "cf2f36e20f1644748916045ce27d7817.11": {
            "guid": "cf2f36e20f1644748916045ce27d7817.11",
            "lat": 41.074388,
            "lng": 1.139334,
            "name": "Monument al rei Jaime I, el conqueridor"
        },
        "cfdfa853b0884191a13f39ad7ae84d3c.16": {
            "guid": "cfdfa853b0884191a13f39ad7ae84d3c.16",
            "lat": 41.079749,
            "lng": 1.148415,
            "name": "Waterfall Cascade"
        },
        "cfea692410e04abaa10474229b1d4bc8.16": {
            "guid": "cfea692410e04abaa10474229b1d4bc8.16",
            "lat": 41.078512,
            "lng": 1.097875,
            "name": "Juegos Infantiles Vilafortuny "
        },
        "cffed86c2d354b1b869d2f82df2fb7ec.16": {
            "guid": "cffed86c2d354b1b869d2f82df2fb7ec.16",
            "lat": 41.182236,
            "lng": 1.094979,
            "name": "Ermita Santa Anna"
        },
        "d140bb968e5a4875b496c140769236cb.16": {
            "guid": "d140bb968e5a4875b496c140769236cb.16",
            "lat": 41.052613,
            "lng": 1.023309,
            "name": "Cambrils Porta De Ponent"
        },
        "d2211023004d4109ac7d53dd91389374.16": {
            "guid": "d2211023004d4109ac7d53dd91389374.16",
            "lat": 41.062454,
            "lng": 1.031102,
            "name": "Antigua Prensa De Aceite"
        },
        "d36a5ba6d5774ac08a909fa36a26b931.16": {
            "guid": "d36a5ba6d5774ac08a909fa36a26b931.16",
            "lat": 41.119128,
            "lng": 1.25554,
            "name": "Colonia Ivlia Vrbs T\u00e0rraco"
        },
        "d36ff1662af14548ad33bc78bac0d5d1.16": {
            "guid": "d36ff1662af14548ad33bc78bac0d5d1.16",
            "lat": 41.133074,
            "lng": 1.244384,
            "name": "Motor Vell"
        },
        "d3e0e29c4c394329af461047229a2f56.16": {
            "guid": "d3e0e29c4c394329af461047229a2f56.16",
            "lat": 41.118051,
            "lng": 1.260797,
            "name": "Columpios P\u00fablicos"
        },
        "d486ab40558d4ddfbb133036b0dd0f5e.16": {
            "guid": "d486ab40558d4ddfbb133036b0dd0f5e.16",
            "lat": 41.081441,
            "lng": 1.136647,
            "name": "Auditori Tas"
        },
        "d5605f7154174d84b3ff8d2f12d7ae0f.16": {
            "guid": "d5605f7154174d84b3ff8d2f12d7ae0f.16",
            "lat": 41.136958,
            "lng": 1.117381,
            "name": "Vaixell de Fusta"
        },
        "d8bf1a73a2bf4b298e189172052bcbcd.16": {
            "guid": "d8bf1a73a2bf4b298e189172052bcbcd.16",
            "lat": 41.057869,
            "lng": 1.031806,
            "name": "Parque Infantil Junto Al Mar Con Barco"
        },
        "d9ed604a8cc0406b881805dcac0975a6.16": {
            "guid": "d9ed604a8cc0406b881805dcac0975a6.16",
            "lat": 41.163281,
            "lng": 1.104384,
            "name": "B\u00e0squet Niloga"
        },
        "dac72a68e365480cacf19a766c50990b.16": {
            "guid": "dac72a68e365480cacf19a766c50990b.16",
            "lat": 41.120974,
            "lng": 1.224244,
            "name": "Calatrava"
        },
        "dae278e6606b48a3af9b81ca32b7e743.16": {
            "guid": "dae278e6606b48a3af9b81ca32b7e743.16",
            "lat": 41.07887,
            "lng": 1.105736,
            "name": "Les Tres Pedres"
        },
        "db4794423dde42889151a29d1b394d75.16": {
            "guid": "db4794423dde42889151a29d1b394d75.16",
            "lat": 41.075142,
            "lng": 1.131967,
            "name": "Fuente En Paseo"
        },
        "dd6a6edb396e4e5ab8670c3b2bb511d5.16": {
            "guid": "dd6a6edb396e4e5ab8670c3b2bb511d5.16",
            "lat": 41.149113,
            "lng": 1.091983,
            "name": "Dark ladyz"
        },
        "ddbc038c7f5842499f5f4544eba21ffb.16": {
            "guid": "ddbc038c7f5842499f5f4544eba21ffb.16",
            "lat": 41.077463,
            "lng": 1.178985,
            "name": "Ancla Sagrada"
        },
        "decbeea84cb14c0f9c101d8d25079ca6.16": {
            "guid": "decbeea84cb14c0f9c101d8d25079ca6.16",
            "lat": 41.123765,
            "lng": 1.212203,
            "name": "Parc Infantil Puigpelat"
        },
        "ded9678394854fe98c7126fb40dcf128.16": {
            "guid": "ded9678394854fe98c7126fb40dcf128.16",
            "lat": 41.074061,
            "lng": 1.138826,
            "name": "Escudo De Aragon"
        },
        "df676c176629404d85f81c6c97a0d2ae.16": {
            "guid": "df676c176629404d85f81c6c97a0d2ae.16",
            "lat": 41.078664,
            "lng": 1.113586,
            "name": "Sanguli Totem"
        },
        "dfcd30b3cd124aa294d2ee745d486d6c.16": {
            "guid": "dfcd30b3cd124aa294d2ee745d486d6c.16",
            "lat": 41.067746,
            "lng": 1.093696,
            "name": "Anchor Sculpture"
        },
        "e03ec6e21dd74a2f981b1a3c345bd935.16": {
            "guid": "e03ec6e21dd74a2f981b1a3c345bd935.16",
            "lat": 41.073871,
            "lng": 1.132134,
            "name": "Nautilus"
        },
        "e0681e64d09f4cde9775738f6fff53c8.16": {
            "guid": "e0681e64d09f4cde9775738f6fff53c8.16",
            "lat": 41.159539,
            "lng": 1.123582,
            "name": "Japanese Fish"
        },
        "e06bd3a9a6a64c11b992a34aa89f3d07.16": {
            "guid": "e06bd3a9a6a64c11b992a34aa89f3d07.16",
            "lat": 41.152856,
            "lng": 1.112376,
            "name": "Flowers Playground"
        },
        "e0a6da4b6f564dcb974d172ac01c876b.16": {
            "guid": "e0a6da4b6f564dcb974d172ac01c876b.16",
            "lat": 41.106098,
            "lng": 1.245797,
            "name": "Waves"
        },
        "e0e0fe4e6a46492592420cf727ff7d86.16": {
            "guid": "e0e0fe4e6a46492592420cf727ff7d86.16",
            "lat": 41.064797,
            "lng": 1.057378,
            "name": "Patronat de Turisme"
        },
        "e0f28110f43d4705a9a5bda823e4ca5c.16": {
            "guid": "e0f28110f43d4705a9a5bda823e4ca5c.16",
            "lat": 41.121988,
            "lng": 1.273177,
            "name": "Parc de les Lletres"
        },
        "e0fe1d0e01c34993b6e96de8f6d9d254.16": {
            "guid": "e0fe1d0e01c34993b6e96de8f6d9d254.16",
            "lat": 41.056182,
            "lng": 1.026482,
            "name": "Mural de caminantes"
        },
        "e1b4ca5e8ca949f492ef1a824b1d1237.16": {
            "guid": "e1b4ca5e8ca949f492ef1a824b1d1237.16",
            "lat": 41.064831,
            "lng": 1.051728,
            "name": "Parada N\u00b0 3 Barranc De La Verge Del Cam\u00ed"
        },
        "e40698b714774468874cc644cc6e01d9.16": {
            "guid": "e40698b714774468874cc644cc6e01d9.16",
            "lat": 41.075807,
            "lng": 1.140827,
            "name": "Esgl\u00e9sia de Sant Ramon"
        },
        "e40cbe0e142b44b29f3b3fdcef36c0e9.16": {
            "guid": "e40cbe0e142b44b29f3b3fdcef36c0e9.16",
            "lat": 41.175289,
            "lng": 1.102978,
            "name": "Pista de Basket"
        },
        "e4cb2f13fffd4c7bb4489b9dc9bdaad1.16": {
            "guid": "e4cb2f13fffd4c7bb4489b9dc9bdaad1.16",
            "lat": 41.118991,
            "lng": 1.206652,
            "name": "Homenaje A La Escuela Del Ponent"
        },
        "e4fb0c52aa6e4c6db6b7d26a297c691a.16": {
            "guid": "e4fb0c52aa6e4c6db6b7d26a297c691a.16",
            "lat": 41.069595,
            "lng": 1.05284,
            "name": "Montserrat Pujals"
        },
        "e537bb8a410b4a04a6d566ba1aae9d64.16": {
            "guid": "e537bb8a410b4a04a6d566ba1aae9d64.16",
            "lat": 41.151361,
            "lng": 1.1218,
            "name": "Reddis"
        },
        "e60660b9e923416c9e2ba60e5821cd81.11": {
            "guid": "e60660b9e923416c9e2ba60e5821cd81.11",
            "lat": 41.117332,
            "lng": 1.249516,
            "name": "Edifici de la Punxa"
        },
        "e7683d43ca5a4af6a731decf43fdd515.16": {
            "guid": "e7683d43ca5a4af6a731decf43fdd515.16",
            "lat": 41.072795,
            "lng": 1.146402,
            "name": "Pub Man"
        },
        "e77c359bf98a4100adbdbd9fad0cb9e7.16": {
            "guid": "e77c359bf98a4100adbdbd9fad0cb9e7.16",
            "lat": 41.159906,
            "lng": 1.123614,
            "name": "Factory Art"
        },
        "e881e79cdb184746b16ac3f3b04dda7f.16": {
            "guid": "e881e79cdb184746b16ac3f3b04dda7f.16",
            "lat": 41.159735,
            "lng": 1.107288,
            "name": "Conmemoraci\u00f3n 150 Aniversari"
        },
        "ea46e7cb213b415088bd61fa7ac861aa.16": {
            "guid": "ea46e7cb213b415088bd61fa7ac861aa.16",
            "lat": 41.069445,
            "lng": 1.099711,
            "name": "Font Platja Vilafortuny"
        },
        "ea99520318174744ad9045ba94494111.16": {
            "guid": "ea99520318174744ad9045ba94494111.16",
            "lat": 41.144317,
            "lng": 1.117203,
            "name": "Gym Al Carrer"
        },
        "eaabc933c6b9407aa3c408a15a259177.16": {
            "guid": "eaabc933c6b9407aa3c408a15a259177.16",
            "lat": 41.121185,
            "lng": 1.252095,
            "name": "Parr\u00f2quia St.Fructu\u00f3s"
        },
        "eb1f121894b44e2e8909fe6b8879ed59.16": {
            "guid": "eb1f121894b44e2e8909fe6b8879ed59.16",
            "lat": 41.119176,
            "lng": 1.261227,
            "name": "Roman Wall"
        },
        "eb7978f3d5994b859c47040a65c02f8f.16": {
            "guid": "eb7978f3d5994b859c47040a65c02f8f.16",
            "lat": 41.159763,
            "lng": 1.100789,
            "name": "Train Door"
        },
        "ebdfb1985b35450f8201157db7233aa0.16": {
            "guid": "ebdfb1985b35450f8201157db7233aa0.16",
            "lat": 41.16947,
            "lng": 1.121716,
            "name": "Local Monument"
        },
        "ec7c0c8fe3f7462da01483d85f46fc49.16": {
            "guid": "ec7c0c8fe3f7462da01483d85f46fc49.16",
            "lat": 41.120342,
            "lng": 1.25925,
            "name": "Miquel Melendres I Rue"
        },
        "ed2c76f6fd264b118692d117ddd78049.16": {
            "guid": "ed2c76f6fd264b118692d117ddd78049.16",
            "lat": 41.115953,
            "lng": 1.238475,
            "name": "Necr\u00f2polis Paleocristiana"
        },
        "ed34834a7c4449269d697aa044259711.16": {
            "guid": "ed34834a7c4449269d697aa044259711.16",
            "lat": 41.118239,
            "lng": 1.208235,
            "name": "Parque De Adultos"
        },
        "ef5ca67c9feb4b5ca3b55523aa108236.16": {
            "guid": "ef5ca67c9feb4b5ca3b55523aa108236.16",
            "lat": 41.074262,
            "lng": 1.140343,
            "name": "Escut Del Castell"
        },
        "f073b30a8e474b5e8f8f37333fe072d5.16": {
            "guid": "f073b30a8e474b5e8f8f37333fe072d5.16",
            "lat": 41.086135,
            "lng": 1.098504,
            "name": "Mas D'en Bosch"
        },