{
   "gyms" : {
      "68c86e246072429baffd92e86e1a13af.16" : {
         "lng" : 1.096403,
         "lat" : 41.181194,
         "name" : "Església Sant Vicenç",
         "guid" : "68c86e246072429baffd92e86e1a13af.16"
      },
      "965a10fe375a497d92295978beb07252.16" : {
         "lng" : 1.104787,
         "lat" : 41.18841,
         "name" : "unknown",
         "guid" : "965a10fe375a497d92295978beb07252.16"
      },
      "20aeb362fae94bb2bb66b560af75627f.16" : {
         "lng" : 1.11145,
         "guid" : "20aeb362fae94bb2bb66b560af75627f.16",
         "name" : "Highbury Irish Pub",
         "lat" : 41.155465
      },
      "cd04390298cc4fbf8b0a854f1b0b8b9b.16" : {
         "name" : "unknown",
         "lat" : 41.059066,
         "guid" : "cd04390298cc4fbf8b0a854f1b0b8b9b.16",
         "lng" : 1.03743
      },
      "f13e03923da248679671230a0ca522fc.16" : {
         "lng" : 0.934983,
         "guid" : "f13e03923da248679671230a0ca522fc.16",
         "name" : "Miami Platja Sirena",
         "lat" : 40.99972
      },
      "6375128cc152499dbf50813e4b24d645.16" : {
         "lng" : 1.248623,
         "lat" : 41.137245,
         "name" : "Espai Recreatiu del Parc",
         "guid" : "6375128cc152499dbf50813e4b24d645.16"
      },
      "3ed5deb1cdba4e91891203b6d56e0adf.16" : {
         "guid" : "3ed5deb1cdba4e91891203b6d56e0adf.16",
         "lat" : 41.158405,
         "name" : "Area Infantil Celia Artiga",
         "lng" : 1.088472
      },
      "046959bcc8f048e9a22e6b9383616552.16" : {
         "lng" : 1.003722,
         "guid" : "046959bcc8f048e9a22e6b9383616552.16",
         "lat" : 41.043291,
         "name" : "Bunker"
      },
      "6ee8bc2ba8fd44a89b0793c8cdfdfd81.16" : {
         "guid" : "6ee8bc2ba8fd44a89b0793c8cdfdfd81.16",
         "name" : "Parc del Trenet",
         "lat" : 41.137269,
         "lng" : 1.249784
      },
      "829e7d43918a497fbbe2eb5891b1d488.16" : {
         "lng" : 0.925706,
         "name" : "unknown",
         "lat" : 40.99208,
         "guid" : "829e7d43918a497fbbe2eb5891b1d488.16"
      },
      "894edb1427164dc1b67027c479e9ce97.16" : {
         "lng" : 1.349645,
         "guid" : "894edb1427164dc1b67027c479e9ce97.16",
         "name" : "unknown",
         "lat" : 41.129354
      },
      "201f844cdb0649bdb3cfc7bd3cc72441.16" : {
         "lng" : 1.096999,
         "guid" : "201f844cdb0649bdb3cfc7bd3cc72441.16",
         "name" : "Old Castle Fountain",
         "lat" : 41.181318
      },
      "641b1e8c188549d6987ed22af8e18b1f.16" : {
         "lat" : 41.145571,
         "name" : "Bike Gymkana",
         "guid" : "641b1e8c188549d6987ed22af8e18b1f.16",
         "lng" : 1.101168
      },
      "710b784e86c34451b47a5cd08344e40c.16" : {
         "lng" : 1.043913,
         "guid" : "710b784e86c34451b47a5cd08344e40c.16",
         "name" : "unknown",
         "lat" : 41.181049
      },
      "bfda186796d54574a8c6752128d5127d.16" : {
         "lat" : 41.156114,
         "name" : "Cabana De Pedra Seca",
         "guid" : "bfda186796d54574a8c6752128d5127d.16",
         "lng" : 0.875162
      },
      "ba96721c9b554d29909e03ee1041b68e.16" : {
         "name" : "BIenvenidos A Costa Zefir",
         "lat" : 41.022166,
         "guid" : "ba96721c9b554d29909e03ee1041b68e.16",
         "lng" : 0.94002
      },
      "446a2e0b225040f38f36eeb52e10831e.16" : {
         "lng" : 1.176486,
         "name" : "unknown",
         "lat" : 41.07176,
         "guid" : "446a2e0b225040f38f36eeb52e10831e.16"
      },
      "061c038ba8a44043941792142e703786.16" : {
         "lng" : 0.909184,
         "guid" : "061c038ba8a44043941792142e703786.16",
         "name" : "unknown",
         "lat" : 41.137848
      },
      "250c42432bef4cd18226f10c9f1d9fbe.16" : {
         "lng" : 1.024796,
         "guid" : "250c42432bef4cd18226f10c9f1d9fbe.16",
         "name" : "Campo de Fútbol",
         "lat" : 41.059282
      },
      "8e3ae556a86f463c940c79317fc621a5.16" : {
         "guid" : "8e3ae556a86f463c940c79317fc621a5.16",
         "lat" : 40.991406,
         "name" : "Piscina municipal de L'Hospitalet",
         "lng" : 0.913628
      },
      "a99d0d50834f4dc1b8939631074f4e64.16" : {
         "name" : "Salou Fountain",
         "lat" : 41.072986,
         "guid" : "a99d0d50834f4dc1b8939631074f4e64.16",
         "lng" : 1.144034
      },
      "7bddf143216541219b9527cde259d0b4.16" : {
         "lng" : 0.918266,
         "guid" : "7bddf143216541219b9527cde259d0b4.16",
         "lat" : 40.989136,
         "name" : "unknown"
      },
      "30a0aa3ffd394f4bbd3e28ed68aaec8b.16" : {
         "lng" : 0.999822,
         "lat" : 41.122323,
         "name" : "Sant Antoni De Padua",
         "guid" : "30a0aa3ffd394f4bbd3e28ed68aaec8b.16"
      },
      "a5b76d9570c941b6841255fb7f3aefe7.16" : {
         "lng" : 0.955387,
         "lat" : 41.089065,
         "name" : "unknown",
         "guid" : "a5b76d9570c941b6841255fb7f3aefe7.16"
      },
      "13cda0c2945d4cd0a11c006b3e5dfc05.16" : {
         "guid" : "13cda0c2945d4cd0a11c006b3e5dfc05.16",
         "lat" : 41.053818,
         "name" : "unknown",
         "lng" : 0.935802
      },
      "a1b6fbcd612a4628aa1566167edef6a9.11" : {
         "name" : "Dona Treballadora",
         "lat" : 41.152774,
         "guid" : "a1b6fbcd612a4628aa1566167edef6a9.11",
         "lng" : 1.105165
      },
      "88e45568eca644c2890643c42a61d812.16" : {
         "lng" : 1.234991,
         "guid" : "88e45568eca644c2890643c42a61d812.16",
         "lat" : 41.12264,
         "name" : "Castell del Francol "
      },
      "265a2ba3759640eeb64b69c746b0b1d6.16" : {
         "lng" : 1.14049,
         "guid" : "265a2ba3759640eeb64b69c746b0b1d6.16",
         "lat" : 41.215396,
         "name" : "Cami De Paret-Delgada"
      },
      "629f7653c810417bad25d3908151ca7c.16" : {
         "lng" : 0.9328,
         "guid" : "629f7653c810417bad25d3908151ca7c.16",
         "lat" : 40.994197,
         "name" : "Beach Park"
      },
      "36acd6e7a7834032b0d650d7f16a3245.16" : {
         "lng" : 1.078836,
         "name" : "unknown",
         "lat" : 41.064628,
         "guid" : "36acd6e7a7834032b0d650d7f16a3245.16"
      },
      "db683871e0934cb6ad2d8de7ea887b66.16" : {
         "lng" : 0.95804,
         "guid" : "db683871e0934cb6ad2d8de7ea887b66.16",
         "lat" : 41.085293,
         "name" : "unknown"
      },
      "ded9678394854fe98c7126fb40dcf128.16" : {
         "name" : "Escudo De Aragon",
         "lat" : 41.074061,
         "guid" : "ded9678394854fe98c7126fb40dcf128.16",
         "lng" : 1.138826
      },
      "314d2dbf0c04412eb536e87b6c6e426b.16" : {
         "lng" : 0.955245,
         "lat" : 41.088821,
         "name" : "unknown",
         "guid" : "314d2dbf0c04412eb536e87b6c6e426b.16"
      },
      "a9396240a9e34dbbbd4edcbcc8547e26.16" : {
         "lng" : 1.118512,
         "lat" : 41.152325,
         "name" : "La Bòbila Sugranyes ",
         "guid" : "a9396240a9e34dbbbd4edcbcc8547e26.16"
      },
      "ec7c0c8fe3f7462da01483d85f46fc49.16" : {
         "guid" : "ec7c0c8fe3f7462da01483d85f46fc49.16",
         "lat" : 41.120342,
         "name" : "Miquel Melendres I Rue",
         "lng" : 1.25925
      },
      "25dfb858a5384fac88d030c6aedbdcd7.16" : {
         "lng" : 0.940657,
         "name" : "unknown",
         "lat" : 41.054131,
         "guid" : "25dfb858a5384fac88d030c6aedbdcd7.16"
      },
      "502ab32f5eab47cfad1e8d072427a810.16" : {
         "lng" : 1.147576,
         "guid" : "502ab32f5eab47cfad1e8d072427a810.16",
         "name" : "unknown",
         "lat" : 41.105356
      },
      "7a1c63d7cb444aa880ebd371e0aefd78.16" : {
         "guid" : "7a1c63d7cb444aa880ebd371e0aefd78.16",
         "lat" : 41.138855,
         "name" : "Barco Pirata",
         "lng" : 1.402032
      },
      "a90f3bf0223841b687020660f103e55b.16" : {
         "name" : "La Granja De Elmo",
         "lat" : 41.086667,
         "guid" : "a90f3bf0223841b687020660f103e55b.16",
         "lng" : 1.158985
      },
      "1106f79253cc4bdd8b319f256e36c423.16" : {
         "lng" : 1.099764,
         "name" : "Església de Misericòrdia",
         "lat" : 41.143595,
         "guid" : "1106f79253cc4bdd8b319f256e36c423.16"
      },
      "b4f65771aaab4a4ab494d67176cd8704.16" : {
         "name" : "unknown",
         "lat" : 41.165851,
         "guid" : "b4f65771aaab4a4ab494d67176cd8704.16",
         "lng" : 1.026537
      },
      "73725c9c829140eeba987276feb74a9a.16" : {
         "lng" : 1.081741,
         "guid" : "73725c9c829140eeba987276feb74a9a.16",
         "lat" : 41.06409,
         "name" : "Aiguamolls Riera de Riudoms"
      },
      "37e1b99fac5c420399362ae51fb2adbc.16" : {
         "name" : "Creu Castell Tamarit",
         "lat" : 41.130674,
         "guid" : "37e1b99fac5c420399362ae51fb2adbc.16",
         "lng" : 1.360464
      },
      "78a588f2410d4be9a575cfc7a998e3b5.11" : {
         "lng" : 1.250618,
         "guid" : "78a588f2410d4be9a575cfc7a998e3b5.11",
         "name" : "Estàtua dels Despullats",
         "lat" : 41.116523
      },
      "b2e1cdbce0c94edcb1f8621bbae602e8.16" : {
         "guid" : "b2e1cdbce0c94edcb1f8621bbae602e8.16",
         "lat" : 41.079417,
         "name" : "Salauris",
         "lng" : 1.14638
      },
      "5e118b37208d4c51be9fecf2de3335a7.16" : {
         "lng" : 1.400834,
         "lat" : 41.144074,
         "name" : "Font Aurrera",
         "guid" : "5e118b37208d4c51be9fecf2de3335a7.16"
      },
      "1ac121d83b6a4ef49acf55d126cfd8a5.16" : {
         "name" : "Tarragona 2 Park",
         "lat" : 41.12591,
         "guid" : "1ac121d83b6a4ef49acf55d126cfd8a5.16",
         "lng" : 1.244932
      },
      "bfb226ab8e8c4815875e3399af2f3016.16" : {
         "guid" : "bfb226ab8e8c4815875e3399af2f3016.16",
         "lat" : 41.140045,
         "name" : "Parc de Miquel Servet",
         "lng" : 1.259938
      },
      "1e2b9b51d4ea4d29897b24be3fb05b8d.16" : {
         "lng" : 0.942299,
         "guid" : "1e2b9b51d4ea4d29897b24be3fb05b8d.16",
         "name" : "unknown",
         "lat" : 41.049879
      },
      "c7a89c975442458da89a6b1e03ec3c56.16" : {
         "guid" : "c7a89c975442458da89a6b1e03ec3c56.16",
         "lat" : 41.165758,
         "name" : "unknown",
         "lng" : 1.36058
      },
      "0e9a9813393d4620a04d575eea4eec86.16" : {
         "lng" : 1.136301,
         "name" : "Арка",
         "lat" : 41.080887,
         "guid" : "0e9a9813393d4620a04d575eea4eec86.16"
      },
      "7943ff59799b409a8a6a6ec448f506db.16" : {
         "name" : "Cal Bofill",
         "lat" : 41.14538,
         "guid" : "7943ff59799b409a8a6a6ec448f506db.16",
         "lng" : 1.414677
      },
      "46475824c5c947ada02ed32582096a70.16" : {
         "lng" : 1.255189,
         "lat" : 41.190158,
         "name" : "Casa De La Vila",
         "guid" : "46475824c5c947ada02ed32582096a70.16"
      },
      "6dc6965f80f44cbfb7b33ab0e6a491d4.16" : {
         "lat" : 41.160928,
         "name" : "Plaa Pau Casals ",
         "guid" : "6dc6965f80f44cbfb7b33ab0e6a491d4.16",
         "lng" : 1.114294
      },
      "2239aca9423949b6ae33297814e066c9.16" : {
         "lat" : 41.148254,
         "name" : "unknown",
         "guid" : "2239aca9423949b6ae33297814e066c9.16",
         "lng" : 1.41207
      },
      "b8ec594624cb4431a35ecc13b22d23c9.16" : {
         "lng" : 0.958949,
         "guid" : "b8ec594624cb4431a35ecc13b22d23c9.16",
         "lat" : 41.087726,
         "name" : "font miro"
      },
      "8a166874f54f48e9ac3ef25a92990817.16" : {
         "lng" : 1.108036,
         "name" : "unknown",
         "lat" : 41.077365,
         "guid" : "8a166874f54f48e9ac3ef25a92990817.16"
      },
      "4f180b3284ab4bdda688baa30ba85359.16" : {
         "lat" : 41.172986,
         "name" : "unknown",
         "guid" : "4f180b3284ab4bdda688baa30ba85359.16",
         "lng" : 1.021387
      },
      "6c049948100b4379affcb6fd4092f5c0.16" : {
         "lng" : 0.960688,
         "guid" : "6c049948100b4379affcb6fd4092f5c0.16",
         "name" : "unknown",
         "lat" : 41.086546
      },
      "f70a65a9013a4ee38097e14117efcce8.16" : {
         "lng" : 0.999602,
         "lat" : 41.115033,
         "name" : "Playground “Bonet”",
         "guid" : "f70a65a9013a4ee38097e14117efcce8.16"
      },
      "29a030b057be49c59fbb8826aff943b1.16" : {
         "lng" : 1.147749,
         "guid" : "29a030b057be49c59fbb8826aff943b1.16",
         "lat" : 41.076293,
         "name" : "unknown"
      },
      "17fa34a8779747289c5e33dda3585775.16" : {
         "lng" : 1.101972,
         "guid" : "17fa34a8779747289c5e33dda3585775.16",
         "name" : "Old Tower",
         "lat" : 41.16566
      },
      "538a7993a4b54162b2475e66a34c54ad.16" : {
         "guid" : "538a7993a4b54162b2475e66a34c54ad.16",
         "name" : "L'assotament",
         "lat" : 41.213935,
         "lng" : 1.174774
      },
      "faa7ee1b012642debfbe38258fdedc4a.16" : {
         "lat" : 41.138333,
         "name" : "Pedrera del Mdol",
         "guid" : "faa7ee1b012642debfbe38258fdedc4a.16",
         "lng" : 1.338888
      },
      "3c5d2929a171481c9686d88471cae56c.16" : {
         "lat" : 41.211449,
         "name" : "Font de la plaça de l'església",
         "guid" : "3c5d2929a171481c9686d88471cae56c.16",
         "lng" : 1.20573
      },
      "fd5128749ec741bdb432f5789d663812.16" : {
         "guid" : "fd5128749ec741bdb432f5789d663812.16",
         "name" : "Placa 11 Setembre",
         "lat" : 41.066099,
         "lng" : 1.056846
      },
      "f5e91ebbf58b4c1cbc4fa5399044d762.16" : {
         "name" : "Sunny Monument",
         "lat" : 41.078217,
         "guid" : "f5e91ebbf58b4c1cbc4fa5399044d762.16",
         "lng" : 1.128855
      },
      "743f3b0531924c7681037f49bd8c9ddd.16" : {
         "guid" : "743f3b0531924c7681037f49bd8c9ddd.16",
         "name" : "unknown",
         "lat" : 41.066145,
         "lng" : 1.06659
      },
      "9e60c6a6d8ee474fbff6427ffed010bf.16" : {
         "lat" : 41.118918,
         "name" : "Font de Bonavista",
         "guid" : "9e60c6a6d8ee474fbff6427ffed010bf.16",
         "lng" : 1.193429
      },
      "1ab05bbc6099441c84496c0438837bb1.16" : {
         "lng" : 1.099174,
         "lat" : 41.06947,
         "name" : "Iron Structure",
         "guid" : "1ab05bbc6099441c84496c0438837bb1.16"
      },
      "63a914968d6741d386f92fb6698f71e2.16" : {
         "lng" : 1.105632,
         "lat" : 41.158292,
         "name" : "Four Columns Monument",
         "guid" : "63a914968d6741d386f92fb6698f71e2.16"
      },
      "ce76098898c24c2db9f8adf0afe783f1.16" : {
         "guid" : "ce76098898c24c2db9f8adf0afe783f1.16",
         "name" : "Palmera De Metall",
         "lat" : 41.120825,
         "lng" : 1.179949
      },
      "c9af080b8d39409ebe028ceaccbc0c6b.11" : {
         "lng" : 1.085639,
         "guid" : "c9af080b8d39409ebe028ceaccbc0c6b.11",
         "name" : "Estadi del Reus Deportiu",
         "lat" : 41.156389
      },
      "fc6e3b284318444ca4f37bbd6f142b3a.16" : {
         "guid" : "fc6e3b284318444ca4f37bbd6f142b3a.16",
         "lat" : 41.216048,
         "name" : "unknown",
         "lng" : 1.148949
      },
      "a08adfb3b00647fb96b637b815b985e1.16" : {
         "lng" : 0.919067,
         "lat" : 40.992934,
         "name" : "unknown",
         "guid" : "a08adfb3b00647fb96b637b815b985e1.16"
      },
      "b24f8efaeecd4948abf49ab41d8bacaf.16" : {
         "lng" : 1.116694,
         "lat" : 41.153844,
         "name" : "Club Nataci Reus Ploms",
         "guid" : "b24f8efaeecd4948abf49ab41d8bacaf.16"
      },
      "aae8f919c09b4bd89a1c4675edf34708.16" : {
         "lat" : 41.081851,
         "name" : "unknown",
         "guid" : "aae8f919c09b4bd89a1c4675edf34708.16",
         "lng" : 1.104288
      },
      "336e336714b94726864ea612ee75074d.16" : {
         "lng" : 1.100624,
         "guid" : "336e336714b94726864ea612ee75074d.16",
         "lat" : 41.157684,
         "name" : "Car Grafitti"
      },
      "78ae9dd867eb40f7a42a116429d0bbac.16" : {
         "lng" : 0.862995,
         "name" : "unknown",
         "lat" : 41.123217,
         "guid" : "78ae9dd867eb40f7a42a116429d0bbac.16"
      },
      "e0681e64d09f4cde9775738f6fff53c8.16" : {
         "lat" : 41.159539,
         "name" : "Japanese Fish",
         "guid" : "e0681e64d09f4cde9775738f6fff53c8.16",
         "lng" : 1.123582
      },
      "9fedeb9644034b5b9ceb4ce7073d4ff3.16" : {
         "lng" : 1.047933,
         "guid" : "9fedeb9644034b5b9ceb4ce7073d4ff3.16",
         "name" : "unknown",
         "lat" : 41.077778
      },
      "143d2673fe9f4c60a76199817640ad2d.16" : {
         "lat" : 41.162859,
         "name" : "Complex Esportiu de Sant Salvador",
         "guid" : "143d2673fe9f4c60a76199817640ad2d.16",
         "lng" : 1.243579
      },
      "7d8e83b3603449dd8b6eabda640ccaf6.16" : {
         "lng" : 0.932956,
         "name" : "unknown",
         "lat" : 41.003569,
         "guid" : "7d8e83b3603449dd8b6eabda640ccaf6.16"
      },
      "17a5ffc019454b30bd4f21b944253eb6.16" : {
         "guid" : "17a5ffc019454b30bd4f21b944253eb6.16",
         "name" : "unknown",
         "lat" : 41.142785,
         "lng" : 1.054815
      },
      "ecf5ddc5a5054f11860be906f528b278.16" : {
         "lng" : 1.385775,
         "guid" : "ecf5ddc5a5054f11860be906f528b278.16",
         "lat" : 41.136297,
         "name" : "unknown"
      },
      "6f0842cd91a04e099c048d6660c2a9e7.16" : {
         "lng" : 1.020176,
         "guid" : "6f0842cd91a04e099c048d6660c2a9e7.16",
         "lat" : 41.106124,
         "name" : "Casita del Guarda"
      },
      "261f1e2221584556b703f6acd8a9ebb4.16" : {
         "lng" : 0.927775,
         "lat" : 41.004439,
         "name" : "Fuente Parc ",
         "guid" : "261f1e2221584556b703f6acd8a9ebb4.16"
      },
      "257478b382b24bf6898fc0ce1d8b69e4.16" : {
         "lng" : 1.214222,
         "guid" : "257478b382b24bf6898fc0ce1d8b69e4.16",
         "name" : "unknown",
         "lat" : 41.1176
      },
      "09841768d4d54e7dafbe777bc29a40df.16" : {
         "lng" : 1.264516,
         "guid" : "09841768d4d54e7dafbe777bc29a40df.16",
         "name" : "unknown",
         "lat" : 41.179148
      },
      "86222a642ed84954a7b9474c7f823d0a.16" : {
         "guid" : "86222a642ed84954a7b9474c7f823d0a.16",
         "lat" : 41.071703,
         "name" : "Puente Amarillo",
         "lng" : 1.17367
      },
      "05ba8373d7b34b6185bb58d29ab2624d.16" : {
         "guid" : "05ba8373d7b34b6185bb58d29ab2624d.16",
         "lat" : 40.991382,
         "name" : "unknown",
         "lng" : 0.917354
      },
      "9a0f314934a64ebfae07fdae17186d38.16" : {
         "guid" : "9a0f314934a64ebfae07fdae17186d38.16",
         "name" : "Les Fonts D'aigua",
         "lat" : 41.160351,
         "lng" : 1.107598
      },
      "c6f3372bbb6f49e2abc7db66ffe684dc.16" : {
         "lng" : 1.117202,
         "name" : "unknown",
         "lat" : 41.217662,
         "guid" : "c6f3372bbb6f49e2abc7db66ffe684dc.16"
      },
      "9e75b1542d20466fb1361b3797c700ff.16" : {
         "lng" : 1.096742,
         "name" : "Es Forner Mallorquí",
         "lat" : 41.157222,
         "guid" : "9e75b1542d20466fb1361b3797c700ff.16"
      },
      "34681d8da93e463681226e4059b8b478.11" : {
         "lng" : 1.254163,
         "name" : "Escultura de L'avi Virgili",
         "lat" : 41.114931,
         "guid" : "34681d8da93e463681226e4059b8b478.11"
      },
      "81a2f2ac026545148334f72b26500c4e.16" : {
         "lng" : 1.16075,
         "guid" : "81a2f2ac026545148334f72b26500c4e.16",
         "name" : "unknown",
         "lat" : 41.056062
      },
      "a742460ad29e4e0f9183e481c1466a10.16" : {
         "lng" : 0.924692,
         "guid" : "a742460ad29e4e0f9183e481c1466a10.16",
         "name" : "unknown",
         "lat" : 41.005616
      },
      "a433e13882884309b8e2171224a38017.12" : {
         "lng" : 1.179153,
         "lat" : 41.071122,
         "name" : "Monumento “Pineda”",
         "guid" : "a433e13882884309b8e2171224a38017.12"
      },
      "1ef38b2b6c9b4f7ab961f0d3773f7719.16" : {
         "name" : "Mural Bibliotecari",
         "lat" : 41.141604,
         "guid" : "1ef38b2b6c9b4f7ab961f0d3773f7719.16",
         "lng" : 1.373395
      },
      "7f68f25531ea4e08a5570d45b5f6615e.16" : {
         "guid" : "7f68f25531ea4e08a5570d45b5f6615e.16",
         "lat" : 41.039978,
         "name" : "Pedra Seca 8176",
         "lng" : 0.943271
      },
      "8b57adc310dd4d418f93410dedf78400.16" : {
         "lng" : 1.248855,
         "lat" : 41.109107,
         "name" : "Fuente Porto Tarragona",
         "guid" : "8b57adc310dd4d418f93410dedf78400.16"
      },
      "1943018aed324d33bc6e66db840c2896.16" : {
         "lng" : 0.941214,
         "guid" : "1943018aed324d33bc6e66db840c2896.16",
         "lat" : 41.078227,
         "name" : "unknown"
      },
      "e7683d43ca5a4af6a731decf43fdd515.16" : {
         "lng" : 1.146402,
         "name" : "Pub Man",
         "lat" : 41.072795,
         "guid" : "e7683d43ca5a4af6a731decf43fdd515.16"
      },
      "8dd5b29e153c405caa8f2fd19d886625.16" : {
         "guid" : "8dd5b29e153c405caa8f2fd19d886625.16",
         "name" : "unknown",
         "lat" : 41.075141,
         "lng" : 1.117299
      },
      "f50aa1ce5e8244a4bb25db375f0d0ffe.16" : {
         "guid" : "f50aa1ce5e8244a4bb25db375f0d0ffe.16",
         "name" : "Hot Dog",
         "lat" : 41.160604,
         "lng" : 1.107742
      },
      "0ec2ef39c7214ea4a7c86f84576cb33b.11" : {
         "guid" : "0ec2ef39c7214ea4a7c86f84576cb33b.11",
         "lat" : 41.154802,
         "name" : "Casa Navàs",
         "lng" : 1.108606
      },
      "eb0229212079447db5144b9188e7f189.16" : {
         "guid" : "eb0229212079447db5144b9188e7f189.16",
         "lat" : 41.168701,
         "name" : "unknown",
         "lng" : 1.275463
      },
      "25fee3d840734f63b3d7d78274db4b49.16" : {
         "lng" : 1.25371,
         "guid" : "25fee3d840734f63b3d7d78274db4b49.16",
         "name" : "Drac Amagat",
         "lat" : 41.119186
      },
      "e0be68a779ae4a24b427fa0bc533079f.16" : {
         "lng" : 1.363734,
         "guid" : "e0be68a779ae4a24b427fa0bc533079f.16",
         "name" : "unknown",
         "lat" : 41.157182
      },
      "a85c23ea5a6e4503837a776085642c1e.16" : {
         "lng" : 0.915261,
         "lat" : 40.988496,
         "name" : "Espai D'oci Passeig",
         "guid" : "a85c23ea5a6e4503837a776085642c1e.16"
      },
      "7965c053d52b4bd2b543448048498058.16" : {
         "guid" : "7965c053d52b4bd2b543448048498058.16",
         "name" : "unknown",
         "lat" : 41.217982,
         "lng" : 1.149809
      },
      "a54b04a17cbc41e3a5ccf3d8b2bf3c87.16" : {
         "lng" : 1.270935,
         "lat" : 41.144152,
         "name" : "Comella Escultura Natura",
         "guid" : "a54b04a17cbc41e3a5ccf3d8b2bf3c87.16"
      },
      "769489407c5a48e4a4c2486861ba1f67.16" : {
         "lng" : 0.916411,
         "lat" : 41.127251,
         "name" : "Pou Del Jardi",
         "guid" : "769489407c5a48e4a4c2486861ba1f67.16"
      },
      "030e794996ab47f9b376a79bd79d6918.16" : {
         "lng" : 1.363879,
         "name" : "Parc Natural Gaia",
         "lat" : 41.135525,
         "guid" : "030e794996ab47f9b376a79bd79d6918.16"
      },
      "dfd7c569c2214c689aa56e05d43e6abc.16" : {
         "lng" : 1.268918,
         "guid" : "dfd7c569c2214c689aa56e05d43e6abc.16",
         "lat" : 41.174933,
         "name" : "Casa Bofarull"
      },
      "91663632cc7c4fb3980b404e62a920b0.16" : {
         "lng" : 1.168152,
         "name" : "Columpis Del Pavello",
         "lat" : 41.064112,
         "guid" : "91663632cc7c4fb3980b404e62a920b0.16"
      },
      "eaabc933c6b9407aa3c408a15a259177.16" : {
         "lng" : 1.252095,
         "lat" : 41.121185,
         "name" : "Parròquia St.Fructuós",
         "guid" : "eaabc933c6b9407aa3c408a15a259177.16"
      },
      "a43fa2ffac764a2a917f9eec69f0f791.16" : {
         "guid" : "a43fa2ffac764a2a917f9eec69f0f791.16",
         "lat" : 41.154697,
         "name" : "unknown",
         "lng" : 1.436691
      },
      "37bd7a7b17b0421e90472fe92952f23b.16" : {
         "lng" : 1.242171,
         "name" : "Quinta de Sant Rafael",
         "lat" : 41.116402,
         "guid" : "37bd7a7b17b0421e90472fe92952f23b.16"
      },
      "c1b4beee029746e1b5f1f142064e9eee.16" : {
         "guid" : "c1b4beee029746e1b5f1f142064e9eee.16",
         "name" : "unknown",
         "lat" : 41.15962,
         "lng" : 1.271095
      },
      "1c0ac3f927ad403d95e43571d5325813.16" : {
         "guid" : "1c0ac3f927ad403d95e43571d5325813.16",
         "lat" : 41.112797,
         "name" : "Font Agroestetica",
         "lng" : 0.938029
      },
      "2140c3bbbb714d3bb2e8f4497d6cec3d.16" : {
         "lat" : 41.12406,
         "name" : "Los Frutos Del Ayer",
         "guid" : "2140c3bbbb714d3bb2e8f4497d6cec3d.16",
         "lng" : 1.238246
      },
      "7aa52e7371004e95899ccdfb102001cd.16" : {
         "lat" : 41.148698,
         "name" : "Dengue Playground",
         "guid" : "7aa52e7371004e95899ccdfb102001cd.16",
         "lng" : 1.102079
      },
      "9fa973d4553d467faf1161f5f41d2bc6.16" : {
         "lng" : 0.93618,
         "name" : "Iglesia Miami Platja ",
         "lat" : 41.011439,
         "guid" : "9fa973d4553d467faf1161f5f41d2bc6.16"
      },
      "3a15143bda694052be40fd1c2e3307dd.16" : {
         "lng" : 1.1326,
         "lat" : 41.210788,
         "name" : "unknown",
         "guid" : "3a15143bda694052be40fd1c2e3307dd.16"
      },
      "b3e5f1eb5b2d4a0a8b0483f32b127738.16" : {
         "name" : "MR Tuning",
         "lat" : 41.163058,
         "guid" : "b3e5f1eb5b2d4a0a8b0483f32b127738.16",
         "lng" : 1.241709
      },
      "986779dcbbad4604904af7c1649a3844.16" : {
         "guid" : "986779dcbbad4604904af7c1649a3844.16",
         "name" : "Le Bufalo",
         "lat" : 41.130071,
         "lng" : 1.203009
      },
      "408e5931b95843adb50ea3d5bcd38fad.16" : {
         "lng" : 0.928579,
         "guid" : "408e5931b95843adb50ea3d5bcd38fad.16",
         "name" : "unknown",
         "lat" : 40.991605
      },
      "69215e802969413eb687578bef38bf42.16" : {
         "name" : "Cambrils map",
         "lat" : 41.073485,
         "guid" : "69215e802969413eb687578bef38bf42.16",
         "lng" : 1.047584
      },
      "69ce91f7b43a4e088c8814c7b3e4758c.16" : {
         "lng" : 1.204718,
         "lat" : 41.117183,
         "name" : "Casal Cvic",
         "guid" : "69ce91f7b43a4e088c8814c7b3e4758c.16"
      },
      "25197960da6b4eb2ac3925cb2932158c.16" : {
         "lat" : 41.151268,
         "name" : "Aliga de Reus Graffiti",
         "guid" : "25197960da6b4eb2ac3925cb2932158c.16",
         "lng" : 1.100449
      },
      "c8367a9f701a41a8b7cee5cd5260e9d6.16" : {
         "lng" : 1.259754,
         "guid" : "c8367a9f701a41a8b7cee5cd5260e9d6.16",
         "name" : "Casa Pintada",
         "lat" : 41.119695
      },
      "f17c779078b14b44be0b9aaa2bd63f09.16" : {
         "name" : "unknown",
         "lat" : 41.085422,
         "guid" : "f17c779078b14b44be0b9aaa2bd63f09.16",
         "lng" : 0.964563
      },
      "2064d4a683e841aebe832ab4dc0b2731.16" : {
         "guid" : "2064d4a683e841aebe832ab4dc0b2731.16",
         "name" : "Mini Playground",
         "lat" : 41.1442,
         "lng" : 1.116374
      },
      "1be06245ef044e66baee2663fde74020.16" : {
         "lng" : 1.416719,
         "guid" : "1be06245ef044e66baee2663fde74020.16",
         "name" : "Flamencs Gepec",
         "lat" : 41.146346
      },
      "2f43cc3b73ef437cb1a8198f4797bd78.16" : {
         "lng" : 1.366414,
         "guid" : "2f43cc3b73ef437cb1a8198f4797bd78.16",
         "lat" : 41.139785,
         "name" : "unknown"
      },
      "0d3135e01eca49f0ac9cca4e50cbfeaa.16" : {
         "lng" : 1.079851,
         "guid" : "0d3135e01eca49f0ac9cca4e50cbfeaa.16",
         "lat" : 41.147634,
         "name" : "Dipsit d'Aigua ntic"
      },
      "8f1e08fa325448e2b589678f7bf8e6d7.16" : {
         "lng" : 1.149336,
         "guid" : "8f1e08fa325448e2b589678f7bf8e6d7.16",
         "lat" : 41.077478,
         "name" : "unknown"
      },
      "a969d17b1ca848a8a0d16a1c8fa78347.16" : {
         "lng" : 0.907941,
         "lat" : 40.982946,
         "name" : "unknown",
         "guid" : "a969d17b1ca848a8a0d16a1c8fa78347.16"
      },
      "61b55e6c4bbc46058c78ea41108fd799.16" : {
         "guid" : "61b55e6c4bbc46058c78ea41108fd799.16",
         "name" : "Escales del Parc Francolí",
         "lat" : 41.124155,
         "lng" : 1.234299
      },
      "bfb1462161cc44bab6c199be2e6fcc2b.11" : {
         "guid" : "bfb1462161cc44bab6c199be2e6fcc2b.11",
         "name" : "St Joan Baptista",
         "lat" : 41.157393,
         "lng" : 1.103719
      },
      "ef5ca67c9feb4b5ca3b55523aa108236.16" : {
         "lat" : 41.074262,
         "name" : "Escut Del Castell ",
         "guid" : "ef5ca67c9feb4b5ca3b55523aa108236.16",
         "lng" : 1.140343
      },
      "41905b340e3d446d9982452a95a33f49.16" : {
         "lng" : 1.127539,
         "guid" : "41905b340e3d446d9982452a95a33f49.16",
         "lat" : 41.145567,
         "name" : "Mini Graffiti"
      },
      "973ca67baa78448196d59e6ddd899ccc.16" : {
         "name" : "Plaça D'europa",
         "lat" : 41.146403,
         "guid" : "973ca67baa78448196d59e6ddd899ccc.16",
         "lng" : 1.110239
      },
      "cb53c158d3094daba15128e8f5332c11.16" : {
         "guid" : "cb53c158d3094daba15128e8f5332c11.16",
         "lat" : 41.151935,
         "name" : "La Fumera",
         "lng" : 1.114122
      },
      "6117b60c8eaf495e9298d7d38bd8acc9.16" : {
         "lng" : 1.269055,
         "lat" : 41.175451,
         "name" : "Plaça la Estrella",
         "guid" : "6117b60c8eaf495e9298d7d38bd8acc9.16"
      },
      "46f0110864d4459caa1d5228c5327625.16" : {
         "lng" : 1.253646,
         "name" : "Old Graveyard Door",
         "lat" : 41.126669,
         "guid" : "46f0110864d4459caa1d5228c5327625.16"
      },
      "dcb0c1c01c1b4d438a5e16a1d8ba52e0.16" : {
         "lng" : 0.974856,
         "name" : "unknown",
         "lat" : 41.17188,
         "guid" : "dcb0c1c01c1b4d438a5e16a1d8ba52e0.16"
      },
      "05cc602bf34247c599cdc84f192ecafc.16" : {
         "name" : "Creu Al 11 De Setembre",
         "lat" : 41.071372,
         "guid" : "05cc602bf34247c599cdc84f192ecafc.16",
         "lng" : 1.051332
      },
      "0e4f617df8954649b2d027ed576cedf4.16" : {
         "name" : "Ancla Cambrils",
         "lat" : 41.06406,
         "guid" : "0e4f617df8954649b2d027ed576cedf4.16",
         "lng" : 1.057002
      },
      "48d7ff2dad4640c498e58475648cc49f.16" : {
         "guid" : "48d7ff2dad4640c498e58475648cc49f.16",
         "lat" : 41.118086,
         "name" : "Magna Pugna Est in Urbe",
         "lng" : 1.261545
      },
      "93a98e9fa9a64d18802537099d6d63a6.16" : {
         "lng" : 0.925492,
         "guid" : "93a98e9fa9a64d18802537099d6d63a6.16",
         "lat" : 41.058292,
         "name" : "unknown"
      },
      "18d2025534ae47b087a3abef0da55928.16" : {
         "lng" : 0.929921,
         "guid" : "18d2025534ae47b087a3abef0da55928.16",
         "name" : "unknown",
         "lat" : 41.061587
      },
      "210044c0b0164099a0e9ddc6d3aadf6b.12" : {
         "lat" : 41.111715,
         "name" : "Sant Bernat Calvó",
         "guid" : "210044c0b0164099a0e9ddc6d3aadf6b.12",
         "lng" : 1.14603
      },
      "42eeeb020482486a8ac7b60246f41555.16" : {
         "lng" : 1.257522,
         "name" : "unknown",
         "lat" : 41.190247,
         "guid" : "42eeeb020482486a8ac7b60246f41555.16"
      },
      "4d3b7e3d98b74261a85e76fd0feeb1a6.16" : {
         "name" : "Stella, Salou",
         "lat" : 41.070348,
         "guid" : "4d3b7e3d98b74261a85e76fd0feeb1a6.16",
         "lng" : 1.144437
      },
      "cfac01f7f2b74737b5101c1fe51d7266.16" : {
         "guid" : "cfac01f7f2b74737b5101c1fe51d7266.16",
         "name" : "Torre del Mas de la Creu",
         "lat" : 41.150703,
         "lng" : 1.310228
      },
      "4d96d846c3a74a91aae3f74fa6b0888a.16" : {
         "guid" : "4d96d846c3a74a91aae3f74fa6b0888a.16",
         "name" : "Segundo Cesped",
         "lat" : 41.062987,
         "lng" : 1.044999
      },
      "39aa1d4de10444b0ac5d2f733c29a961.16" : {
         "guid" : "39aa1d4de10444b0ac5d2f733c29a961.16",
         "lat" : 41.117754,
         "name" : "Litos",
         "lng" : 1.237005
      },
      "f2d2a7cfd1864f8e965c4de5a1b8c284.16" : {
         "guid" : "f2d2a7cfd1864f8e965c4de5a1b8c284.16",
         "name" : "unknown",
         "lat" : 41.076445,
         "lng" : 1.177633
      },
      "00ffd236a0a0430b8d2e92f3cc56a34a.16" : {
         "guid" : "00ffd236a0a0430b8d2e92f3cc56a34a.16",
         "lat" : 41.15745,
         "name" : "Font Del Parc",
         "lng" : 1.118132
      },
      "87a677715fde40559b43594e69e213f0.11" : {
         "guid" : "87a677715fde40559b43594e69e213f0.11",
         "name" : "Prioral de Sant Pere",
         "lat" : 41.15425,
         "lng" : 1.109664
      },
      "e3a4ecc797e247739bade976c4f556bc.16" : {
         "lng" : 1.204794,
         "guid" : "e3a4ecc797e247739bade976c4f556bc.16",
         "lat" : 41.195491,
         "name" : "unknown"
      },
      "918d9801aa5d4f8f9bbd365f8a5869ad.16" : {
         "lng" : 0.923363,
         "guid" : "918d9801aa5d4f8f9bbd365f8a5869ad.16",
         "lat" : 40.990983,
         "name" : "Iglesia"
      },
      "0bb532ecc0f945ffbdd93b4433468237.16" : {
         "lng" : 1.093446,
         "name" : "Parrquia Immaculada",
         "lat" : 41.148589,
         "guid" : "0bb532ecc0f945ffbdd93b4433468237.16"
      },
      "d5605f7154174d84b3ff8d2f12d7ae0f.16" : {
         "guid" : "d5605f7154174d84b3ff8d2f12d7ae0f.16",
         "name" : "Vaixell de Fusta",
         "lat" : 41.136958,
         "lng" : 1.117381
      },
      "9aaf3c258eb345509bddc7ede64d9555.16" : {
         "name" : "unknown",
         "lat" : 41.165991,
         "guid" : "9aaf3c258eb345509bddc7ede64d9555.16",
         "lng" : 1.26578
      },
      "e77c359bf98a4100adbdbd9fad0cb9e7.16" : {
         "lng" : 1.123614,
         "name" : "Factory Art",
         "lat" : 41.159906,
         "guid" : "e77c359bf98a4100adbdbd9fad0cb9e7.16"
      },
      "861c92d75f6b43cb9853faaa19c0cc32.16" : {
         "lng" : 1.06193,
         "guid" : "861c92d75f6b43cb9853faaa19c0cc32.16",
         "name" : "Far Vermell",
         "lat" : 41.062792
      },
      "811cbc15d63044ffbae1d0787f44485e.16" : {
         "guid" : "811cbc15d63044ffbae1d0787f44485e.16",
         "name" : "unknown",
         "lat" : 41.177727,
         "lng" : 1.021817
      },
      "36194d318dea407380c3984fe68504fd.16" : {
         "lat" : 41.192318,
         "name" : "Plaça del Mil·lenari",
         "guid" : "36194d318dea407380c3984fe68504fd.16",
         "lng" : 1.211857
      },
      "ddbc038c7f5842499f5f4544eba21ffb.16" : {
         "guid" : "ddbc038c7f5842499f5f4544eba21ffb.16",
         "name" : "unknown",
         "lat" : 41.077463,
         "lng" : 1.178985
      },
      "339b12a0cf1f4285b9df1e408efebadd.16" : {
         "name" : "Font De La Mosca",
         "lat" : 41.123964,
         "guid" : "339b12a0cf1f4285b9df1e408efebadd.16",
         "lng" : 1.267531
      },
      "407bc71a542440438558697bc39bb319.16" : {
         "lat" : 41.080037,
         "name" : "unknown",
         "guid" : "407bc71a542440438558697bc39bb319.16",
         "lng" : 1.178392
      },
      "65743016c2cd459e89b35b883be95f6b.16" : {
         "lng" : 0.963682,
         "lat" : 41.088621,
         "name" : "unknown",
         "guid" : "65743016c2cd459e89b35b883be95f6b.16"
      },
      "a46fbb9d72774068903579eec4d04b60.16" : {
         "lng" : 1.05751,
         "guid" : "a46fbb9d72774068903579eec4d04b60.16",
         "lat" : 41.070901,
         "name" : "unknown"
      },
      "58e1b319a0a7496fb9771cfcb1040d7e.16" : {
         "name" : "unknown",
         "lat" : 41.064605,
         "guid" : "58e1b319a0a7496fb9771cfcb1040d7e.16",
         "lng" : 1.077017
      },
      "57b2b3fb17b64fddb9044eb3e79111d1.16" : {
         "guid" : "57b2b3fb17b64fddb9044eb3e79111d1.16",
         "lat" : 41.079928,
         "name" : "Esglesia De L'esperit Sant",
         "lng" : 1.179934
      },
      "1043017b0ce54c42ad2d9cbbca572777.16" : {
         "guid" : "1043017b0ce54c42ad2d9cbbca572777.16",
         "name" : "unknown",
         "lat" : 41.062585,
         "lng" : 1.171135
      },
      "76445f14776549f182f197f73aad838e.16" : {
         "lng" : 1.383319,
         "guid" : "76445f14776549f182f197f73aad838e.16",
         "lat" : 41.138418,
         "name" : "Blue Ocean"
      },
      "9797f2adf3a84c1e8e36ad648c49d034.16" : {
         "lng" : 1.207052,
         "guid" : "9797f2adf3a84c1e8e36ad648c49d034.16",
         "lat" : 41.208167,
         "name" : "unknown"
      },
      "647c0284e7844715a5a01c534ddc86fe.16" : {
         "guid" : "647c0284e7844715a5a01c534ddc86fe.16",
         "name" : "unknown",
         "lat" : 41.130074,
         "lng" : 0.960947
      },
      "9a10b316a7ec4fc198b9c9625007cf9e.16" : {
         "guid" : "9a10b316a7ec4fc198b9c9625007cf9e.16",
         "lat" : 41.11857,
         "name" : "Passeig Arqueològic",
         "lng" : 1.254948
      },
      "5e27d06ed75a43f386a80888db14b1a3.16" : {
         "lng" : 1.153991,
         "lat" : 41.086133,
         "name" : "Ellas Las Arañas",
         "guid" : "5e27d06ed75a43f386a80888db14b1a3.16"
      },
      "e9ab37f00dc443e1813bb6c8785cd4bb.16" : {
         "guid" : "e9ab37f00dc443e1813bb6c8785cd4bb.16",
         "name" : "Castell Tamarit",
         "lat" : 41.130489,
         "lng" : 1.361769
      },
      "20a4521ebc6a483ca7451cff7029a5d1.16" : {
         "guid" : "20a4521ebc6a483ca7451cff7029a5d1.16",
         "name" : "Parc Europa",
         "lat" : 41.138569,
         "lng" : 1.253363
      },
      "68979e12dbdf486b8782c05623dcbe21.16" : {
         "guid" : "68979e12dbdf486b8782c05623dcbe21.16",
         "lat" : 41.117551,
         "name" : "Club Futbol Campclar",
         "lng" : 1.200609
      },
      "47256f79dae6439387c9a83de968830d.16" : {
         "guid" : "47256f79dae6439387c9a83de968830d.16",
         "name" : "unknown",
         "lat" : 41.133298,
         "lng" : 0.858791
      },
      "dcbe63a4a912443488f9e58c39449539.16" : {
         "lng" : 0.976078,
         "lat" : 41.168528,
         "name" : "Els Porxos",
         "guid" : "dcbe63a4a912443488f9e58c39449539.16"
      },
      "00fa51c51c9b40bd913469ac8ad0369d.16" : {
         "lng" : 1.111915,
         "name" : "Font de la Plaça de la Sang",
         "lat" : 41.155862,
         "guid" : "00fa51c51c9b40bd913469ac8ad0369d.16"
      },
      "9bdf74c5905b40ff8696f79632cb156b.16" : {
         "lat" : 41.14825,
         "name" : "Mural “Los Banana”",
         "guid" : "9bdf74c5905b40ff8696f79632cb156b.16",
         "lng" : 1.09031
      },
      "29f3ce6b5501461595f71acfe326f3f7.16" : {
         "lng" : 1.085559,
         "name" : "Parroquia De L'Assumpció ",
         "lat" : 41.160177,
         "guid" : "29f3ce6b5501461595f71acfe326f3f7.16"
      },
      "4d6e85f441b7476690e55b46349b7e63.16" : {
         "lng" : 1.245475,
         "name" : "Jardins Vapor",
         "lat" : 41.113042,
         "guid" : "4d6e85f441b7476690e55b46349b7e63.16"
      },
      "75f059aa37844781a0bd8fa0d38aef4a.16" : {
         "name" : "Ermita de St. Antoni",
         "lat" : 41.147825,
         "guid" : "75f059aa37844781a0bd8fa0d38aef4a.16",
         "lng" : 1.372628
      },
      "085ec3b00d3249c392ce15ad1a97e64c.16" : {
         "lng" : 1.134825,
         "name" : "Font de la part Alta",
         "lat" : 41.215956,
         "guid" : "085ec3b00d3249c392ce15ad1a97e64c.16"
      },
      "62da33a4b6de43ff81e19d1400b94cb9.16" : {
         "lat" : 41.127381,
         "name" : "unknown",
         "guid" : "62da33a4b6de43ff81e19d1400b94cb9.16",
         "lng" : 0.915954
      },
      "fd62e2ea79dc4b58adc0c5d7b125daea.16" : {
         "name" : "Park Fountain",
         "lat" : 41.080007,
         "guid" : "fd62e2ea79dc4b58adc0c5d7b125daea.16",
         "lng" : 1.128144
      },
      "13a6fadd051745238652ba7b531f85a3.16" : {
         "lng" : 0.920727,
         "name" : "unknown",
         "lat" : 40.995857,
         "guid" : "13a6fadd051745238652ba7b531f85a3.16"
      },
      "df676c176629404d85f81c6c97a0d2ae.16" : {
         "guid" : "df676c176629404d85f81c6c97a0d2ae.16",
         "lat" : 41.078664,
         "name" : "unknown",
         "lng" : 1.113586
      },
      "d954dc1a7b7343f482e56f5c753f22ff.16" : {
         "lng" : 1.267591,
         "guid" : "d954dc1a7b7343f482e56f5c753f22ff.16",
         "name" : "Rotonda Llevant",
         "lat" : 41.119441
      },
      "feafcef0060346168784b6d3f73b2635.16" : {
         "name" : "unknown",
         "lat" : 41.113417,
         "guid" : "feafcef0060346168784b6d3f73b2635.16",
         "lng" : 1.14453
      },
      "395068bd6de4468fbca678ed5dd83a87.16" : {
         "guid" : "395068bd6de4468fbca678ed5dd83a87.16",
         "name" : "Ballenita Azul",
         "lat" : 41.073674,
         "lng" : 1.050413
      },
      "61cc0093afc8484f856e409fd3ca327d.16" : {
         "lng" : 1.246977,
         "lat" : 41.119775,
         "name" : "Espai Jove Kesse",
         "guid" : "61cc0093afc8484f856e409fd3ca327d.16"
      },
      "616f8ab2da1048c0a8576778f2d87d4c.16" : {
         "lat" : 41.158641,
         "name" : "Chicken Run",
         "guid" : "616f8ab2da1048c0a8576778f2d87d4c.16",
         "lng" : 1.096579
      },
      "a1ccdaa0e5f44ab7acad7b71982a1748.16" : {
         "lng" : 1.405123,
         "guid" : "a1ccdaa0e5f44ab7acad7b71982a1748.16",
         "lat" : 41.144733,
         "name" : "Flor Pompeu Fabra"
      },
      "08ca32f416ed41c4853cf0aac0796f53.16" : {
         "lng" : 1.265052,
         "guid" : "08ca32f416ed41c4853cf0aac0796f53.16",
         "name" : "Parc dels Graffitis",
         "lat" : 41.162426
      },
      "a32158feccc949e487646723b61410d9.16" : {
         "lng" : 1.115214,
         "guid" : "a32158feccc949e487646723b61410d9.16",
         "lat" : 41.146091,
         "name" : "Parc De Jocs Infantils"
      },
      "c739ed58449445e7b33a2fb009fb742d.12" : {
         "guid" : "c739ed58449445e7b33a2fb009fb742d.12",
         "lat" : 41.146677,
         "name" : "Pont del Diable o Aqüeducte de les Ferreres",
         "lng" : 1.243408
      },
      "fd1d6877249d4bbab783a45b1e3c6f12.16" : {
         "lng" : 1.138762,
         "guid" : "fd1d6877249d4bbab783a45b1e3c6f12.16",
         "name" : "Centre Cultural Mas Iglésies",
         "lat" : 41.211594
      },
      "b362fe564e53486c951616a0d7367ca8.12" : {
         "lng" : 1.182082,
         "name" : "La Pineda",
         "lat" : 41.076775,
         "guid" : "b362fe564e53486c951616a0d7367ca8.12"
      },
      "e0e0fe4e6a46492592420cf727ff7d86.16" : {
         "lng" : 1.057499,
         "name" : "Turisme",
         "lat" : 41.064628,
         "guid" : "e0e0fe4e6a46492592420cf727ff7d86.16"
      },
      "f2406b08b185479e93d6d8381f20def3.16" : {
         "guid" : "f2406b08b185479e93d6d8381f20def3.16",
         "lat" : 41.119079,
         "name" : "Monument A Les Ciutats",
         "lng" : 1.214236
      },
      "f3ff13ead3c94fc59d2deb327d0dff4d.16" : {
         "lng" : 1.158846,
         "guid" : "f3ff13ead3c94fc59d2deb327d0dff4d.16",
         "lat" : 41.085571,
         "name" : "Pirates Photo"
      },
      "3f644ce323704171a3b0018df842ba01.16" : {
         "name" : "Mini Parc",
         "lat" : 40.986817,
         "guid" : "3f644ce323704171a3b0018df842ba01.16",
         "lng" : 0.913575
      },
      "03f99d7dfbf04da1b468a60ef874d822.16" : {
         "name" : "unknown",
         "lat" : 41.180184,
         "guid" : "03f99d7dfbf04da1b468a60ef874d822.16",
         "lng" : 1.257895
      },
      "87c7dda05cff44be91fc7a7f512af909.16" : {
         "lng" : 1.250056,
         "lat" : 41.117007,
         "name" : "Banc d'Espanya",
         "guid" : "87c7dda05cff44be91fc7a7f512af909.16"
      },
      "76213d1cab9f44fcb7356ec1e2340f68.16" : {
         "guid" : "76213d1cab9f44fcb7356ec1e2340f68.16",
         "name" : "unknown",
         "lat" : 41.079019,
         "lng" : 1.124967
      },
      "1601156290894aea8701ea450be248e6.16" : {
         "lng" : 0.938338,
         "guid" : "1601156290894aea8701ea450be248e6.16",
         "lat" : 41.023702,
         "name" : "Playground Nicaragua"
      },
      "9f7995c8cd934676bd33cf85ffab4f82.16" : {
         "lng" : 0.870752,
         "guid" : "9f7995c8cd934676bd33cf85ffab4f82.16",
         "name" : "unknown",
         "lat" : 41.121435
      },
      "9d35ccafd7854f9a96be4f8fc1583a21.16" : {
         "lng" : 0.920239,
         "guid" : "9d35ccafd7854f9a96be4f8fc1583a21.16",
         "name" : "unknown",
         "lat" : 40.995529
      },
      "1d5fa22a9be94d58b6c8b9e70b549cef.16" : {
         "guid" : "1d5fa22a9be94d58b6c8b9e70b549cef.16",
         "lat" : 41.116617,
         "name" : "Restes Del Parc",
         "lng" : 1.24179
      },
      "c09e7369135a49a3805945382c91a2f5.16" : {
         "lng" : 1.180348,
         "lat" : 41.081294,
         "name" : "unknown",
         "guid" : "c09e7369135a49a3805945382c91a2f5.16"
      },
      "56bffef4f9f5454cac9b99e43edcbdbd.16" : {
         "name" : "Escudo MUR",
         "lat" : 41.070659,
         "guid" : "56bffef4f9f5454cac9b99e43edcbdbd.16",
         "lng" : 1.145164
      },
      "fbd0d4d6bf904c7aa858cc7852a4ed7f.16" : {
         "guid" : "fbd0d4d6bf904c7aa858cc7852a4ed7f.16",
         "name" : "Dragon",
         "lat" : 41.08878,
         "lng" : 1.160395
      },
      "47de86ea6fcf4c1a9fdb718c23d447f4.16" : {
         "lng" : 1.060026,
         "lat" : 41.065306,
         "name" : "Torre del Port",
         "guid" : "47de86ea6fcf4c1a9fdb718c23d447f4.16"
      },
      "20c9000ff1a04a92b266f608a12da223.16" : {
         "guid" : "20c9000ff1a04a92b266f608a12da223.16",
         "name" : "Skatepark La Caracola",
         "lat" : 41.08484,
         "lng" : 1.188849
      },
      "e5e9e2dbc2be4e49b9fc2b03ea0f0625.16" : {
         "lat" : 41.102808,
         "name" : "Parc Sama",
         "guid" : "e5e9e2dbc2be4e49b9fc2b03ea0f0625.16",
         "lng" : 1.021842
      },
      "7f66ef709768408ba9f84b47994c5cd3.16" : {
         "lng" : 1.133071,
         "guid" : "7f66ef709768408ba9f84b47994c5cd3.16",
         "lat" : 41.074765,
         "name" : "Nautic Club Fountain"
      },
      "8b01e5430df54f89b58d6a0e0437052e.16" : {
         "name" : "unknown",
         "lat" : 40.998574,
         "guid" : "8b01e5430df54f89b58d6a0e0437052e.16",
         "lng" : 0.93435
      },
      "70ccf59db48844bc92ffe57a3110d661.16" : {
         "name" : "unknown",
         "lat" : 41.055948,
         "guid" : "70ccf59db48844bc92ffe57a3110d661.16",
         "lng" : 1.171859
      },
      "cf457347897c4af7910effa454a70d2b.16" : {
         "lat" : 41.176638,
         "name" : "unknown",
         "guid" : "cf457347897c4af7910effa454a70d2b.16",
         "lng" : 1.141289
      },
      "76a3fc66ffc44473b8e85c8a23abfa2d.16" : {
         "guid" : "76a3fc66ffc44473b8e85c8a23abfa2d.16",
         "name" : "Casa Natura",
         "lat" : 41.175497,
         "lng" : 1.270941
      },
      "882fb171dfa34f4196c430e5c51e40c4.16" : {
         "lng" : 0.922908,
         "name" : "AXA",
         "lat" : 40.990381,
         "guid" : "882fb171dfa34f4196c430e5c51e40c4.16"
      },
      "39a710ac3bd44d21a6d80d2f96e900bc.11" : {
         "lng" : 1.125646,
         "guid" : "39a710ac3bd44d21a6d80d2f96e900bc.11",
         "lat" : 41.084903,
         "name" : "The Public"
      },
      "3cfcf794a8a745a4b39d19f9c23ca978.16" : {
         "lng" : 1.210078,
         "lat" : 41.154482,
         "name" : "unknown",
         "guid" : "3cfcf794a8a745a4b39d19f9c23ca978.16"
      },
      "d35cc40a86e24ace805523ae187e0a5c.16" : {
         "lng" : 0.874742,
         "lat" : 41.118172,
         "name" : "unknown",
         "guid" : "d35cc40a86e24ace805523ae187e0a5c.16"
      },
      "49ed1f75d3674707b0648838f3605d6c.16" : {
         "lat" : 41.12274,
         "name" : "El Bosc de Ribera",
         "guid" : "49ed1f75d3674707b0648838f3605d6c.16",
         "lng" : 1.202744
      },
      "5e55a39a03a34ac1aaa91fb8ef8e6b40.16" : {
         "guid" : "5e55a39a03a34ac1aaa91fb8ef8e6b40.16",
         "lat" : 41.082584,
         "name" : "Mosaic ",
         "lng" : 1.18628
      },
      "a628d1e1ecf84becace3f6eed98d1be7.16" : {
         "lng" : 0.947121,
         "guid" : "a628d1e1ecf84becace3f6eed98d1be7.16",
         "name" : "unknown",
         "lat" : 41.011649
      },
      "a98cb6e78a6143abadf879e7f0410482.16" : {
         "lat" : 41.145102,
         "name" : "Església de Sant Pere",
         "guid" : "a98cb6e78a6143abadf879e7f0410482.16",
         "lng" : 1.395571
      },
      "5853ba90ad6d4e489a75e40c34c768e0.16" : {
         "guid" : "5853ba90ad6d4e489a75e40c34c768e0.16",
         "lat" : 41.148746,
         "name" : "San Jos Obrero Playground",
         "lng" : 1.118851
      },
      "55a8a9c9045342859a685a9e16162e4a.16" : {
         "guid" : "55a8a9c9045342859a685a9e16162e4a.16",
         "lat" : 41.148351,
         "name" : "unknown",
         "lng" : 1.401111
      },
      "b60b7314096b455fbd4003c1b932decd.16" : {
         "guid" : "b60b7314096b455fbd4003c1b932decd.16",
         "name" : "unknown",
         "lat" : 41.21566,
         "lng" : 1.135532
      },
      "5be9d797db6a42ab8c56cf0c6c428fb7.16" : {
         "name" : "unknown",
         "lat" : 41.107301,
         "guid" : "5be9d797db6a42ab8c56cf0c6c428fb7.16",
         "lng" : 1.248677
      },
      "8d03b241de974dfda7a76aa12e89dd1d.16" : {
         "lng" : 0.947297,
         "guid" : "8d03b241de974dfda7a76aa12e89dd1d.16",
         "lat" : 41.049194,
         "name" : "unknown"
      },
      "0129480999264049854469243ef20f65.16" : {
         "lng" : 1.078196,
         "guid" : "0129480999264049854469243ef20f65.16",
         "name" : "Campo de saltos",
         "lat" : 41.155283
      },
      "413bd6991e8143179f0c6120b3afe81c.16" : {
         "name" : "Ajuntament de Vila-seca",
         "lat" : 41.077482,
         "guid" : "413bd6991e8143179f0c6120b3afe81c.16",
         "lng" : 1.178494
      },
      "07062393d5714f0e933e75bb5f577f32.16" : {
         "guid" : "07062393d5714f0e933e75bb5f577f32.16",
         "lat" : 41.137266,
         "name" : "unknown",
         "lng" : 1.389638
      },
      "c6a5bbce76fe42bfab1ca6889d14066c.16" : {
         "lng" : 1.314831,
         "guid" : "c6a5bbce76fe42bfab1ca6889d14066c.16",
         "lat" : 41.152487,
         "name" : "Parc De Llevant"
      },
      "b3d815e6749d4996a865924032e434f9.16" : {
         "lat" : 41.06529,
         "name" : "unknown",
         "guid" : "b3d815e6749d4996a865924032e434f9.16",
         "lng" : 1.061296
      },
      "74892cd91d7e4f698d713687996bd773.16" : {
         "lng" : 1.186473,
         "guid" : "74892cd91d7e4f698d713687996bd773.16",
         "name" : "Manuel Carrasco",
         "lat" : 41.12048
      },
      "29fd85266e75421db3ca57743d774762.16" : {
         "lat" : 41.151665,
         "name" : "unknown",
         "guid" : "29fd85266e75421db3ca57743d774762.16",
         "lng" : 1.417743
      },
      "6cb9a478739b4f52beaf6c2647cddb93.16" : {
         "guid" : "6cb9a478739b4f52beaf6c2647cddb93.16",
         "lat" : 41.153902,
         "name" : "Església de Constantí",
         "lng" : 1.212569
      },
      "e0fe1d0e01c34993b6e96de8f6d9d254.16" : {
         "guid" : "e0fe1d0e01c34993b6e96de8f6d9d254.16",
         "lat" : 41.056182,
         "name" : "Mural de caminantes",
         "lng" : 1.026482
      },
      "0218bca6be494a1fb6c931bcbbd73aa9.16" : {
         "guid" : "0218bca6be494a1fb6c931bcbbd73aa9.16",
         "name" : "Abanico",
         "lat" : 41.114235,
         "lng" : 1.267027
      },
      "0a084e983b7b4aefa92192aea31b2e9a.16" : {
         "lng" : 1.119854,
         "guid" : "0a084e983b7b4aefa92192aea31b2e9a.16",
         "lat" : 41.147351,
         "name" : "Verge del Calvari"
      },
      "dfcd30b3cd124aa294d2ee745d486d6c.16" : {
         "lng" : 1.093696,
         "lat" : 41.067746,
         "name" : "unknown",
         "guid" : "dfcd30b3cd124aa294d2ee745d486d6c.16"
      },
      "a885b741ba8d43e1909f0a6e86f4d2fc.16" : {
         "name" : "unknown",
         "lat" : 41.083003,
         "guid" : "a885b741ba8d43e1909f0a6e86f4d2fc.16",
         "lng" : 1.183095
      },
      "e0f28110f43d4705a9a5bda823e4ca5c.16" : {
         "guid" : "e0f28110f43d4705a9a5bda823e4ca5c.16",
         "lat" : 41.121988,
         "name" : "Parc de les Lletres",
         "lng" : 1.273177
      },
      "3fd39c6f130647a8990335b850c167f9.16" : {
         "lng" : 0.86618,
         "guid" : "3fd39c6f130647a8990335b850c167f9.16",
         "name" : "unknown",
         "lat" : 41.134453
      },
      "49098e3e61ff4ee6a75a1def54c443c5.16" : {
         "lng" : 1.100646,
         "name" : "Sheep Playground",
         "lat" : 41.143932,
         "guid" : "49098e3e61ff4ee6a75a1def54c443c5.16"
      },
      "c3dadbed04d649a389acc6d0b4a1ef1f.16" : {
         "guid" : "c3dadbed04d649a389acc6d0b4a1ef1f.16",
         "lat" : 41.089398,
         "name" : "unknown",
         "lng" : 0.946774
      },
      "bc101b59e45a428ab8f5715e7cc4e930.16" : {
         "lng" : 1.101384,
         "guid" : "bc101b59e45a428ab8f5715e7cc4e930.16",
         "name" : "Font del Passeig",
         "lat" : 41.157534
      },
      "7bbe78a167bb4ea7bc08235dcce65cf1.16" : {
         "lng" : 1.112145,
         "guid" : "7bbe78a167bb4ea7bc08235dcce65cf1.16",
         "name" : "Diposit d'Aigua",
         "lat" : 41.143875
      },
      "f84aea8cdc324aaf9405c7c17141cfd5.16" : {
         "guid" : "f84aea8cdc324aaf9405c7c17141cfd5.16",
         "name" : "Campo de Futbol ECU",
         "lat" : 41.131852,
         "lng" : 1.117848
      },
      "eb7978f3d5994b859c47040a65c02f8f.16" : {
         "lng" : 1.100789,
         "lat" : 41.159763,
         "name" : "Train Door",
         "guid" : "eb7978f3d5994b859c47040a65c02f8f.16"
      },
      "dae278e6606b48a3af9b81ca32b7e743.16" : {
         "guid" : "dae278e6606b48a3af9b81ca32b7e743.16",
         "lat" : 41.07887,
         "name" : "unknown",
         "lng" : 1.105736
      },
      "c34ddec0f285477eb7a99d7981fdeaaa.16" : {
         "lng" : 1.188405,
         "guid" : "c34ddec0f285477eb7a99d7981fdeaaa.16",
         "name" : "Viewrpoint Of La Pineda ",
         "lat" : 41.084421
      },
      "0473bc11a87c4aaf967389720a182db8.16" : {
         "guid" : "0473bc11a87c4aaf967389720a182db8.16",
         "lat" : 41.144175,
         "name" : "Grafitty taller",
         "lng" : 1.107847
      },
      "49641e3dc97440659d75319f2a15a0e9.16" : {
         "guid" : "49641e3dc97440659d75319f2a15a0e9.16",
         "name" : "unknown",
         "lat" : 41.149499,
         "lng" : 1.414934
      },
      "cde4203285ab43aa83ea20c67ab93191.16" : {
         "lng" : 1.111446,
         "guid" : "cde4203285ab43aa83ea20c67ab93191.16",
         "lat" : 41.166323,
         "name" : "unknown"
      },
      "b39d7e3a17f244fd8df7a2bcbb72d9ff.16" : {
         "lng" : 1.046124,
         "guid" : "b39d7e3a17f244fd8df7a2bcbb72d9ff.16",
         "lat" : 41.111572,
         "name" : "Vinyols Camp"
      },
      "3230294cd060429eaf1b68ed0ff88593.16" : {
         "lat" : 41.084896,
         "name" : "Furius Baco",
         "guid" : "3230294cd060429eaf1b68ed0ff88593.16",
         "lng" : 1.156159
      },
      "df75455e50c44516b85253b3f6c161ea.16" : {
         "lng" : 0.914148,
         "guid" : "df75455e50c44516b85253b3f6c161ea.16",
         "lat" : 40.988223,
         "name" : "Campo de fútbol de L'Hospitalet "
      },
      "fc120a52f54a4591bb480531448c0777.16" : {
         "lat" : 41.146304,
         "name" : "Mas Sed ",
         "guid" : "fc120a52f54a4591bb480531448c0777.16",
         "lng" : 1.086207
      },
      "eb1f121894b44e2e8909fe6b8879ed59.16" : {
         "lng" : 1.261227,
         "lat" : 41.119176,
         "name" : "Roman Wall",
         "guid" : "eb1f121894b44e2e8909fe6b8879ed59.16"
      },
      "a10af6d1531840068f21798a8692081b.16" : {
         "lng" : 1.112405,
         "lat" : 41.140327,
         "name" : "Pavelló Olímpic Municipal",
         "guid" : "a10af6d1531840068f21798a8692081b.16"
      },
      "c0f777a9e8024badbb7b9af759f4502e.16" : {
         "lng" : 1.247949,
         "lat" : 41.126512,
         "name" : "Casa Mallol",
         "guid" : "c0f777a9e8024badbb7b9af759f4502e.16"
      },
      "84274845139b457494e9966bb7eb8d3c.16" : {
         "lng" : 1.105099,
         "guid" : "84274845139b457494e9966bb7eb8d3c.16",
         "lat" : 41.154917,
         "name" : "Fallera Major "
      },
      "44bc39b308324c11aa004a8ecb9c5857.16" : {
         "lng" : 1.365449,
         "name" : "unknown",
         "lat" : 41.142317,
         "guid" : "44bc39b308324c11aa004a8ecb9c5857.16"
      },
      "4eff1ef5fb7f47a5883266fdbc1ffa80.16" : {
         "lng" : 1.13937,
         "guid" : "4eff1ef5fb7f47a5883266fdbc1ffa80.16",
         "lat" : 41.113671,
         "name" : "unknown"
      },
      "cc6be42ddb7e4d92a77efa27b8badb27.16" : {
         "lng" : 1.150772,
         "guid" : "cc6be42ddb7e4d92a77efa27b8badb27.16",
         "name" : "unknown",
         "lat" : 41.102975
      },
      "15761f165a424a1ba7d4099080f6bf3e.11" : {
         "name" : "Restes arqueològiques",
         "lat" : 41.14079,
         "guid" : "15761f165a424a1ba7d4099080f6bf3e.11",
         "lng" : 1.053527
      },
      "e06bd3a9a6a64c11b992a34aa89f3d07.16" : {
         "lng" : 1.112376,
         "guid" : "e06bd3a9a6a64c11b992a34aa89f3d07.16",
         "name" : "Flowers Playground",
         "lat" : 41.152856
      },
      "0d12beaddee94557a5a50abee5bbcab8.16" : {
         "guid" : "0d12beaddee94557a5a50abee5bbcab8.16",
         "lat" : 41.061318,
         "name" : "unknown",
         "lng" : 1.040352
      },
      "4f0eb19b321949448c8f209dd4d7f57e.16" : {
         "guid" : "4f0eb19b321949448c8f209dd4d7f57e.16",
         "name" : "unknown",
         "lat" : 41.223866,
         "lng" : 1.218629
      },
      "cf2f36e20f1644748916045ce27d7817.11" : {
         "lat" : 41.074388,
         "name" : "Jaime I de Aragón, el Conquistador",
         "guid" : "cf2f36e20f1644748916045ce27d7817.11",
         "lng" : 1.139334
      },
      "635edb90666a441c988bb22f3ccb817c.16" : {
         "guid" : "635edb90666a441c988bb22f3ccb817c.16",
         "name" : "unknown",
         "lat" : 41.006028,
         "lng" : 0.935396
      },
      "6e856f6b2fca45afb4a2c44fa446169b.16" : {
         "lng" : 1.182488,
         "name" : "Barco del Parc",
         "lat" : 41.077058,
         "guid" : "6e856f6b2fca45afb4a2c44fa446169b.16"
      },
      "78328d8d49f8487a977779b2582b7ea4.16" : {
         "lng" : 1.103397,
         "guid" : "78328d8d49f8487a977779b2582b7ea4.16",
         "name" : "Antic Velodrom",
         "lat" : 41.149229
      },
      "e1b4ca5e8ca949f492ef1a824b1d1237.16" : {
         "lng" : 1.051594,
         "name" : "unknown",
         "lat" : 41.065045,
         "guid" : "e1b4ca5e8ca949f492ef1a824b1d1237.16"
      },
      "633fdac54e814b9a82879f486cbdb7d3.16" : {
         "guid" : "633fdac54e814b9a82879f486cbdb7d3.16",
         "lat" : 41.136474,
         "name" : "Altafulla Train Station",
         "lng" : 1.373366
      },
      "ca106b553efb4532b2d91d9bf6c651f3.16" : {
         "lng" : 1.39169,
         "guid" : "ca106b553efb4532b2d91d9bf6c651f3.16",
         "lat" : 41.143452,
         "name" : "unknown"
      },
      "8524fdb18bb74130a6fd0f8b5ee8f718.16" : {
         "lat" : 41.146454,
         "name" : "Cartells de l'Ecoruta",
         "guid" : "8524fdb18bb74130a6fd0f8b5ee8f718.16",
         "lng" : 1.242634
      },
      "5551490b39fa4a649ca5ac0a1bd59b2a.16" : {
         "guid" : "5551490b39fa4a649ca5ac0a1bd59b2a.16",
         "name" : "unknown",
         "lat" : 41.065577,
         "lng" : 1.075061
      },
      "690e531e8c5c4cfab2314db9229c917d.16" : {
         "name" : "Thales mirant les estrelles",
         "lat" : 41.115753,
         "guid" : "690e531e8c5c4cfab2314db9229c917d.16",
         "lng" : 1.257853
      },
      "ff466c4a422f45cd9cf411544fcd619a.16" : {
         "name" : "Pista basket parc Pinaret",
         "lat" : 41.079048,
         "guid" : "ff466c4a422f45cd9cf411544fcd619a.16",
         "lng" : 1.047095
      },
      "8f4c35e24fca4fec8ecdadbaac04afc2.16" : {
         "name" : "unknown",
         "lat" : 41.014509,
         "guid" : "8f4c35e24fca4fec8ecdadbaac04afc2.16",
         "lng" : 0.949759
      },
      "3cfab58137714a8b9bfbf5882a8c0c22.16" : {
         "lng" : 1.108239,
         "guid" : "3cfab58137714a8b9bfbf5882a8c0c22.16",
         "name" : "gaudi adolescent",
         "lat" : 41.157049
      },
      "8cf00244fbd14f8f8fb28a3008862ddb.16" : {
         "lat" : 41.213004,
         "name" : "Font del Poliesportiu",
         "guid" : "8cf00244fbd14f8f8fb28a3008862ddb.16",
         "lng" : 1.142726
      },
      "08604f84d98a463697f420396dae5186.16" : {
         "lng" : 1.128874,
         "guid" : "08604f84d98a463697f420396dae5186.16",
         "lat" : 41.129822,
         "name" : "Playground Tobogan"
      },
      "2432e20a70584e2f84eaa59b0945ac0d.11" : {
         "name" : "Estació de Trens Renfe de Tarragona",
         "lat" : 41.111389,
         "guid" : "2432e20a70584e2f84eaa59b0945ac0d.11",
         "lng" : 1.252862
      },
      "63fe1c27a4a1432bb461cde9b9ec9104.16" : {
         "lng" : 0.946929,
         "guid" : "63fe1c27a4a1432bb461cde9b9ec9104.16",
         "lat" : 41.073053,
         "name" : "unknown"
      },
      "90b06ce7140445a4a39ad410a4cef646.16" : {
         "lng" : 1.107106,
         "guid" : "90b06ce7140445a4a39ad410a4cef646.16",
         "lat" : 41.160176,
         "name" : "Gat del Parc"
      },
      "c9114b9866584458853d73c0d8434c97.16" : {
         "lng" : 1.176318,
         "name" : "unknown",
         "lat" : 41.066324,
         "guid" : "c9114b9866584458853d73c0d8434c97.16"
      },
      "c46362214df343c18d828fcb88e7a74e.16" : {
         "guid" : "c46362214df343c18d828fcb88e7a74e.16",
         "name" : "unknown",
         "lat" : 41.152419,
         "lng" : 1.420104
      },
      "01a7519b7d1f44feafba94abb96ddeb6.16" : {
         "lat" : 41.163226,
         "name" : "Mas Sabater",
         "guid" : "01a7519b7d1f44feafba94abb96ddeb6.16",
         "lng" : 1.112514
      },
      "26dbeed6b03545528449cb7bca540cb3.16" : {
         "lng" : 1.113713,
         "lat" : 41.197907,
         "name" : "unknown",
         "guid" : "26dbeed6b03545528449cb7bca540cb3.16"
      },
      "a4229cd9222b456db9e989f8b3d952a4.16" : {
         "lat" : 41.216671,
         "name" : "Zona de Jocs Infantils de la Part Alta",
         "guid" : "a4229cd9222b456db9e989f8b3d952a4.16",
         "lng" : 1.134776
      },
      "5b874c2ffb7542ddab62abaade41db14.16" : {
         "name" : "unknown",
         "lat" : 41.14561,
         "guid" : "5b874c2ffb7542ddab62abaade41db14.16",
         "lng" : 1.370414
      },
      "1a0bdb06fd0f42e494b2c4aad6001ee7.16" : {
         "lng" : 1.098701,
         "guid" : "1a0bdb06fd0f42e494b2c4aad6001ee7.16",
         "lat" : 41.179807,
         "name" : "Les Terres"
      },
      "a3f9f45e2ba344a8b28df921b954bf66.16" : {
         "lng" : 1.253531,
         "guid" : "a3f9f45e2ba344a8b28df921b954bf66.16",
         "lat" : 41.124639,
         "name" : "Les Fonts del Cementiri"
      },
      "cffed86c2d354b1b869d2f82df2fb7ec.16" : {
         "lng" : 1.094979,
         "guid" : "cffed86c2d354b1b869d2f82df2fb7ec.16",
         "lat" : 41.182236,
         "name" : "Ermita Santa Anna"
      },
      "f837e7b8e320437aa151a8f15fd953e5.16" : {
         "lat" : 41.13031,
         "name" : "unknown",
         "guid" : "f837e7b8e320437aa151a8f15fd953e5.16",
         "lng" : 1.371079
      },
      "c8b0b982aec94abebbe891961561a149.16" : {
         "lng" : 1.160719,
         "guid" : "c8b0b982aec94abebbe891961561a149.16",
         "name" : "Dragon Khan",
         "lat" : 41.088553
      },
      "8b6a42fe723b4a7eb73eea5e0d33906f.16" : {
         "lat" : 41.091735,
         "name" : "unknown",
         "guid" : "8b6a42fe723b4a7eb73eea5e0d33906f.16",
         "lng" : 1.129538
      },
      "9706b16af4e84087948587bed41626ef.16" : {
         "guid" : "9706b16af4e84087948587bed41626ef.16",
         "lat" : 41.113973,
         "name" : "Parc Petit",
         "lng" : 1.270474
      },
      "e603a75501254bd4a23ed5c6e18d0cc1.16" : {
         "lng" : 0.920851,
         "name" : "Pérgola de la playa de L'Hospitalet",
         "lat" : 40.989424,
         "guid" : "e603a75501254bd4a23ed5c6e18d0cc1.16"
      },
      "8a527a0617b24ed481d8e1d3dc7d941a.16" : {
         "guid" : "8a527a0617b24ed481d8e1d3dc7d941a.16",
         "name" : "Tourist Information La Pineda",
         "lat" : 41.079723,
         "lng" : 1.184041
      },
      "f4792c98790349c7a8a379936b3e5610.16" : {
         "lng" : 1.217568,
         "name" : "unknown",
         "lat" : 41.116537,
         "guid" : "f4792c98790349c7a8a379936b3e5610.16"
      },
      "c96394c292dc41018ce404994ca74e11.16" : {
         "lng" : 1.087161,
         "lat" : 41.167552,
         "name" : "unknown",
         "guid" : "c96394c292dc41018ce404994ca74e11.16"
      },
      "60bca9e816bb4b329f4f45b9992362a2.16" : {
         "lng" : 1.232925,
         "lat" : 41.125859,
         "name" : "Chorisia Speciosa",
         "guid" : "60bca9e816bb4b329f4f45b9992362a2.16"
      },
      "d36ff1662af14548ad33bc78bac0d5d1.16" : {
         "lng" : 1.244384,
         "guid" : "d36ff1662af14548ad33bc78bac0d5d1.16",
         "lat" : 41.133074,
         "name" : "Motor Vell"
      },
      "e537bb8a410b4a04a6d566ba1aae9d64.16" : {
         "guid" : "e537bb8a410b4a04a6d566ba1aae9d64.16",
         "lat" : 41.151361,
         "name" : "unknown",
         "lng" : 1.1218
      },
      "31f532b253094224983edabc9b207084.16" : {
         "lat" : 41.072689,
         "name" : "Home I Dofi",
         "guid" : "31f532b253094224983edabc9b207084.16",
         "lng" : 1.179219
      },
      "bba460c252714f4cb182ebac8baa7cb0.16" : {
         "lng" : 1.177884,
         "guid" : "bba460c252714f4cb182ebac8baa7cb0.16",
         "lat" : 41.068782,
         "name" : "Banderes Carrer Muntanyals"
      },
      "65b17b1506284411b72bc64367637596.16" : {
         "guid" : "65b17b1506284411b72bc64367637596.16",
         "lat" : 41.113003,
         "name" : "Bomba Pou",
         "lng" : 1.042262
      },
      "80be8b52596d4e5aa8e6883c152fd13c.16" : {
         "name" : "unknown",
         "lat" : 41.074602,
         "guid" : "80be8b52596d4e5aa8e6883c152fd13c.16",
         "lng" : 1.175811
      },
      "9cf85fd7458a4cb79fc1b6605481fbd4.16" : {
         "lng" : 1.375943,
         "guid" : "9cf85fd7458a4cb79fc1b6605481fbd4.16",
         "lat" : 41.136019,
         "name" : "La Fassina"
      },
      "cd7c23effbda4f628876fda252559674.16" : {
         "lng" : 1.134027,
         "guid" : "cd7c23effbda4f628876fda252559674.16",
         "name" : "Passeig 30 D'octubre",
         "lat" : 41.08127
      },
      "c88a2de9b4124a9288ad9ec18a26f97e.16" : {
         "lng" : 1.394706,
         "lat" : 41.148956,
         "name" : "Pista Atletismo ",
         "guid" : "c88a2de9b4124a9288ad9ec18a26f97e.16"
      },
      "73a16b1791dd4aa0b0f6722cf72b2d03.16" : {
         "guid" : "73a16b1791dd4aa0b0f6722cf72b2d03.16",
         "name" : "Informacio L'H ",
         "lat" : 40.992414,
         "lng" : 0.922521
      },
      "5ab4c099e4c3450997d06bb234ca19a4.16" : {
         "lng" : 1.240497,
         "guid" : "5ab4c099e4c3450997d06bb234ca19a4.16",
         "lat" : 41.109336,
         "name" : "Mural del Serrallo"
      },
      "5878158c3a3444e3ab34290ff57b3664.16" : {
         "lng" : 1.139905,
         "name" : "Font del Molí",
         "lat" : 41.21299,
         "guid" : "5878158c3a3444e3ab34290ff57b3664.16"
      },
      "1aa3d0e4862e4484b2b385a736cb7173.16" : {
         "guid" : "1aa3d0e4862e4484b2b385a736cb7173.16",
         "name" : "Fes Esport",
         "lat" : 41.120171,
         "lng" : 1.189761
      },
      "36ebd5ee50fe4be8a5d40dca4a664c80.16" : {
         "lng" : 1.370162,
         "name" : "unknown",
         "lat" : 41.140245,
         "guid" : "36ebd5ee50fe4be8a5d40dca4a664c80.16"
      },
      "2422a8c6903e4339840f7a4483d0e1d0.16" : {
         "lng" : 1.117391,
         "name" : "Gaudi Bust",
         "lat" : 41.162979,
         "guid" : "2422a8c6903e4339840f7a4483d0e1d0.16"
      },
      "b2209fc2fa704b22b9f81c1192914644.16" : {
         "guid" : "b2209fc2fa704b22b9f81c1192914644.16",
         "lat" : 41.111965,
         "name" : "Pista De Futbol para Jugones",
         "lng" : 1.149762
      },
      "304b2430ab024461825671b66063c00c.16" : {
         "lng" : 1.113246,
         "lat" : 41.14613,
         "name" : "Roserar Joaquima Gallisà i Rueda",
         "guid" : "304b2430ab024461825671b66063c00c.16"
      },
      "aa74774cce0d4954a24c47fdcd786ddf.16" : {
         "guid" : "aa74774cce0d4954a24c47fdcd786ddf.16",
         "lat" : 41.069392,
         "name" : "Estacio De Cambrils",
         "lng" : 1.052937
      },
      "2c25cfaec1fd45d2b88ab472392b38c2.16" : {
         "lng" : 1.143783,
         "guid" : "2c25cfaec1fd45d2b88ab472392b38c2.16",
         "lat" : 41.211033,
         "name" : "Elefant de L'Estació"
      },
      "3f90869be2af44b68548282a83b6b293.16" : {
         "name" : "Pistas De Tenis Mont-Roig",
         "lat" : 41.084193,
         "guid" : "3f90869be2af44b68548282a83b6b293.16",
         "lng" : 0.965056
      },
      "d140bb968e5a4875b496c140769236cb.16" : {
         "lat" : 41.052589,
         "name" : "unknown",
         "guid" : "d140bb968e5a4875b496c140769236cb.16",
         "lng" : 1.023354
      },
      "689e02d7298d45f7a43d466984398e0a.16" : {
         "lng" : 1.249539,
         "guid" : "689e02d7298d45f7a43d466984398e0a.16",
         "name" : "unknown",
         "lat" : 41.122833
      },
      "00ecc4670a2a46bcb965192bcda11649.16" : {
         "lat" : 41.162432,
         "name" : "Cigne I Gorgona",
         "guid" : "00ecc4670a2a46bcb965192bcda11649.16",
         "lng" : 1.093293
      },
      "e0a6da4b6f564dcb974d172ac01c876b.16" : {
         "lat" : 41.106089,
         "name" : "unknown",
         "guid" : "e0a6da4b6f564dcb974d172ac01c876b.16",
         "lng" : 1.245822
      },
      "35d6a24fb85944dea29540d7b9771f3b.16" : {
         "lng" : 0.933023,
         "name" : "unknown",
         "lat" : 41.057673,
         "guid" : "35d6a24fb85944dea29540d7b9771f3b.16"
      },
      "7a0e720f359f475080b51d4379396993.11" : {
         "lat" : 41.146198,
         "name" : "International Nut and Dried Fruit Council (INC)",
         "guid" : "7a0e720f359f475080b51d4379396993.11",
         "lng" : 1.133981
      },
      "694ab052f008460faa0d9493d21bbf87.16" : {
         "guid" : "694ab052f008460faa0d9493d21bbf87.16",
         "lat" : 41.137584,
         "name" : "Fonts Fresquetes",
         "lng" : 1.251883
      },
      "cac816a881a34fc2809e9e651dda969a.11" : {
         "lng" : 1.148712,
         "guid" : "cac816a881a34fc2809e9e651dda969a.11",
         "name" : "unknown",
         "lat" : 41.108286
      },
      "555365c6565c4e97bdcb787610b17be7.16" : {
         "name" : "unknown",
         "lat" : 41.158763,
         "guid" : "555365c6565c4e97bdcb787610b17be7.16",
         "lng" : 1.433492
      },
      "0caecbec9a3d4458acdaa3b5729f5f2a.16" : {
         "lng" : 1.102457,
         "name" : "Estatua Nens Jugant a la plaça Mineta",
         "lat" : 41.164592,
         "guid" : "0caecbec9a3d4458acdaa3b5729f5f2a.16"
      },
      "7439f65781d449e7821ffedd12c81ecc.16" : {
         "lng" : 0.939836,
         "guid" : "7439f65781d449e7821ffedd12c81ecc.16",
         "lat" : 41.019504,
         "name" : "Oficina Turismo Costa Zefir"
      },
      "6eb01eeac9bc4b2cb0741b8d1aff0ca4.16" : {
         "lng" : 1.209234,
         "lat" : 41.194427,
         "name" : "unknown",
         "guid" : "6eb01eeac9bc4b2cb0741b8d1aff0ca4.16"
      },
      "5d7509c9f2a34726927c1fc8ed32c837.16" : {
         "guid" : "5d7509c9f2a34726927c1fc8ed32c837.16",
         "name" : "Plaza Mayor Campoclaro",
         "lat" : 41.117936,
         "lng" : 1.209543
      },
      "3517d1c688a146a5a2b2e9a0d8e4baf1.16" : {
         "name" : "Casita Mar",
         "lat" : 41.143858,
         "guid" : "3517d1c688a146a5a2b2e9a0d8e4baf1.16",
         "lng" : 1.412756
      },
      "fe34b1a8e2354e4baf869d697a13486f.16" : {
         "name" : "Gym Adultos",
         "lat" : 41.079856,
         "guid" : "fe34b1a8e2354e4baf869d697a13486f.16",
         "lng" : 1.178389
      },
      "594af10306da466eba71b72df0269fc3.16" : {
         "lat" : 41.057387,
         "name" : "unknown",
         "guid" : "594af10306da466eba71b72df0269fc3.16",
         "lng" : 1.167494
      },
      "ffc8109320bc44999769eb5cc3772410.16" : {
         "lat" : 41.175009,
         "name" : "unknown",
         "guid" : "ffc8109320bc44999769eb5cc3772410.16",
         "lng" : 1.325737
      },
      "973d99ec53bd4ddeb5573a92910f97ca.16" : {
         "guid" : "973d99ec53bd4ddeb5573a92910f97ca.16",
         "name" : "unknown",
         "lat" : 41.139456,
         "lng" : 1.402665
      },
      "143b6d642abb443194deb9d234361ac3.16" : {
         "guid" : "143b6d642abb443194deb9d234361ac3.16",
         "name" : "Esglesia Santa Maria Magdalena De Pradell De La Teixeta",
         "lat" : 41.156942,
         "lng" : 0.876133
      },
      "5148bba463d24848811ebed57d8ae7b9.16" : {
         "name" : "Parque Agustí Sardá",
         "lat" : 41.083896,
         "guid" : "5148bba463d24848811ebed57d8ae7b9.16",
         "lng" : 0.960156
      },
      "89e11e34db7d4769a92670a387b0d65c.16" : {
         "name" : "Font Rambla President Macià",
         "lat" : 41.121985,
         "guid" : "89e11e34db7d4769a92670a387b0d65c.16",
         "lng" : 1.239197
      },
      "c181cb6f4ad946838fe5f6cd31b792d6.16" : {
         "lng" : 1.187057,
         "guid" : "c181cb6f4ad946838fe5f6cd31b792d6.16",
         "name" : "unknown",
         "lat" : 41.083289
      },
      "ea99520318174744ad9045ba94494111.16" : {
         "lng" : 1.117203,
         "guid" : "ea99520318174744ad9045ba94494111.16",
         "lat" : 41.144317,
         "name" : "unknown"
      },
      "07784a89e63f440a80671496d48740c5.11" : {
         "lng" : 1.123296,
         "lat" : 41.144349,
         "name" : "Neob-Reus",
         "guid" : "07784a89e63f440a80671496d48740c5.11"
      },
      "9ee48135cf624adca2ffdbc0b0492dee.16" : {
         "lng" : 1.367697,
         "guid" : "9ee48135cf624adca2ffdbc0b0492dee.16",
         "name" : "Desembocadura Del Gaià",
         "lat" : 41.131702
      },
      "29338f42d5b346a49f354d86fecf4179.16" : {
         "lng" : 1.098503,
         "guid" : "29338f42d5b346a49f354d86fecf4179.16",
         "name" : "unknown",
         "lat" : 41.081836
      },
      "2df0aeeb778f49e48bf2fa8f8531a9c5.16" : {
         "name" : "Font",
         "lat" : 41.119148,
         "guid" : "2df0aeeb778f49e48bf2fa8f8531a9c5.16",
         "lng" : 1.192509
      },
      "6037bc67b2284d3d9fa8d918aa6e69e1.16" : {
         "lng" : 1.262552,
         "guid" : "6037bc67b2284d3d9fa8d918aa6e69e1.16",
         "name" : "unknown",
         "lat" : 41.16203
      },
      "b4fcded5fa374ef8b1e7d9e10d77b877.16" : {
         "lng" : 1.135362,
         "guid" : "b4fcded5fa374ef8b1e7d9e10d77b877.16",
         "lat" : 41.084252,
         "name" : "Sport Park"
      },
      "a1658bc2dafa4ac7875356a80f5dde29.16" : {
         "guid" : "a1658bc2dafa4ac7875356a80f5dde29.16",
         "name" : "unknown",
         "lat" : 41.16544,
         "lng" : 1.270604
      },
      "92a80fdd7111406eb40154c2df676f37.16" : {
         "guid" : "92a80fdd7111406eb40154c2df676f37.16",
         "name" : "Font de la Imperial",
         "lat" : 41.11898,
         "lng" : 1.245531
      },
      "225229aa497444a386d2c0be3a246741.16" : {
         "name" : "Parc D'infants",
         "lat" : 41.124599,
         "guid" : "225229aa497444a386d2c0be3a246741.16",
         "lng" : 1.180259
      },
      "296ffb7e95674fbea5eb8a220c323804.16" : {
         "guid" : "296ffb7e95674fbea5eb8a220c323804.16",
         "lat" : 41.193921,
         "name" : "Mural de Puigdelfí",
         "lng" : 1.238598
      },
      "2fcf846dcf6448e09edacfee653cbff2.16" : {
         "guid" : "2fcf846dcf6448e09edacfee653cbff2.16",
         "name" : "Stampida",
         "lat" : 41.090121,
         "lng" : 1.156221
      },
      "85a584c9091b4fc5bc05ee2eef2689a9.16" : {
         "lng" : 1.103861,
         "name" : "Gym per gran Gent",
         "lat" : 41.146622,
         "guid" : "85a584c9091b4fc5bc05ee2eef2689a9.16"
      },
      "75b45368ad8f4bbdb60f7b18e72757c8.16" : {
         "lng" : 1.242415,
         "guid" : "75b45368ad8f4bbdb60f7b18e72757c8.16",
         "lat" : 41.110875,
         "name" : "Hulka"
      },
      "13b4f8cffa9041aab4fb6e6cfbc157fe.16" : {
         "lat" : 41.075392,
         "name" : "unknown",
         "guid" : "13b4f8cffa9041aab4fb6e6cfbc157fe.16",
         "lng" : 1.054006
      },
      "b2f92784939a4a82901c4561ceb42b08.16" : {
         "name" : "Paso Exclusivo para el Puente",
         "lat" : 41.146652,
         "guid" : "b2f92784939a4a82901c4561ceb42b08.16",
         "lng" : 1.240202
      },
      "7b2f56a864b64001be132b551534ed23.16" : {
         "guid" : "7b2f56a864b64001be132b551534ed23.16",
         "lat" : 41.075651,
         "name" : "Casa Bonet",
         "lng" : 1.132612
      },
      "ebdfb1985b35450f8201157db7233aa0.16" : {
         "lng" : 1.121716,
         "guid" : "ebdfb1985b35450f8201157db7233aa0.16",
         "name" : "Local Monument",
         "lat" : 41.16947
      },
      "df38bc1ac4ed48a7835f500e58337b08.16" : {
         "name" : "Església de Santa Caterina",
         "lat" : 41.113753,
         "guid" : "df38bc1ac4ed48a7835f500e58337b08.16",
         "lng" : 1.039374
      },
      "4adb16992fb744f8b0ff81148a26c084.16" : {
         "lng" : 1.102785,
         "guid" : "4adb16992fb744f8b0ff81148a26c084.16",
         "name" : "Plaça Antoni Pedrol Rius",
         "lat" : 41.15084
      },
      "c8e196d7e34d44a4b978373174a08048.16" : {
         "guid" : "c8e196d7e34d44a4b978373174a08048.16",
         "lat" : 41.073972,
         "name" : "unknown",
         "lng" : 1.117432
      },
      "cca5cc9e248444fb86e2141aa14e08d4.16" : {
         "lat" : 41.089838,
         "name" : "Hurakan Condor",
         "guid" : "cca5cc9e248444fb86e2141aa14e08d4.16",
         "lng" : 1.159103
      },
      "52a1c2c0bf0648a78139ed0d23148e54.16" : {
         "lng" : 1.153354,
         "guid" : "52a1c2c0bf0648a78139ed0d23148e54.16",
         "name" : "Masia Catalana",
         "lat" : 41.070392
      },
      "ba5fdc2e7eaa4cd490a1d01842b399f1.16" : {
         "name" : "Pedra-Seca a la Platja",
         "lat" : 41.066088,
         "guid" : "ba5fdc2e7eaa4cd490a1d01842b399f1.16",
         "lng" : 1.179433
      },
      "8b88a57f43c044acba7b58f7ce2db37b.16" : {
         "lng" : 1.305485,
         "lat" : 41.129298,
         "name" : "Restaurant Mirall D'Estiu",
         "guid" : "8b88a57f43c044acba7b58f7ce2db37b.16"
      },
      "b1b52ddd8fda4e7cb7269aaa2ac8fb6f.16" : {
         "lng" : 1.178896,
         "name" : "Ajuntament de la Canonja",
         "lat" : 41.122853,
         "guid" : "b1b52ddd8fda4e7cb7269aaa2ac8fb6f.16"
      },
      "961e97c234cb4096a55ab99a87e616cb.16" : {
         "lng" : 1.144309,
         "guid" : "961e97c234cb4096a55ab99a87e616cb.16",
         "lat" : 41.110521,
         "name" : "Escut de Vila-seca"
      },
      "28ed117f8c9a494092eab20403d58661.16" : {
         "lng" : 0.920008,
         "guid" : "28ed117f8c9a494092eab20403d58661.16",
         "name" : "unknown",
         "lat" : 40.994576
      },
      "e40cbe0e142b44b29f3b3fdcef36c0e9.16" : {
         "guid" : "e40cbe0e142b44b29f3b3fdcef36c0e9.16",
         "name" : "unknown",
         "lat" : 41.175289,
         "lng" : 1.102978
      },
      "a4f48ffb1e6246d2905cc79e200a15d4.16" : {
         "lng" : 1.050602,
         "guid" : "a4f48ffb1e6246d2905cc79e200a15d4.16",
         "lat" : 41.075702,
         "name" : "Estela Falç"
      },
      "e11e85c4611143a7aa0f182eccc90b56.16" : {
         "guid" : "e11e85c4611143a7aa0f182eccc90b56.16",
         "lat" : 41.134769,
         "name" : "Palm Park Map Beach",
         "lng" : 1.382747
      },
      "4020194e9f6b422fb025b0fe8a9fe219.16" : {
         "lng" : 1.150942,
         "guid" : "4020194e9f6b422fb025b0fe8a9fe219.16",
         "name" : "unknown",
         "lat" : 41.10767
      },
      "7c9eb57d274746279d8c0d395bb4bc70.16" : {
         "lat" : 41.152889,
         "name" : "Leon de San Ramon",
         "guid" : "7c9eb57d274746279d8c0d395bb4bc70.16",
         "lng" : 1.241845
      },
      "c3c9620b4eff437e9f733ace1aa1e51f.16" : {
         "lat" : 41.139717,
         "name" : "Monument a la Sardana",
         "guid" : "c3c9620b4eff437e9f733ace1aa1e51f.16",
         "lng" : 1.253203
      },
      "61d99c36a9524e7e8f474a157027090b.16" : {
         "lng" : 1.117026,
         "guid" : "61d99c36a9524e7e8f474a157027090b.16",
         "lat" : 41.13933,
         "name" : "Grafitty pilo de ferro "
      },
      "ae43555fa79b4bd59d7640713b959a8e.16" : {
         "lng" : 1.242637,
         "guid" : "ae43555fa79b4bd59d7640713b959a8e.16",
         "name" : "Mentitus Scriptum",
         "lat" : 41.110081
      },
      "06d1b1ec8f5c44989bbf695c689d910b.16" : {
         "lat" : 41.166098,
         "name" : "Escut Reus Deportiu",
         "guid" : "06d1b1ec8f5c44989bbf695c689d910b.16",
         "lng" : 1.110609
      },
      "611bcacc66904592a57aa40d649a57e5.16" : {
         "lng" : 1.273258,
         "lat" : 41.169307,
         "name" : "Els Pallaresos a Casanova",
         "guid" : "611bcacc66904592a57aa40d649a57e5.16"
      },
      "5a3868e1e4694db8960f7bf3fb08e9b0.16" : {
         "lng" : 1.146145,
         "guid" : "5a3868e1e4694db8960f7bf3fb08e9b0.16",
         "name" : "Woody at Entrance",
         "lat" : 41.086849
      },
      "75d0547993fe441ba2286681ef467a32.16" : {
         "name" : "Rambla de Campclar",
         "lat" : 41.124241,
         "guid" : "75d0547993fe441ba2286681ef467a32.16",
         "lng" : 1.211274
      },
      "91468b3d568045f9b9316b1a52a26aa5.16" : {
         "lng" : 1.092215,
         "name" : "Ninfa Dels Nanufars",
         "lat" : 41.151942,
         "guid" : "91468b3d568045f9b9316b1a52a26aa5.16"
      },
      "e3a2b39c1292499d96d8d8e5be897f5e.16" : {
         "lat" : 41.192809,
         "name" : "unknown",
         "guid" : "e3a2b39c1292499d96d8d8e5be897f5e.16",
         "lng" : 1.200602
      },
      "fe854a34d9ce4ebd81a5a0933a14e762.16" : {
         "lat" : 41.171945,
         "name" : "Font de la Plaça Major",
         "guid" : "fe854a34d9ce4ebd81a5a0933a14e762.16",
         "lng" : 1.020013
      },
      "70f7152eb2284d0b8526382cba2c996e.16" : {
         "guid" : "70f7152eb2284d0b8526382cba2c996e.16",
         "name" : "El Pozo ",
         "lat" : 41.005557,
         "lng" : 0.934842
      },
      "ec6136e393244e63a4d207056ab903b1.16" : {
         "lng" : 1.208476,
         "guid" : "ec6136e393244e63a4d207056ab903b1.16",
         "lat" : 41.192086,
         "name" : "Ajuntament del Morell"
      },
      "988be39cf6b94bacb02fa2a67617ba9f.16" : {
         "name" : "Área De Juegos 2.0",
         "lat" : 41.089269,
         "guid" : "988be39cf6b94bacb02fa2a67617ba9f.16",
         "lng" : 0.951847
      },
      "bf2babd3131348298fa6d7247858bad8.16" : {
         "lat" : 41.145911,
         "name" : "Esglesia Santa Maria",
         "guid" : "bf2babd3131348298fa6d7247858bad8.16",
         "lng" : 0.930804
      },
      "0f748e191ed8426ba0f1193b92e95c51.16" : {
         "guid" : "0f748e191ed8426ba0f1193b92e95c51.16",
         "lat" : 41.145202,
         "name" : "Fuente de Aragon",
         "lng" : 1.410132
      },
      "afdad2e10de7403d9a09ad611bc61e6f.16" : {
         "guid" : "afdad2e10de7403d9a09ad611bc61e6f.16",
         "name" : "Casa Del Mar",
         "lat" : 41.113976,
         "lng" : 1.241688
      },
      "3384c58c1be44f9c97d82ef0d1f1987e.16" : {
         "name" : "El Balcó de les Mares",
         "lat" : 41.144618,
         "guid" : "3384c58c1be44f9c97d82ef0d1f1987e.16",
         "lng" : 1.270997
      },
      "6427034d6fbc4d9dbd7a05e07324c323.16" : {
         "lng" : 1.0937,
         "guid" : "6427034d6fbc4d9dbd7a05e07324c323.16",
         "name" : "unknown",
         "lat" : 41.082503
      },
      "4a50ffe436ba43b6927f93678475b6b7.16" : {
         "lng" : 1.244404,
         "name" : "Funk Graffiti ",
         "lat" : 41.127435,
         "guid" : "4a50ffe436ba43b6927f93678475b6b7.16"
      },
      "9641e313d3ea44f597ce8354fa9921a4.16" : {
         "guid" : "9641e313d3ea44f597ce8354fa9921a4.16",
         "name" : "unknown",
         "lat" : 41.071214,
         "lng" : 1.099651
      },
      "d2211023004d4109ac7d53dd91389374.16" : {
         "lat" : 41.062454,
         "name" : "unknown",
         "guid" : "d2211023004d4109ac7d53dd91389374.16",
         "lng" : 1.031102
      },
      "b9423586638e4463bd7b9b387c5bb6dc.16" : {
         "guid" : "b9423586638e4463bd7b9b387c5bb6dc.16",
         "name" : "Monument Als Nois De La Torre",
         "lat" : 41.144644,
         "lng" : 1.39679
      },
      "6261979439ae4e4d909af8b1b00e2ff4.16" : {
         "name" : "Engranaje De Formigo",
         "lat" : 41.141613,
         "guid" : "6261979439ae4e4d909af8b1b00e2ff4.16",
         "lng" : 1.346743
      },
      "62771cb1767c408ba9591211d652129f.16" : {
         "lng" : 1.025741,
         "lat" : 41.054345,
         "name" : "unknown",
         "guid" : "62771cb1767c408ba9591211d652129f.16"
      },
      "def1e8477fb64874aed9c4ab766e5113.16" : {
         "lng" : 1.405742,
         "lat" : 41.142772,
         "name" : "unknown",
         "guid" : "def1e8477fb64874aed9c4ab766e5113.16"
      },
      "f9082c97ea1d428cbe7d7ffcb933f6ec.16" : {
         "name" : "Mobile Sculpture",
         "lat" : 41.141402,
         "guid" : "f9082c97ea1d428cbe7d7ffcb933f6ec.16",
         "lng" : 1.130494
      },
      "84c08e0161ad4b5a8c0bffbc98100b30.16" : {
         "lat" : 41.064546,
         "name" : "unknown",
         "guid" : "84c08e0161ad4b5a8c0bffbc98100b30.16",
         "lng" : 1.058686
      },
      "157076459b1f417ca148ae4a2ac3c0be.16" : {
         "lng" : 1.159981,
         "name" : "Gran Teatre Imperial",
         "lat" : 41.088951,
         "guid" : "157076459b1f417ca148ae4a2ac3c0be.16"
      },
      "b73f4cf03e07422f85919af9a3882693.16" : {
         "lng" : 1.280937,
         "guid" : "b73f4cf03e07422f85919af9a3882693.16",
         "name" : "unknown",
         "lat" : 41.173801
      },
      "f073b30a8e474b5e8f8f37333fe072d5.16" : {
         "lng" : 1.098504,
         "lat" : 41.086135,
         "name" : "unknown",
         "guid" : "f073b30a8e474b5e8f8f37333fe072d5.16"
      },
      "ab50005a2e704655a30eff30cb8652a7.16" : {
         "name" : "unknown",
         "lat" : 41.174035,
         "guid" : "ab50005a2e704655a30eff30cb8652a7.16",
         "lng" : 1.272521
      },
      "eb86714b599b45c397eafc8ad024793d.16" : {
         "guid" : "eb86714b599b45c397eafc8ad024793d.16",
         "name" : "unknown",
         "lat" : 41.170751,
         "lng" : 1.020994
      },
      "849450ee094b4d8abfe325dff69ebc69.16" : {
         "lng" : 1.404348,
         "guid" : "849450ee094b4d8abfe325dff69ebc69.16",
         "name" : "unknown",
         "lat" : 41.170522
      },
      "558e025ddde44bd98970f8e8f5005c71.16" : {
         "lng" : 1.433719,
         "lat" : 41.160588,
         "name" : "unknown",
         "guid" : "558e025ddde44bd98970f8e8f5005c71.16"
      },
      "a05d687742644abfaeb3bd6633d1aedf.16" : {
         "lng" : 1.376841,
         "lat" : 41.141131,
         "name" : "unknown",
         "guid" : "a05d687742644abfaeb3bd6633d1aedf.16"
      },
      "7ec819bad4454b989a83ee6cc4324102.16" : {
         "name" : "unknown",
         "lat" : 41.073785,
         "guid" : "7ec819bad4454b989a83ee6cc4324102.16",
         "lng" : 1.173972
      },
      "bf221c4a67e948d4b90608262cb780b8.16" : {
         "lng" : 0.864351,
         "guid" : "bf221c4a67e948d4b90608262cb780b8.16",
         "lat" : 41.124424,
         "name" : "unknown"
      },
      "0ee74a1ebc244a7199a936fe8a76794e.16" : {
         "lng" : 1.25864,
         "guid" : "0ee74a1ebc244a7199a936fe8a76794e.16",
         "lat" : 41.117984,
         "name" : "Calendar Tree"
      },
      "7b277c3b823b4705abb77668a3c3d383.16" : {
         "guid" : "7b277c3b823b4705abb77668a3c3d383.16",
         "lat" : 41.144576,
         "name" : "unknown",
         "lng" : 1.402684
      },
      "39182b86f37d4e6b87e846d5a6c5fa2f.16" : {
         "lat" : 41.144007,
         "name" : "Biblioteca Municipal Pere Anguera",
         "guid" : "39182b86f37d4e6b87e846d5a6c5fa2f.16",
         "lng" : 1.117533
      },
      "2374dba5eafd4945a43e7a873ae4884b.16" : {
         "lat" : 41.116441,
         "name" : "Pilarica Font Virgin",
         "guid" : "2374dba5eafd4945a43e7a873ae4884b.16",
         "lng" : 1.213094
      },
      "b9500c65f7104b7a96055d671353a3be.16" : {
         "lng" : 1.255306,
         "lat" : 41.114502,
         "name" : "Casa Maria Salas",
         "guid" : "b9500c65f7104b7a96055d671353a3be.16"
      },
      "d36a5ba6d5774ac08a909fa36a26b931.16" : {
         "guid" : "d36a5ba6d5774ac08a909fa36a26b931.16",
         "name" : "Colonia Ivlia Vrbs Tàrraco",
         "lat" : 41.119205,
         "lng" : 1.255489
      },
      "9d618041c6394f8cbb16ed2faf6b09fe.16" : {
         "lng" : 1.095918,
         "name" : "Grafiti Atur i Amor",
         "lat" : 41.149851,
         "guid" : "9d618041c6394f8cbb16ed2faf6b09fe.16"
      },
      "ff196567d71f47c59b0f47961bcbdc30.16" : {
         "lng" : 1.153171,
         "name" : "Port Aventura Fountain",
         "lat" : 41.086427,
         "guid" : "ff196567d71f47c59b0f47961bcbdc30.16"
      },
      "c59685cafe614c67a47116267ee9bd56.16" : {
         "lng" : 1.122989,
         "guid" : "c59685cafe614c67a47116267ee9bd56.16",
         "lat" : 41.166949,
         "name" : "Reus Graveyard"
      },
      "14acee3d719f491a9834bea2ddb42c78.16" : {
         "guid" : "14acee3d719f491a9834bea2ddb42c78.16",
         "lat" : 40.989033,
         "name" : "Club Nàutic Hospitalet - Vandellòs",
         "lng" : 0.926774
      },
      "ecc3303269324cd2ba700cbf9d261e91.16" : {
         "guid" : "ecc3303269324cd2ba700cbf9d261e91.16",
         "name" : "Big Face Small Face",
         "lat" : 41.134436,
         "lng" : 1.374256
      },
      "fc54f22b0d5341d190169fabf18e6885.16" : {
         "lng" : 1.113192,
         "guid" : "fc54f22b0d5341d190169fabf18e6885.16",
         "name" : "Plaa de Joan Ferrat i Soler",
         "lat" : 41.137077
      },
      "6d385758ea404288a0ad721da46e110e.16" : {
         "lng" : 1.03133,
         "name" : "Ondas Pétreas",
         "lat" : 41.057471,
         "guid" : "6d385758ea404288a0ad721da46e110e.16"
      },
      "ce6eb864a7f64892befd4f505bc8d1d1.16" : {
         "guid" : "ce6eb864a7f64892befd4f505bc8d1d1.16",
         "name" : "Vermuts Rofes",
         "lat" : 41.157749,
         "lng" : 1.107343
      },
      "0c7df9479381407f805186018755cec6.16" : {
         "guid" : "0c7df9479381407f805186018755cec6.16",
         "name" : "Biblioteca Central Xavier Amorós",
         "lat" : 41.154038,
         "lng" : 1.100173
      },
      "629cbe3587f743e2ad2f7b969191b3a2.16" : {
         "lng" : 1.0208,
         "guid" : "629cbe3587f743e2ad2f7b969191b3a2.16",
         "name" : "unknown",
         "lat" : 41.107405
      },
      "0972f80a9c5f4acc934bf76e1d18dc3e.16" : {
         "lng" : 1.057113,
         "guid" : "0972f80a9c5f4acc934bf76e1d18dc3e.16",
         "name" : "Fountain Square",
         "lat" : 41.067108
      },
      "52207e7f375d4ff2b88560a38622645c.16" : {
         "lng" : 1.092306,
         "guid" : "52207e7f375d4ff2b88560a38622645c.16",
         "name" : "Basketball court",
         "lat" : 41.077049
      },
      "aae96af26b6e48f684e3a7b404bce158.16" : {
         "lat" : 41.119871,
         "name" : "Església de Sant Pau",
         "guid" : "aae96af26b6e48f684e3a7b404bce158.16",
         "lng" : 1.243009
      },
      "e49bd09d92214ae4b681d9fe827d5a81.11" : {
         "name" : "unknown",
         "lat" : 41.138897,
         "guid" : "e49bd09d92214ae4b681d9fe827d5a81.11",
         "lng" : 1.055491
      },
      "b39527372f7b4e77909092e686cd1841.16" : {
         "lng" : 0.960243,
         "guid" : "b39527372f7b4e77909092e686cd1841.16",
         "name" : "unknown",
         "lat" : 41.08412
      },
      "0b3aab45177549639a08bc917bb40aa6.16" : {
         "lng" : 1.216413,
         "guid" : "0b3aab45177549639a08bc917bb40aa6.16",
         "lat" : 41.151444,
         "name" : "Monument Onze de Setembre"
      },
      "6cca4f17e3e5496abba134238b2778a6.16" : {
         "name" : "Coloured Wall",
         "lat" : 41.077328,
         "guid" : "6cca4f17e3e5496abba134238b2778a6.16",
         "lng" : 1.130118
      },
      "bf4df84136e54c08b6694c2c9b534460.16" : {
         "lat" : 41.152466,
         "name" : "unknown",
         "guid" : "bf4df84136e54c08b6694c2c9b534460.16",
         "lng" : 1.392741
      },
      "26688aea3c5f49d091f0980f8bb0d468.16" : {
         "name" : "Cat Sculpture",
         "lat" : 41.122629,
         "guid" : "26688aea3c5f49d091f0980f8bb0d468.16",
         "lng" : 1.210554
      },
      "f372013f6a62472bb450f61c921bfd1f.16" : {
         "name" : "unknown",
         "lat" : 41.175427,
         "guid" : "f372013f6a62472bb450f61c921bfd1f.16",
         "lng" : 1.323537
      },
      "2422c0a8922a4b97922619ffe1bc46a8.16" : {
         "lng" : 1.056681,
         "name" : "unknown",
         "lat" : 41.067121,
         "guid" : "2422c0a8922a4b97922619ffe1bc46a8.16"
      },
      "9190ca23d215400a916f50de66b5307a.16" : {
         "guid" : "9190ca23d215400a916f50de66b5307a.16",
         "lat" : 41.076216,
         "name" : "Parc Pinaret",
         "lng" : 1.049658
      },
      "c5be64ae0fa14cd9827f820382a1825b.16" : {
         "lng" : 1.176742,
         "guid" : "c5be64ae0fa14cd9827f820382a1825b.16",
         "name" : "unknown",
         "lat" : 41.075858
      },
      "6101b643b10547d6b55d5a34277a2e1c.16" : {
         "guid" : "6101b643b10547d6b55d5a34277a2e1c.16",
         "name" : "Gran mirador de la Pineda",
         "lat" : 41.077761,
         "lng" : 1.183384
      },
      "c6eee11fad2c4b5e9b8de65fa1334a21.16" : {
         "name" : "Font Antiga BonaVista",
         "lat" : 41.121359,
         "guid" : "c6eee11fad2c4b5e9b8de65fa1334a21.16",
         "lng" : 1.193597
      },
      "399193a5b31f4f3bb2d3e514a1d3f3c7.16" : {
         "lng" : 1.346433,
         "name" : "unknown",
         "lat" : 41.129087,
         "guid" : "399193a5b31f4f3bb2d3e514a1d3f3c7.16"
      },
      "6c7c34fe653241099e55192b9b940718.16" : {
         "lat" : 41.135383,
         "name" : "Ermita Llorito",
         "guid" : "6c7c34fe653241099e55192b9b940718.16",
         "lng" : 1.271852
      },
      "07b03e48485846d8ab6a4af5b6ebb8ce.16" : {
         "name" : "unknown",
         "lat" : 41.138085,
         "guid" : "07b03e48485846d8ab6a4af5b6ebb8ce.16",
         "lng" : 0.989654
      },
      "e49aca3c6919432eb375420bae0ea361.16" : {
         "name" : "Font de Zeus",
         "lat" : 41.193897,
         "guid" : "e49aca3c6919432eb375420bae0ea361.16",
         "lng" : 1.239936
      },
      "c9e2198f7f5c4e2eb3232ffad5b10a72.16" : {
         "lng" : 1.270612,
         "guid" : "c9e2198f7f5c4e2eb3232ffad5b10a72.16",
         "name" : "unknown",
         "lat" : 41.166107
      },
      "29b766d43c6b42a4adb81ea30d0ce8c6.16" : {
         "name" : "Universitat Rovira I Virgili",
         "lat" : 41.122408,
         "guid" : "29b766d43c6b42a4adb81ea30d0ce8c6.16",
         "lng" : 1.249568
      },
      "1a1d4a56cd5548659f633fdf8fb0b3db.16" : {
         "guid" : "1a1d4a56cd5548659f633fdf8fb0b3db.16",
         "name" : "Estatua Del Fraile",
         "lat" : 41.14245,
         "lng" : 1.375963
      },
      "251d589588fd4eed9dfa4b2ca701575d.16" : {
         "lng" : 1.27628,
         "guid" : "251d589588fd4eed9dfa4b2ca701575d.16",
         "name" : "Balcó de Tarragona",
         "lat" : 41.145161
      },
      "5335ae414c134b7c8cc384f9feca6221.16" : {
         "lat" : 41.141214,
         "name" : "Senyal Geodesic",
         "guid" : "5335ae414c134b7c8cc384f9feca6221.16",
         "lng" : 1.396094
      },
      "71e8e3afd61247028659511b5985b027.16" : {
         "lng" : 1.021937,
         "guid" : "71e8e3afd61247028659511b5985b027.16",
         "name" : "Jarrón de los Dragones",
         "lat" : 41.104034
      },
      "027cc35d3ef241ddbfba825075e662bb.16" : {
         "lat" : 41.161975,
         "name" : "Pista De Futbol",
         "guid" : "027cc35d3ef241ddbfba825075e662bb.16",
         "lng" : 1.09191
      },
      "e03ec6e21dd74a2f981b1a3c345bd935.16" : {
         "lng" : 1.132134,
         "lat" : 41.073871,
         "name" : "Nautilus",
         "guid" : "e03ec6e21dd74a2f981b1a3c345bd935.16"
      },
      "72a95143e3f240178048f6d941d7593b.16" : {
         "lat" : 41.12137,
         "name" : "A Félix Rodríguez de la Fuente",
         "guid" : "72a95143e3f240178048f6d941d7593b.16",
         "lng" : 1.214336
      },
      "7e646f75808d44f5a07f6786825aed25.16" : {
         "lng" : 0.929015,
         "lat" : 41.039544,
         "name" : "unknown",
         "guid" : "7e646f75808d44f5a07f6786825aed25.16"
      },
      "c591a08145774d078a3ccc0f13ecfaeb.11" : {
         "lng" : 1.100016,
         "lat" : 41.160358,
         "name" : "Estacion de Tren de Reus",
         "guid" : "c591a08145774d078a3ccc0f13ecfaeb.11"
      },
      "49b285b6189e45b3b9df84dcb37022de.16" : {
         "name" : "Parc Subaquàtic",
         "lat" : 41.089894,
         "guid" : "49b285b6189e45b3b9df84dcb37022de.16",
         "lng" : 1.22806
      },
      "af7a48e778e74bb8b409b339375cc888.16" : {
         "guid" : "af7a48e778e74bb8b409b339375cc888.16",
         "name" : "Grafitti Final Xplosion",
         "lat" : 41.152463,
         "lng" : 1.093782
      },
      "16b99452e4814a9abba4fdd946c528ab.16" : {
         "name" : "Aquum Entrance",
         "lat" : 41.070188,
         "guid" : "16b99452e4814a9abba4fdd946c528ab.16",
         "lng" : 1.176222
      },
      "62d33df9a6fd456b9ca26972a2ba142c.16" : {
         "guid" : "62d33df9a6fd456b9ca26972a2ba142c.16",
         "lat" : 41.150807,
         "name" : "unknown",
         "lng" : 1.395199
      },
      "ff21ec0538544e6c82645404f051f8f2.16" : {
         "lng" : 1.038228,
         "lat" : 41.113228,
         "name" : "unknown",
         "guid" : "ff21ec0538544e6c82645404f051f8f2.16"
      },
      "2a16dc5f5c6c4cdfa3bf909b9b55c9cc.16" : {
         "lat" : 41.156894,
         "name" : "Vaca Meditando",
         "guid" : "2a16dc5f5c6c4cdfa3bf909b9b55c9cc.16",
         "lng" : 1.136691
      },
      "7759546d4ca641ae9ba6b5b184f9574c.16" : {
         "lng" : 1.373535,
         "guid" : "7759546d4ca641ae9ba6b5b184f9574c.16",
         "name" : "Biblioteca Altafulla",
         "lat" : 41.141389
      },
      "c1094399749740328cfc800e8c73cbad.11" : {
         "lng" : 1.051156,
         "guid" : "c1094399749740328cfc800e8c73cbad.11",
         "lat" : 41.139038,
         "name" : "Esglesia de Riudoms"
      },
      "380461562fee4c448e0dc6417eedabf0.16" : {
         "guid" : "380461562fee4c448e0dc6417eedabf0.16",
         "lat" : 40.990807,
         "name" : "Vaixell Encallat",
         "lng" : 0.929611
      },
      "7ec8c4810bc04023afba71d00c9cd979.16" : {
         "guid" : "7ec8c4810bc04023afba71d00c9cd979.16",
         "name" : "unknown",
         "lat" : 41.16065,
         "lng" : 1.095674
      },