{
    "gyms": {
        "0023f4c0206c45d3a69a0ad3e6ee0d52.16": {
            "guid": "0023f4c0206c45d3a69a0ad3e6ee0d52.16",
            "lat": 41.110319,
            "lng": 1.25002,
            "name": "Monument a Mercuri"
        },
        "00ecc4670a2a46bcb965192bcda11649.16": {
            "guid": "00ecc4670a2a46bcb965192bcda11649.16",
            "lat": 41.162432,
            "lng": 1.093293,
            "name": "Cigne I Gorgona"
        },
        "00fa51c51c9b40bd913469ac8ad0369d.16": {
            "guid": "00fa51c51c9b40bd913469ac8ad0369d.16",
            "lat": 41.155862,
            "lng": 1.111915,
            "name": "Font de la Pla\u00e7a de la Sang"
        },
        "00ffd236a0a0430b8d2e92f3cc56a34a.16": {
            "guid": "00ffd236a0a0430b8d2e92f3cc56a34a.16",
            "lat": 41.15745,
            "lng": 1.118132,
            "name": "Font de la Pla\u00e7a dels Ganxets"
        },
        "0129480999264049854469243ef20f65.16": {
            "guid": "0129480999264049854469243ef20f65.16",
            "lat": 41.155283,
            "lng": 1.078196,
            "name": "Campo de saltos"
        },
        "01a7519b7d1f44feafba94abb96ddeb6.16": {
            "guid": "01a7519b7d1f44feafba94abb96ddeb6.16",
            "lat": 41.163226,
            "lng": 1.112514,
            "name": "Mas Sabater"
        },
        "0218bca6be494a1fb6c931bcbbd73aa9.16": {
            "guid": "0218bca6be494a1fb6c931bcbbd73aa9.16",
            "lat": 41.114235,
            "lng": 1.267027,
            "name": "Abanico"
        },
        "027cc35d3ef241ddbfba825075e662bb.16": {
            "guid": "027cc35d3ef241ddbfba825075e662bb.16",
            "lat": 41.161975,
            "lng": 1.09191,
            "name": "Pista De Futbol"
        },
        "0438ad97c0b14c59bcc1a58f09775a57.16": {
            "guid": "0438ad97c0b14c59bcc1a58f09775a57.16",
            "lat": 41.131174,
            "lng": 1.200511,
            "name": "La Tagliatella Gavarres"
        },
        "0473bc11a87c4aaf967389720a182db8.16": {
            "guid": "0473bc11a87c4aaf967389720a182db8.16",
            "lat": 41.144175,
            "lng": 1.107847,
            "name": "Grafitty taller"
        },
        "050f9eaa655f441aa0852d800f65f789.16": {
            "guid": "050f9eaa655f441aa0852d800f65f789.16",
            "lat": 41.120717,
            "lng": 1.266783,
            "name": "Mol\u00ed de Llevant"
        },
        "06d1b1ec8f5c44989bbf695c689d910b.16": {
            "guid": "06d1b1ec8f5c44989bbf695c689d910b.16",
            "lat": 41.166098,
            "lng": 1.110609,
            "name": "Escut Reus Deportiu"
        },
        "07784a89e63f440a80671496d48740c5.11": {
            "guid": "07784a89e63f440a80671496d48740c5.11",
            "lat": 41.144349,
            "lng": 1.123296,
            "name": "Neob-Reus"
        },
        "07b5c253960e425c8254c4fddfc9a809.16": {
            "guid": "07b5c253960e425c8254c4fddfc9a809.16",
            "lat": 41.113915,
            "lng": 1.224166,
            "name": "Almac\u00e9n De Libros"
        },
        "08604f84d98a463697f420396dae5186.16": {
            "guid": "08604f84d98a463697f420396dae5186.16",
            "lat": 41.129822,
            "lng": 1.128874,
            "name": "Playground Tobogan"
        },
        "0a084e983b7b4aefa92192aea31b2e9a.16": {
            "guid": "0a084e983b7b4aefa92192aea31b2e9a.16",
            "lat": 41.147351,
            "lng": 1.119854,
            "name": "Verge del Calvari"
        },
        "0b3d7937e76e4ed7b5c4c957ebad7944.16": {
            "guid": "0b3d7937e76e4ed7b5c4c957ebad7944.16",
            "lat": 41.12537,
            "lng": 1.217266,
            "name": "Parc L'Albada"
        },
        "0b89adc74cae419d9a42dc9cbe20f6c9.16": {
            "guid": "0b89adc74cae419d9a42dc9cbe20f6c9.16",
            "lat": 41.11748,
            "lng": 1.184617,
            "name": "Font del Parc de l'Escultor Martorell"
        },
        "0bb532ecc0f945ffbdd93b4433468237.16": {
            "guid": "0bb532ecc0f945ffbdd93b4433468237.16",
            "lat": 41.148589,
            "lng": 1.093446,
            "name": "Parr\u00f2quia Immaculada"
        },
        "0c7df9479381407f805186018755cec6.16": {
            "guid": "0c7df9479381407f805186018755cec6.16",
            "lat": 41.154038,
            "lng": 1.100173,
            "name": "Biblioteca Central Xavier Amor\u00f3s"
        },
        "0caecbec9a3d4458acdaa3b5729f5f2a.16": {
            "guid": "0caecbec9a3d4458acdaa3b5729f5f2a.16",
            "lat": 41.164592,
            "lng": 1.102457,
            "name": "Estatua Nens Jugant a la pla\u00e7a Mineta"
        },
        "0d3135e01eca49f0ac9cca4e50cbfeaa.16": {
            "guid": "0d3135e01eca49f0ac9cca4e50cbfeaa.16",
            "lat": 41.147634,
            "lng": 1.079851,
            "name": "Dip\u00f2sit d\u2019Aigua \u00c0ntic"
        },
        "0ec2ef39c7214ea4a7c86f84576cb33b.11": {
            "guid": "0ec2ef39c7214ea4a7c86f84576cb33b.11",
            "lat": 41.154802,
            "lng": 1.108606,
            "name": "Casa Nav\u00e0s"
        },
        "0ee74a1ebc244a7199a936fe8a76794e.16": {
            "guid": "0ee74a1ebc244a7199a936fe8a76794e.16",
            "lat": 41.117984,
            "lng": 1.25864,
            "name": "Calendar Tree"
        },
        "0f28b54e16d24a6e87a37fa8228afbae.11": {
            "guid": "0f28b54e16d24a6e87a37fa8228afbae.11",
            "lat": 41.145789,
            "lng": 1.099431,
            "name": "Pare Manyanet"
        },
        "0f67692c7dfc43f9a17b93b26186f756.16": {
            "guid": "0f67692c7dfc43f9a17b93b26186f756.16",
            "lat": 41.120884,
            "lng": 1.241028,
            "name": "Mural Cer\u00e0mic - Edificio Zeus"
        },
        "1106f79253cc4bdd8b319f256e36c423.16": {
            "guid": "1106f79253cc4bdd8b319f256e36c423.16",
            "lat": 41.143595,
            "lng": 1.099764,
            "name": "Esgl\u00e9sia de Miseric\u00f2rdia"
        },
        "125971d666f14104abb71053484250f6.11": {
            "guid": "125971d666f14104abb71053484250f6.11",
            "lat": 41.147905,
            "lng": 1.111417,
            "name": "Estaci\u00f3 Bus"
        },
        "143d2673fe9f4c60a76199817640ad2d.16": {
            "guid": "143d2673fe9f4c60a76199817640ad2d.16",
            "lat": 41.162859,
            "lng": 1.243579,
            "name": "Complex Esportiu de Sant Salvador"
        },
        "1496e4653eac40289dd1e7492527273f.16": {
            "guid": "1496e4653eac40289dd1e7492527273f.16",
            "lat": 41.156701,
            "lng": 1.118151,
            "name": "Spiderman Playground"
        },
        "1607a58e239547aa883fd8efd73671b1.16": {
            "guid": "1607a58e239547aa883fd8efd73671b1.16",
            "lat": 41.124185,
            "lng": 1.238657,
            "name": "Joan XXIII"
        },
        "16ddcd1460e94c2fb3293fdaeeebad27.16": {
            "guid": "16ddcd1460e94c2fb3293fdaeeebad27.16",
            "lat": 41.189003,
            "lng": 1.101772,
            "name": "indicador camino de Santiago"
        },
        "17d3b9c274494f59865f4080c7b7ba97.16": {
            "guid": "17d3b9c274494f59865f4080c7b7ba97.16",
            "lat": 41.123498,
            "lng": 1.178409,
            "name": "Autoretrat S.Martorell"
        },
        "17fa34a8779747289c5e33dda3585775.16": {
            "guid": "17fa34a8779747289c5e33dda3585775.16",
            "lat": 41.165744,
            "lng": 1.101907,
            "name": "Old Tower"
        },
        "1a0bdb06fd0f42e494b2c4aad6001ee7.16": {
            "guid": "1a0bdb06fd0f42e494b2c4aad6001ee7.16",
            "lat": 41.179807,
            "lng": 1.098701,
            "name": "Les Terres"
        },
        "1a8dbee1673b433a929e9e9525cc81cd.16": {
            "guid": "1a8dbee1673b433a929e9e9525cc81cd.16",
            "lat": 41.117288,
            "lng": 1.255704,
            "name": "Pla\u00e7a dels Sedassos"
        },
        "1aa3d0e4862e4484b2b385a736cb7173.16": {
            "guid": "1aa3d0e4862e4484b2b385a736cb7173.16",
            "lat": 41.120171,
            "lng": 1.189761,
            "name": "Fes Esport"
        },
        "1ac121d83b6a4ef49acf55d126cfd8a5.16": {
            "guid": "1ac121d83b6a4ef49acf55d126cfd8a5.16",
            "lat": 41.12591,
            "lng": 1.244932,
            "name": "Tarragona 2 Park"
        },
        "1c09d6e2537145ad93326fedec22a23e.16": {
            "guid": "1c09d6e2537145ad93326fedec22a23e.16",
            "lat": 41.129848,
            "lng": 1.200148,
            "name": "Monumento Homenatge Josep Maria Folch I Torres"
        },
        "1d5fa22a9be94d58b6c8b9e70b549cef.16": {
            "guid": "1d5fa22a9be94d58b6c8b9e70b549cef.16",
            "lat": 41.116721,
            "lng": 1.241972,
            "name": "Restes Del Parc"
        },
        "1dc2dd42b21a430d981dd625b2d97301.16": {
            "guid": "1dc2dd42b21a430d981dd625b2d97301.16",
            "lat": 41.161514,
            "lng": 1.079912,
            "name": "Monument a la Pagesia"
        },
        "201f844cdb0649bdb3cfc7bd3cc72441.16": {
            "guid": "201f844cdb0649bdb3cfc7bd3cc72441.16",
            "lat": 41.181318,
            "lng": 1.096999,
            "name": "Old Castle Fountain"
        },
        "2064d4a683e841aebe832ab4dc0b2731.16": {
            "guid": "2064d4a683e841aebe832ab4dc0b2731.16",
            "lat": 41.1442,
            "lng": 1.116374,
            "name": "Mini Playground"
        },
        "20a4521ebc6a483ca7451cff7029a5d1.16": {
            "guid": "20a4521ebc6a483ca7451cff7029a5d1.16",
            "lat": 41.138569,
            "lng": 1.253363,
            "name": "Parc Europa"
        },
        "20aeb362fae94bb2bb66b560af75627f.16": {
            "guid": "20aeb362fae94bb2bb66b560af75627f.16",
            "lat": 41.155465,
            "lng": 1.11145,
            "name": "Highbury Irish Pub"
        },
        "2140c3bbbb714d3bb2e8f4497d6cec3d.16": {
            "guid": "2140c3bbbb714d3bb2e8f4497d6cec3d.16",
            "lat": 41.12406,
            "lng": 1.238246,
            "name": "Los Frutos del Ayer"
        },
        "225229aa497444a386d2c0be3a246741.16": {
            "guid": "225229aa497444a386d2c0be3a246741.16",
            "lat": 41.124599,
            "lng": 1.180259,
            "name": "Parc D'infants"
        },
        "2374dba5eafd4945a43e7a873ae4884b.16": {
            "guid": "2374dba5eafd4945a43e7a873ae4884b.16",
            "lat": 41.116441,
            "lng": 1.213094,
            "name": "Pilarica Font Virgin"
        },
        "2422a8c6903e4339840f7a4483d0e1d0.16": {
            "guid": "2422a8c6903e4339840f7a4483d0e1d0.16",
            "lat": 41.162979,
            "lng": 1.117391,
            "name": "Gaudi Bust"
        },
        "2432e20a70584e2f84eaa59b0945ac0d.11": {
            "guid": "2432e20a70584e2f84eaa59b0945ac0d.11",
            "lat": 41.111389,
            "lng": 1.252862,
            "name": "Estaci\u00f3 de Trens Renfe de Tarragona"
        },
        "25197960da6b4eb2ac3925cb2932158c.16": {
            "guid": "25197960da6b4eb2ac3925cb2932158c.16",
            "lat": 41.151268,
            "lng": 1.100449,
            "name": "Aliga de Reus Graffiti"
        },
        "251d589588fd4eed9dfa4b2ca701575d.16": {
            "guid": "251d589588fd4eed9dfa4b2ca701575d.16",
            "lat": 41.145161,
            "lng": 1.27628,
            "name": "Balc\u00f3 de Tarragona"
        },
        "257478b382b24bf6898fc0ce1d8b69e4.16": {
            "guid": "257478b382b24bf6898fc0ce1d8b69e4.16",
            "lat": 41.1176,
            "lng": 1.214222,
            "name": "Espai L\u00fadic Los Naranjos"
        },
        "25fee3d840734f63b3d7d78274db4b49.16": {
            "guid": "25fee3d840734f63b3d7d78274db4b49.16",
            "lat": 41.119186,
            "lng": 1.25371,
            "name": "Drac Amagat"
        },
        "26688aea3c5f49d091f0980f8bb0d468.16": {
            "guid": "26688aea3c5f49d091f0980f8bb0d468.16",
            "lat": 41.122629,
            "lng": 1.210554,
            "name": "Cat Sculpture"
        },
        "2805c466244f4368a12877d5ad2daf7e.16": {
            "guid": "2805c466244f4368a12877d5ad2daf7e.16",
            "lat": 41.111101,
            "lng": 1.240909,
            "name": "Poliesportiu Del Serrallo"
        },
        "28070bb2b35645e0a6c4866bb8fc92bc.16": {
            "guid": "28070bb2b35645e0a6c4866bb8fc92bc.16",
            "lat": 41.156912,
            "lng": 1.112607,
            "name": "Casa Pujol"
        },
        "291bc06963314f908858b1ac9248d84e.16": {
            "guid": "291bc06963314f908858b1ac9248d84e.16",
            "lat": 41.136644,
            "lng": 1.09402,
            "name": "Area De Juegos"
        },
        "2948ac25cbf64315834aae8ae5fd6bc2.16": {
            "guid": "2948ac25cbf64315834aae8ae5fd6bc2.16",
            "lat": 41.111679,
            "lng": 1.24014,
            "name": "Trenecito"
        },
        "29b766d43c6b42a4adb81ea30d0ce8c6.16": {
            "guid": "29b766d43c6b42a4adb81ea30d0ce8c6.16",
            "lat": 41.122408,
            "lng": 1.249568,
            "name": "Campus Catalunya de la Universitat Rovira i Virgili"
        },
        "29f3ce6b5501461595f71acfe326f3f7.16": {
            "guid": "29f3ce6b5501461595f71acfe326f3f7.16",
            "lat": 41.160177,
            "lng": 1.085559,
            "name": "Parroquia De L'Assumpci\u00f3 "
        },
        "2a16dc5f5c6c4cdfa3bf909b9b55c9cc.16": {
            "guid": "2a16dc5f5c6c4cdfa3bf909b9b55c9cc.16",
            "lat": 41.156894,
            "lng": 1.136691,
            "name": "Vaca Meditando"
        },
        "2b1292c3b79c443d9d596c5a815016b3.16": {
            "guid": "2b1292c3b79c443d9d596c5a815016b3.16",
            "lat": 41.127537,
            "lng": 1.292011,
            "name": "Tarraco Tennis Club"
        },
        "2ca612ec1f2e464b8ea53035fae62e28.16": {
            "guid": "2ca612ec1f2e464b8ea53035fae62e28.16",
            "lat": 41.120872,
            "lng": 1.267189,
            "name": "Escultura Gaud\u00ed"
        },
        "2df0aeeb778f49e48bf2fa8f8531a9c5.16": {
            "guid": "2df0aeeb778f49e48bf2fa8f8531a9c5.16",
            "lat": 41.119148,
            "lng": 1.192509,
            "name": "Font"
        },
        "2f21df27a476412fbb224e24f0c07c34.16": {
            "guid": "2f21df27a476412fbb224e24f0c07c34.16",
            "lat": 41.156273,
            "lng": 1.24041,
            "name": "Parc Dels Prefabricats "
        },
        "304b2430ab024461825671b66063c00c.16": {
            "guid": "304b2430ab024461825671b66063c00c.16",
            "lat": 41.14613,
            "lng": 1.113246,
            "name": "Roserar Joaquima Gallis\u00e0 i Rueda"
        },
        "32c1caaee9c64e0ca283c0e17d80bc9b.16": {
            "guid": "32c1caaee9c64e0ca283c0e17d80bc9b.16",
            "lat": 41.14991,
            "lng": 1.099148,
            "name": "Font Del Centenari"
        },
        "336e336714b94726864ea612ee75074d.16": {
            "guid": "336e336714b94726864ea612ee75074d.16",
            "lat": 41.157684,
            "lng": 1.100624,
            "name": "Car Grafitti"
        },
        "3384c58c1be44f9c97d82ef0d1f1987e.16": {
            "guid": "3384c58c1be44f9c97d82ef0d1f1987e.16",
            "lat": 41.144618,
            "lng": 1.270997,
            "name": "El Balc\u00f3 de les Mares"
        },
        "339b12a0cf1f4285b9df1e408efebadd.16": {
            "guid": "339b12a0cf1f4285b9df1e408efebadd.16",
            "lat": 41.123964,
            "lng": 1.267531,
            "name": "Font De La Mosca"
        },
        "34681d8da93e463681226e4059b8b478.11": {
            "guid": "34681d8da93e463681226e4059b8b478.11",
            "lat": 41.114925,
            "lng": 1.25404,
            "name": "Escultura de l'Avi Virgili"
        },
        "3607b1f571aa462a836d982000dc97c5.16": {
            "guid": "3607b1f571aa462a836d982000dc97c5.16",
            "lat": 41.132315,
            "lng": 1.249553,
            "name": " Parc de la Muntanyeta"
        },
        "36f6a4a0bf08462c8b43c942d87d7dd5.16": {
            "guid": "36f6a4a0bf08462c8b43c942d87d7dd5.16",
            "lat": 41.118777,
            "lng": 1.19283,
            "name": "Deessa"
        },
        "376d3a7fada14a22bac5962a5e9dc4eb.16": {
            "guid": "376d3a7fada14a22bac5962a5e9dc4eb.16",
            "lat": 41.12225,
            "lng": 1.239528,
            "name": "Otto Club Zutz"
        },
        "37b3e5b3eb0341bf9cc7782c3d279590.16": {
            "guid": "37b3e5b3eb0341bf9cc7782c3d279590.16",
            "lat": 41.132358,
            "lng": 1.251883,
            "name": "Dip\u00f2sits d'Ematsa"
        },
        "37bd7a7b17b0421e90472fe92952f23b.16": {
            "guid": "37bd7a7b17b0421e90472fe92952f23b.16",
            "lat": 41.116402,
            "lng": 1.242171,
            "name": "Quinta de Sant Rafael"
        },
        "39182b86f37d4e6b87e846d5a6c5fa2f.16": {
            "guid": "39182b86f37d4e6b87e846d5a6c5fa2f.16",
            "lat": 41.144007,
            "lng": 1.117533,
            "name": "Biblioteca Municipal Pere Anguera"
        },
        "39aa1d4de10444b0ac5d2f733c29a961.16": {
            "guid": "39aa1d4de10444b0ac5d2f733c29a961.16",
            "lat": 41.117754,
            "lng": 1.237005,
            "name": "Litos"
        },
        "3b5d5fc1d01e46b39a618d5c8481b0c9.16": {
            "guid": "3b5d5fc1d01e46b39a618d5c8481b0c9.16",
            "lat": 41.153158,
            "lng": 1.108051,
            "name": "Portal Del Carme"
        },
        "3c2d988461184c26958b7cccaf73be66.11": {
            "guid": "3c2d988461184c26958b7cccaf73be66.11",
            "lat": 41.131827,
            "lng": 1.244901,
            "name": "Universitat Rovira i Virgili"
        },
        "3cfab58137714a8b9bfbf5882a8c0c22.16": {
            "guid": "3cfab58137714a8b9bfbf5882a8c0c22.16",
            "lat": 41.157049,
            "lng": 1.108239,
            "name": "El Gaud\u00ed Adolescent"
        },
        "3d9c7a2824d34c1cbd4a2e42c9e1a50a.16": {
            "guid": "3d9c7a2824d34c1cbd4a2e42c9e1a50a.16",
            "lat": 41.115334,
            "lng": 1.262291,
            "name": "Pilons pintats"
        },
        "3dd6e0c7d8b34114b82aac91b7f09075.16": {
            "guid": "3dd6e0c7d8b34114b82aac91b7f09075.16",
            "lat": 41.116451,
            "lng": 1.217115,
            "name": "Carpa Nou Centre"
        },
        "3ed5deb1cdba4e91891203b6d56e0adf.16": {
            "guid": "3ed5deb1cdba4e91891203b6d56e0adf.16",
            "lat": 41.158405,
            "lng": 1.088472,
            "name": "Area Infantil Celia Artiga"
        },
        "3f44e6778079487080b281ac40b030ef.16": {
            "guid": "3f44e6778079487080b281ac40b030ef.16",
            "lat": 41.116134,
            "lng": 1.253148,
            "name": "Font de les Flors"
        },
        "40e7c0ee86814a7d8b986babb3fedfab.16": {
            "guid": "40e7c0ee86814a7d8b986babb3fedfab.16",
            "lat": 41.168001,
            "lng": 1.114428,
            "name": "Old  Gym"
        },
        "41905b340e3d446d9982452a95a33f49.16": {
            "guid": "41905b340e3d446d9982452a95a33f49.16",
            "lat": 41.145567,
            "lng": 1.127539,
            "name": "Mini Graffiti"
        },
        "41c779948971469db41d44f60c35f706.16": {
            "guid": "41c779948971469db41d44f60c35f706.16",
            "lat": 41.147636,
            "lng": 1.293817,
            "name": "Indicador del Cam\u00ed de la Q\u00fcesti\u00f3"
        },
        "41d0a2108bd646109e10789f7d272dcd.16": {
            "guid": "41d0a2108bd646109e10789f7d272dcd.16",
            "lat": 41.124047,
            "lng": 1.219146,
            "name": "Parc Riuclar - Pla\u00e7a Elena Regidor"
        },
        "46f0110864d4459caa1d5228c5327625.16": {
            "guid": "46f0110864d4459caa1d5228c5327625.16",
            "lat": 41.126669,
            "lng": 1.253646,
            "name": "Old Graveyard Door"
        },
        "48d7ff2dad4640c498e58475648cc49f.16": {
            "guid": "48d7ff2dad4640c498e58475648cc49f.16",
            "lat": 41.118356,
            "lng": 1.26133,
            "name": "Magna Pugna Est in Urbe"
        },
        "48f8fb1dc38f4b16921406745bd25f4a.16": {
            "guid": "48f8fb1dc38f4b16921406745bd25f4a.16",
            "lat": 41.139767,
            "lng": 1.249526,
            "name": "Pavello Municipal de Sant Pere i Sant Pau"
        },
        "49098e3e61ff4ee6a75a1def54c443c5.16": {
            "guid": "49098e3e61ff4ee6a75a1def54c443c5.16",
            "lat": 41.143932,
            "lng": 1.100646,
            "name": "Sheep Playground"
        },
        "49506a4f5438437eaa74c8f46aed5bd1.16": {
            "guid": "49506a4f5438437eaa74c8f46aed5bd1.16",
            "lat": 41.118777,
            "lng": 1.257803,
            "name": "Catedral de Tarragona"
        },
        "49ed1f75d3674707b0648838f3605d6c.16": {
            "guid": "49ed1f75d3674707b0648838f3605d6c.16",
            "lat": 41.12274,
            "lng": 1.202744,
            "name": "El Bosc de Ribera"
        },
        "4a50ffe436ba43b6927f93678475b6b7.16": {
            "guid": "4a50ffe436ba43b6927f93678475b6b7.16",
            "lat": 41.127435,
            "lng": 1.244404,
            "name": "Funk Graffiti"
        },
        "4adb16992fb744f8b0ff81148a26c084.16": {
            "guid": "4adb16992fb744f8b0ff81148a26c084.16",
            "lat": 41.15084,
            "lng": 1.102785,
            "name": "Pla\u00e7a Antoni Pedrol Rius"
        },
        "4cfc917d572f402e8f8ee53c1b296874.16": {
            "guid": "4cfc917d572f402e8f8ee53c1b296874.16",
            "lat": 41.168752,
            "lng": 1.116269,
            "name": "Sant Joan Playground"
        },
        "4d6e85f441b7476690e55b46349b7e63.16": {
            "guid": "4d6e85f441b7476690e55b46349b7e63.16",
            "lat": 41.113042,
            "lng": 1.245475,
            "name": "Jardins Vapor"
        },
        "542471fa83fa473c984f47fc61a9d059.16": {
            "guid": "542471fa83fa473c984f47fc61a9d059.16",
            "lat": 41.119901,
            "lng": 1.244104,
            "name": "Vidal i Barraquer"
        },
        "55230ed3ab3d455fbc234d6e357aa330.16": {
            "guid": "55230ed3ab3d455fbc234d6e357aa330.16",
            "lat": 41.154398,
            "lng": 1.101445,
            "name": "Estaci\u00f3 Enol\u00f2gica"
        },
        "566c237b160f48f7aa117a312fcbcb2b.16": {
            "guid": "566c237b160f48f7aa117a312fcbcb2b.16",
            "lat": 41.137815,
            "lng": 1.25212,
            "name": "Pla\u00e7a Cuba"
        },
        "576a199a9fe84d25b51dd7722c10f808.16": {
            "guid": "576a199a9fe84d25b51dd7722c10f808.16",
            "lat": 41.145734,
            "lng": 1.121357,
            "name": "Monoliths"
        },
        "5853ba90ad6d4e489a75e40c34c768e0.16": {
            "guid": "5853ba90ad6d4e489a75e40c34c768e0.16",
            "lat": 41.148746,
            "lng": 1.118851,
            "name": "San Jos\u00e9 Obrero Playground"
        },
        "5ab4c099e4c3450997d06bb234ca19a4.16": {
            "guid": "5ab4c099e4c3450997d06bb234ca19a4.16",
            "lat": 41.109336,
            "lng": 1.240497,
            "name": "Mural del Serrallo"
        },
        "5be9d797db6a42ab8c56cf0c6c428fb7.16": {
            "guid": "5be9d797db6a42ab8c56cf0c6c428fb7.16",
            "lat": 41.107301,
            "lng": 1.248677,
            "name": "Parc Infantil Del Port"
        },
        "5d7509c9f2a34726927c1fc8ed32c837.16": {
            "guid": "5d7509c9f2a34726927c1fc8ed32c837.16",
            "lat": 41.117318,
            "lng": 1.210274,
            "name": "Plaza Mayor Campoclaro"
        },
        "5d94150531694242af2766b2f0c065a1.11": {
            "guid": "5d94150531694242af2766b2f0c065a1.11",
            "lat": 41.111781,
            "lng": 1.240268,
            "name": "Fumeral Torres Jordi"
        },
        "60bca9e816bb4b329f4f45b9992362a2.16": {
            "guid": "60bca9e816bb4b329f4f45b9992362a2.16",
            "lat": 41.125859,
            "lng": 1.232925,
            "name": "Chorisia Speciosa"
        },
        "60eb56fb649843c89dfcd0d7419256b5.16": {
            "guid": "60eb56fb649843c89dfcd0d7419256b5.16",
            "lat": 41.118325,
            "lng": 1.260569,
            "name": "Portal de Sant Antoni"
        },
        "616f8ab2da1048c0a8576778f2d87d4c.16": {
            "guid": "616f8ab2da1048c0a8576778f2d87d4c.16",
            "lat": 41.158641,
            "lng": 1.096579,
            "name": "Chicken Run"
        },
        "61b55e6c4bbc46058c78ea41108fd799.16": {
            "guid": "61b55e6c4bbc46058c78ea41108fd799.16",
            "lat": 41.124155,
            "lng": 1.234299,
            "name": "Escales del Parc Francol\u00ed"
        },
        "61cc0093afc8484f856e409fd3ca327d.16": {
            "guid": "61cc0093afc8484f856e409fd3ca327d.16",
            "lat": 41.119775,
            "lng": 1.246977,
            "name": "Espai Jove Kesse"
        },
        "61d99c36a9524e7e8f474a157027090b.16": {
            "guid": "61d99c36a9524e7e8f474a157027090b.16",
            "lat": 41.13933,
            "lng": 1.117026,
            "name": "Grafitty pilo de ferro "
        },
        "62ba551f946d4368b79d71924a026bb3.16": {
            "guid": "62ba551f946d4368b79d71924a026bb3.16",
            "lat": 41.160339,
            "lng": 1.105224,
            "name": "Pla\u00e7a Ferr\u00e9 Revascall"
        },
        "6375128cc152499dbf50813e4b24d645.16": {
            "guid": "6375128cc152499dbf50813e4b24d645.16",
            "lat": 41.137245,
            "lng": 1.248623,
            "name": "Espai Recreatiu del Parc"
        },
        "63a914968d6741d386f92fb6698f71e2.16": {
            "guid": "63a914968d6741d386f92fb6698f71e2.16",
            "lat": 41.158292,
            "lng": 1.105632,
            "name": "Les Columnes del Kursaal"
        },
        "63dbfec5f5dc430b9456f00ba84a21de.16": {
            "guid": "63dbfec5f5dc430b9456f00ba84a21de.16",
            "lat": 41.118177,
            "lng": 1.261008,
            "name": "Jardins Sant Antoni"
        },
        "641b1e8c188549d6987ed22af8e18b1f.16": {
            "guid": "641b1e8c188549d6987ed22af8e18b1f.16",
            "lat": 41.145571,
            "lng": 1.101168,
            "name": "Bike Gymkana"
        },
        "66cecfc2cfe34a86ac0bbbe2431ab820.16": {
            "guid": "66cecfc2cfe34a86ac0bbbe2431ab820.16",
            "lat": 41.138725,
            "lng": 1.108495,
            "name": "Graffiti de Ovni"
        },
        "678b63c50fcf4dca97b8758a8f798c57.11": {
            "guid": "678b63c50fcf4dca97b8758a8f798c57.11",
            "lat": 41.157702,
            "lng": 1.105318,
            "name": "Fortuny (Condesito)"
        },
        "68979e12dbdf486b8782c05623dcbe21.16": {
            "guid": "68979e12dbdf486b8782c05623dcbe21.16",
            "lat": 41.117223,
            "lng": 1.201419,
            "name": "Club Futbol Campclar"
        },
        "689e02d7298d45f7a43d466984398e0a.16": {
            "guid": "689e02d7298d45f7a43d466984398e0a.16",
            "lat": 41.122721,
            "lng": 1.249524,
            "name": "CRAI Campus Catalunya"
        },
        "68a2759363234962b33ac1ceab3bb653.16": {
            "guid": "68a2759363234962b33ac1ceab3bb653.16",
            "lat": 41.117438,
            "lng": 1.241345,
            "name": "Creu estrambotica"
        },
        "68c86e246072429baffd92e86e1a13af.16": {
            "guid": "68c86e246072429baffd92e86e1a13af.16",
            "lat": 41.181194,
            "lng": 1.096403,
            "name": "Esgl\u00e9sia Sant Vicen\u00e7"
        },
        "690e531e8c5c4cfab2314db9229c917d.16": {
            "guid": "690e531e8c5c4cfab2314db9229c917d.16",
            "lat": 41.115753,
            "lng": 1.257853,
            "name": "Thales mirant les estrelles"
        },
        "694ab052f008460faa0d9493d21bbf87.16": {
            "guid": "694ab052f008460faa0d9493d21bbf87.16",
            "lat": 41.137584,
            "lng": 1.251883,
            "name": "Fonts Fresquetes"
        },
        "69ce91f7b43a4e088c8814c7b3e4758c.16": {
            "guid": "69ce91f7b43a4e088c8814c7b3e4758c.16",
            "lat": 41.117183,
            "lng": 1.204718,
            "name": "Casal C\u00edvic"
        },
        "6c7c34fe653241099e55192b9b940718.16": {
            "guid": "6c7c34fe653241099e55192b9b940718.16",
            "lat": 41.135383,
            "lng": 1.271852,
            "name": "Ermita Llorito"
        },
        "6dc6965f80f44cbfb7b33ab0e6a491d4.16": {
            "guid": "6dc6965f80f44cbfb7b33ab0e6a491d4.16",
            "lat": 41.160928,
            "lng": 1.114294,
            "name": "Pla\u00e7a Pau Casals "
        },
        "6ee8bc2ba8fd44a89b0793c8cdfdfd81.16": {
            "guid": "6ee8bc2ba8fd44a89b0793c8cdfdfd81.16",
            "lat": 41.137269,
            "lng": 1.249784,
            "name": "Parc del Trenet"
        },
        "6f310d4fd4a5498ebd9311d83629d5ee.16": {
            "guid": "6f310d4fd4a5498ebd9311d83629d5ee.16",
            "lat": 41.137549,
            "lng": 1.302671,
            "name": "Mas de l'Hereuet"
        },
        "6f9832c684f44bf889da552ea4e79ace.16": {
            "guid": "6f9832c684f44bf889da552ea4e79ace.16",
            "lat": 41.150839,
            "lng": 1.248116,
            "name": "\u00c0ngel del Mas dels Arcs"
        },
        "70e64324d5c641b096b41c03041cfb29.16": {
            "guid": "70e64324d5c641b096b41c03041cfb29.16",
            "lat": 41.134823,
            "lng": 1.112674,
            "name": "Parque de Ocio Sur"
        },
        "726f209f98474fc5b284bf736c5ae404.16": {
            "guid": "726f209f98474fc5b284bf736c5ae404.16",
            "lat": 41.16755,
            "lng": 1.1024,
            "name": "Public Gym "
        },
        "72a95143e3f240178048f6d941d7593b.16": {
            "guid": "72a95143e3f240178048f6d941d7593b.16",
            "lat": 41.12137,
            "lng": 1.214336,
            "name": "A F\u00e9lix Rodr\u00edguez de la Fuente"
        },
        "73463070239240ebb85e86fdb4abbb3d.16": {
            "guid": "73463070239240ebb85e86fdb4abbb3d.16",
            "lat": 41.119558,
            "lng": 1.275542,
            "name": "Platja Arrabassada"
        },
        "73fca2ad4f5043b0b6dd1a2861d36930.16": {
            "guid": "73fca2ad4f5043b0b6dd1a2861d36930.16",
            "lat": 41.108773,
            "lng": 1.250541,
            "name": "Autoritat Portu\u00e0ria de Tarragona"
        },
        "74892cd91d7e4f698d713687996bd773.16": {
            "guid": "74892cd91d7e4f698d713687996bd773.16",
            "lat": 41.12048,
            "lng": 1.186473,
            "name": "Manuel Carrasco"
        },
        "75b45368ad8f4bbdb60f7b18e72757c8.16": {
            "guid": "75b45368ad8f4bbdb60f7b18e72757c8.16",
            "lat": 41.110875,
            "lng": 1.242415,
            "name": "Hulka"
        },
        "75d0547993fe441ba2286681ef467a32.16": {
            "guid": "75d0547993fe441ba2286681ef467a32.16",
            "lat": 41.124241,
            "lng": 1.211274,
            "name": "Rambla de Campclar"
        },
        "764175b3ad6d45fab55b19a4fb6cdbf6.16": {
            "guid": "764175b3ad6d45fab55b19a4fb6cdbf6.16",
            "lat": 41.10739,
            "lng": 1.249469,
            "name": "Torre-Rellotge del Port"
        },
        "78328d8d49f8487a977779b2582b7ea4.16": {
            "guid": "78328d8d49f8487a977779b2582b7ea4.16",
            "lat": 41.149229,
            "lng": 1.103397,
            "name": "Antic Velodrom"
        },
        "78a588f2410d4be9a575cfc7a998e3b5.11": {
            "guid": "78a588f2410d4be9a575cfc7a998e3b5.11",
            "lat": 41.11651,
            "lng": 1.250687,
            "name": "Est\u00e0tua dels Despullats"
        },
        "7a0e720f359f475080b51d4379396993.11": {
            "guid": "7a0e720f359f475080b51d4379396993.11",
            "lat": 41.146198,
            "lng": 1.133981,
            "name": "International Nut and Dried Fruit Council (INC)"
        },
        "7a9456299a684e39bde1afe29acf20e1.16": {
            "guid": "7a9456299a684e39bde1afe29acf20e1.16",
            "lat": 41.129061,
            "lng": 1.128174,
            "name": "Playground"
        },
        "7aa52e7371004e95899ccdfb102001cd.16": {
            "guid": "7aa52e7371004e95899ccdfb102001cd.16",
            "lat": 41.148698,
            "lng": 1.102079,
            "name": "Dengue Dog Park"
        },
        "7bbe78a167bb4ea7bc08235dcce65cf1.16": {
            "guid": "7bbe78a167bb4ea7bc08235dcce65cf1.16",
            "lat": 41.143875,
            "lng": 1.112145,
            "name": "Diposit d'Aigua"
        },
        "7c9eb57d274746279d8c0d395bb4bc70.16": {
            "guid": "7c9eb57d274746279d8c0d395bb4bc70.16",
            "lat": 41.152889,
            "lng": 1.241845,
            "name": "Leon de San Ramon"
        },
        "7dfb2a9d0474402c91e73c1a0aa3f69d.16": {
            "guid": "7dfb2a9d0474402c91e73c1a0aa3f69d.16",
            "lat": 41.149219,
            "lng": 1.110138,
            "name": "Avinguda Jaume I"
        },
        "7ec8c4810bc04023afba71d00c9cd979.16": {
            "guid": "7ec8c4810bc04023afba71d00c9cd979.16",
            "lat": 41.16065,
            "lng": 1.095674,
            "name": "Centre c\u00edvic Mestral "
        },
        "83ec4dc1dfc844468771bb2e09f0890a.16": {
            "guid": "83ec4dc1dfc844468771bb2e09f0890a.16",
            "lat": 41.179429,
            "lng": 1.099394,
            "name": "La Pista"
        },
        "84274845139b457494e9966bb7eb8d3c.16": {
            "guid": "84274845139b457494e9966bb7eb8d3c.16",
            "lat": 41.154917,
            "lng": 1.105099,
            "name": "Fallera Major "
        },
        "8524fdb18bb74130a6fd0f8b5ee8f718.16": {
            "guid": "8524fdb18bb74130a6fd0f8b5ee8f718.16",
            "lat": 41.146454,
            "lng": 1.242634,
            "name": "Cartells de l'Ecoruta"
        },
        "85a584c9091b4fc5bc05ee2eef2689a9.16": {
            "guid": "85a584c9091b4fc5bc05ee2eef2689a9.16",
            "lat": 41.146622,
            "lng": 1.103861,
            "name": "Gimn\u00e0s al carrer"
        },
        "86b0abbd56464df4b0deac390dee9797.16": {
            "guid": "86b0abbd56464df4b0deac390dee9797.16",
            "lat": 41.144332,
            "lng": 1.102785,
            "name": "Kids Playground"
        },
        "87a677715fde40559b43594e69e213f0.11": {
            "guid": "87a677715fde40559b43594e69e213f0.11",
            "lat": 41.15425,
            "lng": 1.109664,
            "name": "Prioral de Sant Pere"
        },
        "87c7dda05cff44be91fc7a7f512af909.16": {
            "guid": "87c7dda05cff44be91fc7a7f512af909.16",
            "lat": 41.117055,
            "lng": 1.250052,
            "name": "Banc d'Espanya"
        },
        "88e45568eca644c2890643c42a61d812.16": {
            "guid": "88e45568eca644c2890643c42a61d812.16",
            "lat": 41.12264,
            "lng": 1.234991,
            "name": "Castell del Francol\u00ed "
        },
        "89e11e34db7d4769a92670a387b0d65c.16": {
            "guid": "89e11e34db7d4769a92670a387b0d65c.16",
            "lat": 41.121985,
            "lng": 1.239197,
            "name": "Font Rambla President Maci\u00e0"
        },
        "8b57adc310dd4d418f93410dedf78400.16": {
            "guid": "8b57adc310dd4d418f93410dedf78400.16",
            "lat": 41.109107,
            "lng": 1.248855,
            "name": "Fuente Port de Tarragona"
        },
        "8b6f7388da9d4167b63d7f9b2821da1a.16": {
            "guid": "8b6f7388da9d4167b63d7f9b2821da1a.16",
            "lat": 41.154233,
            "lng": 1.24349,
            "name": "Zona de jocs de Sant Ramon"
        },
        "8b88a57f43c044acba7b58f7ce2db37b.16": {
            "guid": "8b88a57f43c044acba7b58f7ce2db37b.16",
            "lat": 41.129298,
            "lng": 1.305485,
            "name": "Restaurant Mirall D'Estiu"
        },
        "8cf025d6fa544e028dea82813c95545a.16": {
            "guid": "8cf025d6fa544e028dea82813c95545a.16",
            "lat": 41.112391,
            "lng": 1.249936,
            "name": "Sedesa Akimgraff"
        },
        "8d244092830345f288ae65bd4a577a21.16": {
            "guid": "8d244092830345f288ae65bd4a577a21.16",
            "lat": 41.162368,
            "lng": 1.100001,
            "name": "Dr Manhattan"
        },
        "8fc972db4e3b48c6bf6564dffdbd4f74.16": {
            "guid": "8fc972db4e3b48c6bf6564dffdbd4f74.16",
            "lat": 41.120964,
            "lng": 1.224847,
            "name": "Monumento Locomotora"
        },
        "8fea9a606fdd407b95f481f93de8a9e3.16": {
            "guid": "8fea9a606fdd407b95f481f93de8a9e3.16",
            "lat": 41.174719,
            "lng": 1.100751,
            "name": "Fita"
        },
        "903b582aba4f43a9a490f7bc6b95dca7.16": {
            "guid": "903b582aba4f43a9a490f7bc6b95dca7.16",
            "lat": 41.119069,
            "lng": 1.218519,
            "name": "TGN - Torreforta, Esgl\u00e8sia"
        },
        "9070fb0f0b1c433e8a91a89ccf79422d.16": {
            "guid": "9070fb0f0b1c433e8a91a89ccf79422d.16",
            "lat": 41.172262,
            "lng": 1.102609,
            "name": "Pistes De Futbol"
        },
        "90b06ce7140445a4a39ad410a4cef646.16": {
            "guid": "90b06ce7140445a4a39ad410a4cef646.16",
            "lat": 41.160176,
            "lng": 1.107106,
            "name": "Gat del Parc"
        },
        "91468b3d568045f9b9316b1a52a26aa5.16": {
            "guid": "91468b3d568045f9b9316b1a52a26aa5.16",
            "lat": 41.151942,
            "lng": 1.092215,
            "name": "Ninfa Dels Nanufars"
        },
        "956bec7d84e54827b0ee5c6a6fc36cb5.16": {
            "guid": "956bec7d84e54827b0ee5c6a6fc36cb5.16",
            "lat": 41.12197,
            "lng": 1.207586,
            "name": "Polisportiu Municipal Camp Clar"
        },
        "9706b16af4e84087948587bed41626ef.16": {
            "guid": "9706b16af4e84087948587bed41626ef.16",
            "lat": 41.113973,
            "lng": 1.270474,
            "name": "Parc Petit"
        },
        "973ca67baa78448196d59e6ddd899ccc.16": {
            "guid": "973ca67baa78448196d59e6ddd899ccc.16",
            "lat": 41.146403,
            "lng": 1.110239,
            "name": "Pla\u00e7a d\u2019Europa"
        },
        "986779dcbbad4604904af7c1649a3844.16": {
            "guid": "986779dcbbad4604904af7c1649a3844.16",
            "lat": 41.130071,
            "lng": 1.203009,
            "name": "Le Bufalo"
        },
        "98b16632def24059b58efa6ecd598d3a.16": {
            "guid": "98b16632def24059b58efa6ecd598d3a.16",
            "lat": 41.112804,
            "lng": 1.266142,
            "name": "unknown"
        },
        "998c377f5be54e0db94c35f036f97e55.16": {
            "guid": "998c377f5be54e0db94c35f036f97e55.16",
            "lat": 41.114157,
            "lng": 1.266241,
            "name": "Poema Joan Maragall"
        },
        "9a0f314934a64ebfae07fdae17186d38.16": {
            "guid": "9a0f314934a64ebfae07fdae17186d38.16",
            "lat": 41.160351,
            "lng": 1.107598,
            "name": "Les Fonts D'aigua"
        },
        "9a10b316a7ec4fc198b9c9625007cf9e.16": {
            "guid": "9a10b316a7ec4fc198b9c9625007cf9e.16",
            "lat": 41.11857,
            "lng": 1.254948,
            "name": "Passeig Arqueol\u00f2gic"
        },
        "9bdf74c5905b40ff8696f79632cb156b.16": {
            "guid": "9bdf74c5905b40ff8696f79632cb156b.16",
            "lat": 41.14825,
            "lng": 1.09031,
            "name": "Grafitti Friends"
        },
        "9d618041c6394f8cbb16ed2faf6b09fe.16": {
            "guid": "9d618041c6394f8cbb16ed2faf6b09fe.16",
            "lat": 41.149851,
            "lng": 1.095918,
            "name": "Grafiti Atur i Amor"
        },
        "9e60c6a6d8ee474fbff6427ffed010bf.16": {
            "guid": "9e60c6a6d8ee474fbff6427ffed010bf.16",
            "lat": 41.118918,
            "lng": 1.193429,
            "name": "Font de Bonavista"
        },
        "9e75b1542d20466fb1361b3797c700ff.16": {
            "guid": "9e75b1542d20466fb1361b3797c700ff.16",
            "lat": 41.157222,
            "lng": 1.096742,
            "name": "Es Forner Mallorqu\u00ed"
        },
        "9f2687018115404eb735f6ad463971c2.16": {
            "guid": "9f2687018115404eb735f6ad463971c2.16",
            "lat": 41.117827,
            "lng": 1.262338,
            "name": "Resid\u00e8ncia de la Merc\u00e8"
        },
        "a07f136cf78649ebaebcf2708e059215.16": {
            "guid": "a07f136cf78649ebaebcf2708e059215.16",
            "lat": 41.166454,
            "lng": 1.08676,
            "name": "Centenari Institut Pere Mata"
        },
        "a10af6d1531840068f21798a8692081b.16": {
            "guid": "a10af6d1531840068f21798a8692081b.16",
            "lat": 41.140327,
            "lng": 1.112405,
            "name": "Pavell\u00f3 Ol\u00edmpic Municipal"
        },
        "a1b6fbcd612a4628aa1566167edef6a9.11": {
            "guid": "a1b6fbcd612a4628aa1566167edef6a9.11",
            "lat": 41.152774,
            "lng": 1.105165,
            "name": "Dona Treballadora"
        },
        "a32158feccc949e487646723b61410d9.16": {
            "guid": "a32158feccc949e487646723b61410d9.16",
            "lat": 41.146091,
            "lng": 1.115214,
            "name": "Parc De Jocs Infantils"
        },
        "a3f9f45e2ba344a8b28df921b954bf66.16": {
            "guid": "a3f9f45e2ba344a8b28df921b954bf66.16",
            "lat": 41.124639,
            "lng": 1.253531,
            "name": "Les Fonts del Cementiri"
        },
        "a4cbbf0202f945239fe8fa6f7c43b3af.16": {
            "guid": "a4cbbf0202f945239fe8fa6f7c43b3af.16",
            "lat": 41.141719,
            "lng": 1.294075,
            "name": "Puerta de Adan y Eva"
        },
        "a54b04a17cbc41e3a5ccf3d8b2bf3c87.16": {
            "guid": "a54b04a17cbc41e3a5ccf3d8b2bf3c87.16",
            "lat": 41.144152,
            "lng": 1.270935,
            "name": "Comella Escultura Natura"
        },
        "a9396240a9e34dbbbd4edcbcc8547e26.16": {
            "guid": "a9396240a9e34dbbbd4edcbcc8547e26.16",
            "lat": 41.152325,
            "lng": 1.118512,
            "name": "La B\u00f2bila Sugranyes "
        },
        "a9f1fc660ab34a18b145d08e00f59c4e.16": {
            "guid": "a9f1fc660ab34a18b145d08e00f59c4e.16",
            "lat": 41.152048,
            "lng": 1.091829,
            "name": "Zoidberg Grafiter"
        },
        "aa36d90993fe44bd9bfe0325f549bca2.16": {
            "guid": "aa36d90993fe44bd9bfe0325f549bca2.16",
            "lat": 41.137409,
            "lng": 1.095869,
            "name": "Pistes de P\u00e0del Monterols"
        },
        "aae96af26b6e48f684e3a7b404bce158.16": {
            "guid": "aae96af26b6e48f684e3a7b404bce158.16",
            "lat": 41.119871,
            "lng": 1.243009,
            "name": "Esgl\u00e9sia de Sant Pau"
        },
        "acdabc42b762473dbb8eea0f03140dae.16": {
            "guid": "acdabc42b762473dbb8eea0f03140dae.16",
            "lat": 41.154788,
            "lng": 1.11148,
            "name": "Arte Urb\u00e0. P\u00e0rquing Riera Mir\u00f3"
        },
        "ae43555fa79b4bd59d7640713b959a8e.16": {
            "guid": "ae43555fa79b4bd59d7640713b959a8e.16",
            "lat": 41.110081,
            "lng": 1.242637,
            "name": "Mentitus Scriptum"
        },
        "af7a48e778e74bb8b409b339375cc888.16": {
            "guid": "af7a48e778e74bb8b409b339375cc888.16",
            "lat": 41.152463,
            "lng": 1.093782,
            "name": "Grafitti Final Xplosion"
        },
        "b0c3b42201844b39adf0297bce09c01c.16": {
            "guid": "b0c3b42201844b39adf0297bce09c01c.16",
            "lat": 41.122457,
            "lng": 1.273488,
            "name": "Poem In The Ground"
        },
        "b1232a92bdf741029163dbe3cf6c38a8.16": {
            "guid": "b1232a92bdf741029163dbe3cf6c38a8.16",
            "lat": 41.11715,
            "lng": 1.179811,
            "name": "Maquin\u00e0ria"
        },
        "b1b52ddd8fda4e7cb7269aaa2ac8fb6f.16": {
            "guid": "b1b52ddd8fda4e7cb7269aaa2ac8fb6f.16",
            "lat": 41.122853,
            "lng": 1.178896,
            "name": "Ajuntament de la Canonja"
        },
        "b24f8efaeecd4948abf49ab41d8bacaf.16": {
            "guid": "b24f8efaeecd4948abf49ab41d8bacaf.16",
            "lat": 41.153844,
            "lng": 1.116694,
            "name": "Club Nataci\u00f3 Reus Ploms"
        },
        "b2f92784939a4a82901c4561ceb42b08.16": {
            "guid": "b2f92784939a4a82901c4561ceb42b08.16",
            "lat": 41.146652,
            "lng": 1.240202,
            "name": "Paso Exclusivo para el Puente"
        },
        "b3e5f1eb5b2d4a0a8b0483f32b127738.16": {
            "guid": "b3e5f1eb5b2d4a0a8b0483f32b127738.16",
            "lat": 41.163058,
            "lng": 1.241709,
            "name": "MR Tuning"
        },
        "b4134a0005fd4044811b7878be2837e3.16": {
            "guid": "b4134a0005fd4044811b7878be2837e3.16",
            "lat": 41.121235,
            "lng": 1.217105,
            "name": "Camp de Futbol Torreforta"
        },
        "b720372202634b1dbc6c47f2cc42ded2.16": {
            "guid": "b720372202634b1dbc6c47f2cc42ded2.16",
            "lat": 41.161694,
            "lng": 1.093749,
            "name": "Mas Carandell"
        },
        "b76dc067fddd4a33ad4f016f742699c3.16": {
            "guid": "b76dc067fddd4a33ad4f016f742699c3.16",
            "lat": 41.158093,
            "lng": 1.088029,
            "name": "Playground Tirant Lo Blanc"
        },
        "b850441902944c268032cf0ffafdad3c.16": {
            "guid": "b850441902944c268032cf0ffafdad3c.16",
            "lat": 41.150527,
            "lng": 1.277629,
            "name": "Parc infantil amb columpis"
        },
        "b8578b2251724b65b9599b5d075609f2.16": {
            "guid": "b8578b2251724b65b9599b5d075609f2.16",
            "lat": 41.164344,
            "lng": 1.087001,
            "name": "Institut Pere Mata"
        },
        "b9500c65f7104b7a96055d671353a3be.16": {
            "guid": "b9500c65f7104b7a96055d671353a3be.16",
            "lat": 41.11452,
            "lng": 1.255373,
            "name": "Casa Maria Salas"
        },
        "bbeddec2732f4bedad3887c803af622c.16": {
            "guid": "bbeddec2732f4bedad3887c803af622c.16",
            "lat": 41.115963,
            "lng": 1.239671,
            "name": "Museu Nacional Arqueol\u00f2gic de Tarragona"
        },
        "bbf6647a6a294745a067049b7587f697.16": {
            "guid": "bbf6647a6a294745a067049b7587f697.16",
            "lat": 41.116117,
            "lng": 1.235925,
            "name": "Blue bubbles"
        },
        "bc101b59e45a428ab8f5715e7cc4e930.16": {
            "guid": "bc101b59e45a428ab8f5715e7cc4e930.16",
            "lat": 41.157534,
            "lng": 1.101384,
            "name": "Font del Passeig"
        },
        "bcc2d58835b348cf87495b9030b7172c.12": {
            "guid": "bcc2d58835b348cf87495b9030b7172c.12",
            "lat": 41.117162,
            "lng": 1.249364,
            "name": "Font del Centenari"
        },
        "bd1be41abbe44fa8a772f76e063761a9.16": {
            "guid": "bd1be41abbe44fa8a772f76e063761a9.16",
            "lat": 41.132675,
            "lng": 1.240273,
            "name": "Antiga F\u00e0brica Loste"
        },
        "bfb1462161cc44bab6c199be2e6fcc2b.11": {
            "guid": "bfb1462161cc44bab6c199be2e6fcc2b.11",
            "lat": 41.157393,
            "lng": 1.103719,
            "name": "St Joan Baptista"
        },
        "bfb226ab8e8c4815875e3399af2f3016.16": {
            "guid": "bfb226ab8e8c4815875e3399af2f3016.16",
            "lat": 41.140045,
            "lng": 1.259938,
            "name": "Parc de Miquel Servet"
        },
        "c0f777a9e8024badbb7b9af759f4502e.16": {
            "guid": "c0f777a9e8024badbb7b9af759f4502e.16",
            "lat": 41.126512,
            "lng": 1.247949,
            "name": "Casa Mallol"
        },
        "c300ec3c1d3443958969c1ec4330c905.16": {
            "guid": "c300ec3c1d3443958969c1ec4330c905.16",
            "lat": 41.123375,
            "lng": 1.246445,
            "name": "Canalizaci\u00f3n Romana"
        },
        "c3c9620b4eff437e9f733ace1aa1e51f.16": {
            "guid": "c3c9620b4eff437e9f733ace1aa1e51f.16",
            "lat": 41.139717,
            "lng": 1.253203,
            "name": "Monument a la Sardana"
        },
        "c3eae72308634613a6eb6c270dac71ec.16": {
            "guid": "c3eae72308634613a6eb6c270dac71ec.16",
            "lat": 41.134264,
            "lng": 1.242946,
            "name": "Facultat De Qu\u00edmica I D'Enologia"
        },
        "c591a08145774d078a3ccc0f13ecfaeb.11": {
            "guid": "c591a08145774d078a3ccc0f13ecfaeb.11",
            "lat": 41.160358,
            "lng": 1.100016,
            "name": "Estacion de Tren de Reus"
        },
        "c59685cafe614c67a47116267ee9bd56.16": {
            "guid": "c59685cafe614c67a47116267ee9bd56.16",
            "lat": 41.166949,
            "lng": 1.122989,
            "name": "Reus Graveyard"
        },
        "c6eee11fad2c4b5e9b8de65fa1334a21.16": {
            "guid": "c6eee11fad2c4b5e9b8de65fa1334a21.16",
            "lat": 41.121359,
            "lng": 1.193597,
            "name": "Font Antiga BonaVista"
        },
        "c739ed58449445e7b33a2fb009fb742d.12": {
            "guid": "c739ed58449445e7b33a2fb009fb742d.12",
            "lat": 41.146677,
            "lng": 1.243408,
            "name": "Pont del Diable o Aq\u00fceducte de les Ferreres"
        },
        "c8367a9f701a41a8b7cee5cd5260e9d6.16": {
            "guid": "c8367a9f701a41a8b7cee5cd5260e9d6.16",
            "lat": 41.119695,
            "lng": 1.259754,
            "name": "Casa Pintada"
        },
        "c8576bd51ada43858eebb75c86c22d19.16": {
            "guid": "c8576bd51ada43858eebb75c86c22d19.16",
            "lat": 41.112403,
            "lng": 1.252289,
            "name": "Parc Infantil del Palau Firal"
        },
        "c85ebcf039ef4fd5a220e4fb165353d1.16": {
            "guid": "c85ebcf039ef4fd5a220e4fb165353d1.16",
            "lat": 41.13498,
            "lng": 1.271871,
            "name": "Parc d'Oci del Llorito"
        },
        "c96394c292dc41018ce404994ca74e11.16": {
            "guid": "c96394c292dc41018ce404994ca74e11.16",
            "lat": 41.167552,
            "lng": 1.087161,
            "name": "Boca De La Mina"
        },
        "c9af080b8d39409ebe028ceaccbc0c6b.11": {
            "guid": "c9af080b8d39409ebe028ceaccbc0c6b.11",
            "lat": 41.156389,
            "lng": 1.085639,
            "name": "Estadi del Reus Deportiu"
        },
        "cb53c158d3094daba15128e8f5332c11.16": {
            "guid": "cb53c158d3094daba15128e8f5332c11.16",
            "lat": 41.151935,
            "lng": 1.114122,
            "name": "La Fumera"
        },
        "cb83a2e70b8b42c59c4094246b96cefb.16": {
            "guid": "cb83a2e70b8b42c59c4094246b96cefb.16",
            "lat": 41.109333,
            "lng": 1.250873,
            "name": "Rellotge de sol equatorial cil\u00edndric"
        },
        "cde4203285ab43aa83ea20c67ab93191.16": {
            "guid": "cde4203285ab43aa83ea20c67ab93191.16",
            "lat": 41.166323,
            "lng": 1.111446,
            "name": "Tenis Man"
        },
        "ce5b64dc68e140b08b90bde55451aa18.16": {
            "guid": "ce5b64dc68e140b08b90bde55451aa18.16",
            "lat": 41.137951,
            "lng": 1.303013,
            "name": "Restos de l\u2019Heueret"
        },
        "ce6eb864a7f64892befd4f505bc8d1d1.16": {
            "guid": "ce6eb864a7f64892befd4f505bc8d1d1.16",
            "lat": 41.157749,
            "lng": 1.107343,
            "name": "Vermuts Rofes"
        },
        "ce76098898c24c2db9f8adf0afe783f1.16": {
            "guid": "ce76098898c24c2db9f8adf0afe783f1.16",
            "lat": 41.120825,
            "lng": 1.179949,
            "name": "Palmera De Metall"
        },
        "cffed86c2d354b1b869d2f82df2fb7ec.16": {
            "guid": "cffed86c2d354b1b869d2f82df2fb7ec.16",
            "lat": 41.182236,
            "lng": 1.094979,
            "name": "Ermita Santa Anna"
        },
        "d36a5ba6d5774ac08a909fa36a26b931.16": {
            "guid": "d36a5ba6d5774ac08a909fa36a26b931.16",
            "lat": 41.119128,
            "lng": 1.25554,
            "name": "Colonia Ivlia Vrbs T\u00e0rraco"
        },
        "d36ff1662af14548ad33bc78bac0d5d1.16": {
            "guid": "d36ff1662af14548ad33bc78bac0d5d1.16",
            "lat": 41.133074,
            "lng": 1.244384,
            "name": "Motor Vell"
        },
        "d3e0e29c4c394329af461047229a2f56.16": {
            "guid": "d3e0e29c4c394329af461047229a2f56.16",
            "lat": 41.118051,
            "lng": 1.260797,
            "name": "Columpios P\u00fablicos"
        },
        "d5605f7154174d84b3ff8d2f12d7ae0f.16": {
            "guid": "d5605f7154174d84b3ff8d2f12d7ae0f.16",
            "lat": 41.136958,
            "lng": 1.117381,
            "name": "Vaixell de Fusta"
        },
        "d9ed604a8cc0406b881805dcac0975a6.16": {
            "guid": "d9ed604a8cc0406b881805dcac0975a6.16",
            "lat": 41.163281,
            "lng": 1.104384,
            "name": "B\u00e0squet Niloga"
        },
        "d9ed919f5a8d425caa528bac729be6b6.16": {
            "guid": "d9ed919f5a8d425caa528bac729be6b6.16",
            "lat": 41.116398,
            "lng": 1.251439,
            "name": "Teresianes"
        },
        "dac72a68e365480cacf19a766c50990b.16": {
            "guid": "dac72a68e365480cacf19a766c50990b.16",
            "lat": 41.120974,
            "lng": 1.224244,
            "name": "Calatrava"
        },
        "dd6a6edb396e4e5ab8670c3b2bb511d5.16": {
            "guid": "dd6a6edb396e4e5ab8670c3b2bb511d5.16",
            "lat": 41.149113,
            "lng": 1.091983,
            "name": "Dark ladyz"
        },
        "decbeea84cb14c0f9c101d8d25079ca6.16": {
            "guid": "decbeea84cb14c0f9c101d8d25079ca6.16",
            "lat": 41.123765,
            "lng": 1.212203,
            "name": "Parc Infantil Puigpelat"
        },
        "e0681e64d09f4cde9775738f6fff53c8.16": {
            "guid": "e0681e64d09f4cde9775738f6fff53c8.16",
            "lat": 41.159539,
            "lng": 1.123582,
            "name": "Japanese Fish"
        },
        "e06bd3a9a6a64c11b992a34aa89f3d07.16": {
            "guid": "e06bd3a9a6a64c11b992a34aa89f3d07.16",
            "lat": 41.152856,
            "lng": 1.112376,
            "name": "Flowers Playground"
        },
        "e0a6da4b6f564dcb974d172ac01c876b.16": {
            "guid": "e0a6da4b6f564dcb974d172ac01c876b.16",
            "lat": 41.106098,
            "lng": 1.245797,
            "name": "Waves"
        },
        "e0f28110f43d4705a9a5bda823e4ca5c.16": {
            "guid": "e0f28110f43d4705a9a5bda823e4ca5c.16",
            "lat": 41.121988,
            "lng": 1.273177,
            "name": "Parc de les Lletres"
        },
        "e40cbe0e142b44b29f3b3fdcef36c0e9.16": {
            "guid": "e40cbe0e142b44b29f3b3fdcef36c0e9.16",
            "lat": 41.175289,
            "lng": 1.102978,
            "name": "Pista de Basket"
        },
        "e4cb2f13fffd4c7bb4489b9dc9bdaad1.16": {
            "guid": "e4cb2f13fffd4c7bb4489b9dc9bdaad1.16",
            "lat": 41.118991,
            "lng": 1.206652,
            "name": "Homenaje A La Escuela Del Ponent"
        },
        "e537bb8a410b4a04a6d566ba1aae9d64.16": {
            "guid": "e537bb8a410b4a04a6d566ba1aae9d64.16",
            "lat": 41.151361,
            "lng": 1.1218,
            "name": "Reddis"
        },
        "e60660b9e923416c9e2ba60e5821cd81.11": {
            "guid": "e60660b9e923416c9e2ba60e5821cd81.11",
            "lat": 41.117332,
            "lng": 1.249516,
            "name": "Edifici de la Punxa"
        },
        "e77c359bf98a4100adbdbd9fad0cb9e7.16": {
            "guid": "e77c359bf98a4100adbdbd9fad0cb9e7.16",
            "lat": 41.159906,
            "lng": 1.123614,
            "name": "Factory Art"
        },
        "e881e79cdb184746b16ac3f3b04dda7f.16": {
            "guid": "e881e79cdb184746b16ac3f3b04dda7f.16",
            "lat": 41.159735,
            "lng": 1.107288,
            "name": "Conmemoraci\u00f3n 150 Aniversari"
        },
        "ea99520318174744ad9045ba94494111.16": {
            "guid": "ea99520318174744ad9045ba94494111.16",
            "lat": 41.144317,
            "lng": 1.117203,
            "name": "Gym Al Carrer"
        },
        "eaabc933c6b9407aa3c408a15a259177.16": {
            "guid": "eaabc933c6b9407aa3c408a15a259177.16",
            "lat": 41.121185,
            "lng": 1.252095,
            "name": "Parr\u00f2quia St.Fructu\u00f3s"
        },
        "eb1f121894b44e2e8909fe6b8879ed59.16": {
            "guid": "eb1f121894b44e2e8909fe6b8879ed59.16",
            "lat": 41.119176,
            "lng": 1.261227,
            "name": "Roman Wall"
        },
        "eb7978f3d5994b859c47040a65c02f8f.16": {
            "guid": "eb7978f3d5994b859c47040a65c02f8f.16",
            "lat": 41.159763,
            "lng": 1.100789,
            "name": "Train Door"
        },
        "ebdfb1985b35450f8201157db7233aa0.16": {
            "guid": "ebdfb1985b35450f8201157db7233aa0.16",
            "lat": 41.16947,
            "lng": 1.121716,
            "name": "Local Monument"
        },
        "ec7c0c8fe3f7462da01483d85f46fc49.16": {
            "guid": "ec7c0c8fe3f7462da01483d85f46fc49.16",
            "lat": 41.120342,
            "lng": 1.25925,
            "name": "Miquel Melendres I Rue"
        },
        "ed2c76f6fd264b118692d117ddd78049.16": {
            "guid": "ed2c76f6fd264b118692d117ddd78049.16",
            "lat": 41.115953,
            "lng": 1.238475,
            "name": "Necr\u00f2polis Paleocristiana"
        },
        "ed34834a7c4449269d697aa044259711.16": {
            "guid": "ed34834a7c4449269d697aa044259711.16",
            "lat": 41.118239,
            "lng": 1.208235,
            "name": "Parque De Adultos"
        },
        "f2406b08b185479e93d6d8381f20def3.16": {
            "guid": "f2406b08b185479e93d6d8381f20def3.16",
            "lat": 41.119079,
            "lng": 1.214236,
            "name": "Monument A Les Ciutats"
        },
        "f2a6f41ccbd44ee0904a2fea0b41f35b.16": {
            "guid": "f2a6f41ccbd44ee0904a2fea0b41f35b.16",
            "lat": 41.161274,
            "lng": 1.069858,
            "name": "Rutas De Reus"
        },
        "f4792c98790349c7a8a379936b3e5610.16": {
            "guid": "f4792c98790349c7a8a379936b3e5610.16",
            "lat": 41.116537,
            "lng": 1.217568,
            "name": "La Carpa Musical"
        },
        "f50aa1ce5e8244a4bb25db375f0d0ffe.16": {
            "guid": "f50aa1ce5e8244a4bb25db375f0d0ffe.16",
            "lat": 41.160604,
            "lng": 1.107742,
            "name": "Hot Dog"
        },
        "f6d8dfebf3784284a1482a19d10454fc.16": {
            "guid": "f6d8dfebf3784284a1482a19d10454fc.16",
            "lat": 41.110964,
            "lng": 1.250593,
            "name": "Maceta Con Relieves"
        },
        "f84aea8cdc324aaf9405c7c17141cfd5.16": {
            "guid": "f84aea8cdc324aaf9405c7c17141cfd5.16",
            "lat": 41.131852,
            "lng": 1.117848,
            "name": "Club Esportiu Uni\u00f3 Astorga"
        },
        "f9082c97ea1d428cbe7d7ffcb933f6ec.16": {
            "guid": "f9082c97ea1d428cbe7d7ffcb933f6ec.16",
            "lat": 41.141402,
            "lng": 1.130494,
            "name": "Mobile Sculpture"
        },
        "f9300b5af20d4845835151c6b50a2d0b.16": {
            "guid": "f9300b5af20d4845835151c6b50a2d0b.16",
            "lat": 41.132531,
            "lng": 1.117755,
            "name": "Pista Petanca"
        },
        "f9e361c98db74843bbc1a972cb981e8d.16": {
            "guid": "f9e361c98db74843bbc1a972cb981e8d.16",
            "lat": 41.16509,
            "lng": 1.087283,
            "name": "Pabello Dels Distingits"
        },
        "fc120a52f54a4591bb480531448c0777.16": {
            "guid": "fc120a52f54a4591bb480531448c0777.16",
            "lat": 41.146304,
            "lng": 1.086207,
            "name": "Mas Sed\u00f3 "
        },
        "fc54f22b0d5341d190169fabf18e6885.16": {
            "guid": "fc54f22b0d5341d190169fabf18e6885.16",
            "lat": 41.137077,
            "lng": 1.113192,
            "name": "Pla\u00e7a de Joan Ferrat\u00e9 i Soler"
        },
        "fff55eecfd1d49ba87029426de947d60.16": {
            "guid": "fff55eecfd1d49ba87029426de947d60.16",
            "lat": 41.113254,
            "lng": 1.250751,
            "name": "Columna Romana"
        }
    },
    "pokestops": {
        "0043f226d88249d08d0becb21b79f0fa.16": {
            "guid": "0043f226d88249d08d0becb21b79f0fa.16",
            "lat": 41.124077,
            "lng": 1.21777,
            "name": "Zona de juegos infantiles"
        },
        "005a581d61a64b47828fcab53b18fb09.16": {
            "guid": "005a581d61a64b47828fcab53b18fb09.16",
            "lat": 41.114715,
            "lng": 1.244441,
            "name": "Josep Roig i Ravent\u00f3s"
        },
        "008110bbdb2248d4b8ba481d77c90e2b.16": {
            "guid": "008110bbdb2248d4b8ba481d77c90e2b.16",
            "lat": 41.161897,
            "lng": 1.243127,
            "name": "Centre C\u00edvic de Sant Salvador"
        },
        "009b25a461b049fab6b1dd01e0e24681.16": {
            "guid": "009b25a461b049fab6b1dd01e0e24681.16",
            "lat": 41.145253,
            "lng": 1.103605,
            "name": "Fantomas"
        },
        "00d67cda4d3f4b7bafbc85e42f092f1e.16": {
            "guid": "00d67cda4d3f4b7bafbc85e42f092f1e.16",
            "lat": 41.159978,
            "lng": 1.097307,
            "name": "Kiss fish"
        },
        "00f12693382d4d8d99775e68a81cf6bd.16": {
            "guid": "00f12693382d4d8d99775e68a81cf6bd.16",
            "lat": 41.118139,
            "lng": 1.209676,
            "name": "Font de la Pla\u00e7a Major"
        },
        "0178fc63cc8e416ea5e02af9ad3a1c7d.16": {
            "guid": "0178fc63cc8e416ea5e02af9ad3a1c7d.16",
            "lat": 41.142003,
            "lng": 1.116013,
            "name": "Bomba n\u00fam. 7"
        },
        "01ba04a8d0e4441d89108327a5226c64.16": {
            "guid": "01ba04a8d0e4441d89108327a5226c64.16",
            "lat": 41.115555,
            "lng": 1.242354,
            "name": "Illa paradis\u00edaca de Tarragona"
        },
        "01c8e597b4fd44aeabd817c460ca873e.16": {
            "guid": "01c8e597b4fd44aeabd817c460ca873e.16",
            "lat": 41.159322,
            "lng": 1.111598,
            "name": "Pla\u00e7a Anselm Clav\u00e9"
        },
        "01d855f8b19c42c7922d7d0c73e363d3.16": {
            "guid": "01d855f8b19c42c7922d7d0c73e363d3.16",
            "lat": 41.151373,
            "lng": 1.097993,
            "name": "Centre C\u00edvic Ponent"
        },
        "01e454df62c04d05b5854c082e36e0a1.16": {
            "guid": "01e454df62c04d05b5854c082e36e0a1.16",
            "lat": 41.119409,
            "lng": 1.259469,
            "name": "Portal del Carro"
        },
        "01f5761e739547a4bc77117451670477.16": {
            "guid": "01f5761e739547a4bc77117451670477.16",
            "lat": 41.150562,
            "lng": 1.10265,
            "name": "Parc Infantil Pedrol"
        },
        "0211393497444118aac043ffce16390a.16": {
            "guid": "0211393497444118aac043ffce16390a.16",
            "lat": 41.117608,
            "lng": 1.209947,
            "name": "Pista Multirecreativa Campoclaro"
        },
        "022ba6bc564247118bb9f8e2e1a66be5.16": {
            "guid": "022ba6bc564247118bb9f8e2e1a66be5.16",
            "lat": 41.11966,
            "lng": 1.26176,
            "name": "Club Nataci\u00f3 T\u00e0rraco"
        },
        "023648cb9c6040f1b310cfaa2aa18a19.16": {
            "guid": "023648cb9c6040f1b310cfaa2aa18a19.16",
            "lat": 41.148742,
            "lng": 1.114433,
            "name": "Casita de juegos"
        },
        "0286b310b21b476dbc102adab3af1d52.16": {
            "guid": "0286b310b21b476dbc102adab3af1d52.16",
            "lat": 41.163469,
            "lng": 1.113392,
            "name": "Cartell Nord Mas Sabater"
        },
        "02c00dfb09b84a6993fa0f07754deca5.16": {
            "guid": "02c00dfb09b84a6993fa0f07754deca5.16",
            "lat": 41.149941,
            "lng": 1.100295,
            "name": "Mosaic del Peixos"
        },
        "02cdf532ae794840a4f3146ad6adb7b8.16": {
            "guid": "02cdf532ae794840a4f3146ad6adb7b8.16",
            "lat": 41.123233,
            "lng": 1.284674,
            "name": "Platja de la Savinosa"
        },
        "02eb2f7769cf4c7481f8040ce9efc5db.16": {
            "guid": "02eb2f7769cf4c7481f8040ce9efc5db.16",
            "lat": 41.11802,
            "lng": 1.256511,
            "name": "Gronxadors"
        },
        "032628e899904d5da7eea0dc0d8d3037.16": {
            "guid": "032628e899904d5da7eea0dc0d8d3037.16",
            "lat": 41.157587,
            "lng": 1.088109,
            "name": "Gimnas Al Carrer"
        },
        "03478fbfb191433abbee1a5590301f8a.16": {
            "guid": "03478fbfb191433abbee1a5590301f8a.16",
            "lat": 41.148975,
            "lng": 1.100857,
            "name": "Seguridad Social"
        },
        "0364229422b249db925a65961189a340.16": {
            "guid": "0364229422b249db925a65961189a340.16",
            "lat": 41.162119,
            "lng": 1.103556,
            "name": "La caravana del Tio Sam"
        },
        "03e62423460f4b669698a4a041c54bcd.16": {
            "guid": "03e62423460f4b669698a4a041c54bcd.16",
            "lat": 41.161733,
            "lng": 1.092831,
            "name": "Sa Font Mallorquina"
        },
        "04211bd3cfe740e78762a2b2e8ff3970.16": {
            "guid": "04211bd3cfe740e78762a2b2e8ff3970.16",
            "lat": 41.154463,
            "lng": 1.104161,
            "name": "Cher Mon"
        },
        "0431961a1a5442829221c6c6570e6c78.16": {
            "guid": "0431961a1a5442829221c6c6570e6c78.16",
            "lat": 41.147567,
            "lng": 1.107284,
            "name": "La rosa"
        },
        "044ce446297b488eaa73451fab26ceec.16": {
            "guid": "044ce446297b488eaa73451fab26ceec.16",
            "lat": 41.146974,
            "lng": 1.243104,
            "name": "El Puente del Diablo"
        },
        "044d8c7ac35d4d5bb10b30ceddffab2e.16": {
            "guid": "044d8c7ac35d4d5bb10b30ceddffab2e.16",
            "lat": 41.158339,
            "lng": 1.101896,
            "name": "Centre d'art Cal Mass\u00f3"
        },
        "04678af40ae349ce9d596e65c34ce11e.16": {
            "guid": "04678af40ae349ce9d596e65c34ce11e.16",
            "lat": 41.116605,
            "lng": 1.239417,
            "name": "Parc Central"
        },
        "0496d64c28fe4ef38c39856c26243bfc.16": {
            "guid": "0496d64c28fe4ef38c39856c26243bfc.16",
            "lat": 41.151502,
            "lng": 1.122206,
            "name": "Parc Reddis"
        },
        "04c9e0c2589740d28a4f06819e17fd4f.16": {
            "guid": "04c9e0c2589740d28a4f06819e17fd4f.16",
            "lat": 41.114845,
            "lng": 1.250361,
            "name": "El Magatzem-Teatre"
        },
        "04e7579c724440e59ae978b81f7a9b9e.12": {
            "guid": "04e7579c724440e59ae978b81f7a9b9e.12",
            "lat": 41.11869,
            "lng": 1.257906,
            "name": "Fa\u00e7ana de la Catedral"
        },
        "0512e40d6fd249e4b37ab75602d5025b.16": {
            "guid": "0512e40d6fd249e4b37ab75602d5025b.16",
            "lat": 41.147429,
            "lng": 1.104111,
            "name": "Arte urbano \"Valiente Creations\""
        },
        "054d95b9889f4ff7b32b7b19c1457bcb.16": {
            "guid": "054d95b9889f4ff7b32b7b19c1457bcb.16",
            "lat": 41.164072,
            "lng": 1.111522,
            "name": "Mas Miarnau"
        },
        "054fcd526afe42c38c905bec9224d5eb.16": {
            "guid": "054fcd526afe42c38c905bec9224d5eb.16",
            "lat": 41.166206,
            "lng": 1.126499,
            "name": "Ouchies"
        },
        "0564d75d0f104f99b4e48654f98a6911.16": {
            "guid": "0564d75d0f104f99b4e48654f98a6911.16",
            "lat": 41.114135,
            "lng": 1.241762,
            "name": "Instituto Social De La Marina"
        },
        "059d05e8f1394f44bbfb2a4b85bb45fe.16": {
            "guid": "059d05e8f1394f44bbfb2a4b85bb45fe.16",
            "lat": 41.155911,
            "lng": 1.110271,
            "name": "Mural de Reus"
        },
        "05c483feb3bb479fb7c3fa52a40ef8f5.16": {
            "guid": "05c483feb3bb479fb7c3fa52a40ef8f5.16",
            "lat": 41.150013,
            "lng": 1.099431,
            "name": "Pista P\u00fablica De Padel"
        },
        "05c83efe5ac94f6da1d959417d8be889.16": {
            "guid": "05c83efe5ac94f6da1d959417d8be889.16",
            "lat": 41.159618,
            "lng": 1.111241,
            "name": "Dones en acci\u00f3"
        },
        "05edfc2ed0b945728d44a4611e095521.16": {
            "guid": "05edfc2ed0b945728d44a4611e095521.16",
            "lat": 41.143214,
            "lng": 1.116104,
            "name": "Caseta de fusta"
        },
        "060f65f24eb043049bcc3f49ed169d9e.16": {
            "guid": "060f65f24eb043049bcc3f49ed169d9e.16",
            "lat": 41.109877,
            "lng": 1.244992,
            "name": "Estacio Mar\u00edtima Tarragona"
        },
        "061c74cd13e94ff5b77aa4dc6f59e680.16": {
            "guid": "061c74cd13e94ff5b77aa4dc6f59e680.16",
            "lat": 41.118043,
            "lng": 1.244737,
            "name": "P\u00e0rquing del Nen Boig"
        },
        "063b4c0b4a5f4ac7ae37d52758d621c1.16": {
            "guid": "063b4c0b4a5f4ac7ae37d52758d621c1.16",
            "lat": 41.147462,
            "lng": 1.241946,
            "name": "Jard\u00ed Rom\u00e0ntic"
        },
        "066e03ab6a974dd096847952eb76eb71.16": {
            "guid": "066e03ab6a974dd096847952eb76eb71.16",
            "lat": 41.155644,
            "lng": 1.101516,
            "name": "Saint Joseph's Statue"
        },
        "06cc1b383c0b4330af04b36ce8e90d3c.16": {
            "guid": "06cc1b383c0b4330af04b36ce8e90d3c.16",
            "lat": 41.11999,
            "lng": 1.258473,
            "name": "Seminari Conciliar"
        },
        "06f09f3be35b4609b624ce58bd1759d5.16": {
            "guid": "06f09f3be35b4609b624ce58bd1759d5.16",
            "lat": 41.114405,
            "lng": 1.261026,
            "name": "Playground Platja"
        },
        "07025b97fb5a47a7b7759d92f68fc0ae.16": {
            "guid": "07025b97fb5a47a7b7759d92f68fc0ae.16",
            "lat": 41.15399,
            "lng": 1.110416,
            "name": "Peixateries Velles"
        },
        "0724a46200984fa392354733670a5307.16": {
            "guid": "0724a46200984fa392354733670a5307.16",
            "lat": 41.115462,
            "lng": 1.252788,
            "name": "Punt d\u2019informaci\u00f3 tur\u00edstica"
        },
        "076e8337630a4d48847b470a5c3010f3.16": {
            "guid": "076e8337630a4d48847b470a5c3010f3.16",
            "lat": 41.131932,
            "lng": 1.311981,
            "name": "Ancient Mill Stone"
        },
        "077e0442da134c59b61c196c054b98aa.16": {
            "guid": "077e0442da134c59b61c196c054b98aa.16",
            "lat": 41.143028,
            "lng": 1.118472,
            "name": "Llull graffiti"
        },
        "07ced08f91454e499a50f980071001c0.16": {
            "guid": "07ced08f91454e499a50f980071001c0.16",
            "lat": 41.130095,
            "lng": 1.129553,
            "name": "Campo de futbol sala"
        },
        "07ebaead045f4ae8a577abceeb1ea6c3.16": {
            "guid": "07ebaead045f4ae8a577abceeb1ea6c3.16",
            "lat": 41.117592,
            "lng": 1.252156,
            "name": "Placa Ferro Ministeri De Treball"
        },
        "083be330e0534d7f858486d10980bf8e.16": {
            "guid": "083be330e0534d7f858486d10980bf8e.16",
            "lat": 41.157991,
            "lng": 1.119579,
            "name": "Font del Lidl"
        },
        "08ac173877ab4ebbbfc143f15dfa6997.16": {
            "guid": "08ac173877ab4ebbbfc143f15dfa6997.16",
            "lat": 41.120761,
            "lng": 1.245209,
            "name": "Mosaic de la Catedral"
        },
        "08b1245c9f004546b9df0219d99fb213.16": {
            "guid": "08b1245c9f004546b9df0219d99fb213.16",
            "lat": 41.153762,
            "lng": 1.093994,
            "name": "Ceramic Mural"
        },
        "08dc36b306c147dfa84d6c288bc811f9.16": {
            "guid": "08dc36b306c147dfa84d6c288bc811f9.16",
            "lat": 41.153296,
            "lng": 1.114541,
            "name": "Museo Antonia Paris"
        },
        "08dfc870cadc4f0587c1a792a0271ab0.16": {
            "guid": "08dfc870cadc4f0587c1a792a0271ab0.16",
            "lat": 41.161028,
            "lng": 1.123983,
            "name": "Asociaci\u00f3n Cultural de Catalanes y Andaluces"
        },
        "091eae68ec6d4d71b18c00d877ee2531.16": {
            "guid": "091eae68ec6d4d71b18c00d877ee2531.16",
            "lat": 41.129534,
            "lng": 1.130029,
            "name": "Playground Plana"
        },
        "094989be02e54e9f9dc1434e2d9ed9f6.16": {
            "guid": "094989be02e54e9f9dc1434e2d9ed9f6.16",
            "lat": 41.12527,
            "lng": 1.254257,
            "name": "Creu Negra"
        },
        "09d2fc120a5f4ce5aa468c85dd787c9c.16": {
            "guid": "09d2fc120a5f4ce5aa468c85dd787c9c.16",
            "lat": 41.140323,
            "lng": 1.251688,
            "name": "Parc Infantil Rossell\u00f3"
        },
        "0a3b480b9e1f48a7860e26aa9bb6c68d.16": {
            "guid": "0a3b480b9e1f48a7860e26aa9bb6c68d.16",
            "lat": 41.146143,
            "lng": 1.123019,
            "name": "Recreo en Barrio San Jos\u00e9 de Reus"
        },
        "0a4c23d51fb94784b9891aeb919a8d1f.16": {
            "guid": "0a4c23d51fb94784b9891aeb919a8d1f.16",
            "lat": 41.124578,
            "lng": 1.253865,
            "name": "Fanal del Trencad\u00eds"
        },
        "0a6369db14104a3e818725da49fbeb73.16": {
            "guid": "0a6369db14104a3e818725da49fbeb73.16",
            "lat": 41.158958,
            "lng": 1.097845,
            "name": "God"
        },
        "0acd6aa466d5463cb0b2f8c1ef04de43.16": {
            "guid": "0acd6aa466d5463cb0b2f8c1ef04de43.16",
            "lat": 41.121229,
            "lng": 1.23647,
            "name": "Boti Boti"
        },
        "0b364a9b1aec469fafeb15b8baace4f6.16": {
            "guid": "0b364a9b1aec469fafeb15b8baace4f6.16",
            "lat": 41.127487,
            "lng": 1.293742,
            "name": "font de la cala"
        },
        "0b4e7993faeb4869b6eabf42e21cb804.16": {
            "guid": "0b4e7993faeb4869b6eabf42e21cb804.16",
            "lat": 41.111573,
            "lng": 1.236906,
            "name": "\u00a1\u00bfQu\u00e9 pasa?!"
        },
        "0ba1de1348254cdd9e49a878a2289466.16": {
            "guid": "0ba1de1348254cdd9e49a878a2289466.16",
            "lat": 41.16299,
            "lng": 1.104474,
            "name": "C\u00fapula explorer"
        },
        "0ba647e0f1a242cf951fe85d98e4f008.16": {
            "guid": "0ba647e0f1a242cf951fe85d98e4f008.16",
            "lat": 41.12384,
            "lng": 1.248896,
            "name": "Antiguos Aros Ol\u00edmpicos"
        },
        "0be47b79eaf6481b943edbc156ac99e9.16": {
            "guid": "0be47b79eaf6481b943edbc156ac99e9.16",
            "lat": 41.167242,
            "lng": 1.121794,
            "name": "Verge Desamparada"
        },
        "0be4cdab8a124612a8294864d99ed680.16": {
            "guid": "0be4cdab8a124612a8294864d99ed680.16",
            "lat": 41.12071,
            "lng": 1.224017,
            "name": "Parc Infantil Riu Clar"
        },
        "0c1884d14c4542af93cfbd6d1f74c87e.16": {
            "guid": "0c1884d14c4542af93cfbd6d1f74c87e.16",
            "lat": 41.14705,
            "lng": 1.094984,
            "name": "Tanhauser Door"
        },
        "0c3d1c058e7146d59fca616957f24e9e.16": {
            "guid": "0c3d1c058e7146d59fca616957f24e9e.16",
            "lat": 41.120346,
            "lng": 1.193021,
            "name": "Ni\u00f1os"
        },
        "0c5fddd116564c2cb4833b7fb7e0e725.16": {
            "guid": "0c5fddd116564c2cb4833b7fb7e0e725.16",
            "lat": 41.115162,
            "lng": 1.237694,
            "name": "Grafiti Riu Clar"
        },
        "0c6adf104a024985a0564e2f6592bcdd.16": {
            "guid": "0c6adf104a024985a0564e2f6592bcdd.16",
            "lat": 41.112432,
            "lng": 1.246822,
            "name": "Sala de reuniones de Testigos de Jehova"
        },
        "0caae0202cda4b118cffbd345f581f60.16": {
            "guid": "0caae0202cda4b118cffbd345f581f60.16",
            "lat": 41.160446,
            "lng": 1.108373,
            "name": "Ophydium"
        },
        "0cb8616545ab40d68a347553b5348b27.16": {
            "guid": "0cb8616545ab40d68a347553b5348b27.16",
            "lat": 41.150819,
            "lng": 1.103501,
            "name": "Ceramic Sun"
        },
        "0cc24671a65a434683fb436f7c89ef8b.16": {
            "guid": "0cc24671a65a434683fb436f7c89ef8b.16",
            "lat": 41.123867,
            "lng": 1.209027,
            "name": "Institut Gaud\u00ed De La Construcci\u00f3"
        },
        "0cd3f56ea23541969ff1f9233cd28049.16": {
            "guid": "0cd3f56ea23541969ff1f9233cd28049.16",
            "lat": 41.115386,
            "lng": 1.240113,
            "name": "Mur De Tapial"
        },
        "0ce75946ecd74b2db32995827e0eead3.16": {
            "guid": "0ce75946ecd74b2db32995827e0eead3.16",
            "lat": 41.151251,
            "lng": 1.101014,
            "name": "Nuria Diez Dansa"
        },
        "0d02182f66e541039b020338f0eeec2c.16": {
            "guid": "0d02182f66e541039b020338f0eeec2c.16",
            "lat": 41.152103,
            "lng": 1.107504,
            "name": "Japanese Kid"
        },
        "0d2b575c90dd4bedb1f1aad24a4f9bc9.16": {
            "guid": "0d2b575c90dd4bedb1f1aad24a4f9bc9.16",
            "lat": 41.119285,
            "lng": 1.246256,
            "name": "Antiga Universitat de Tarragona"
        },
        "0d65f01f786e4c0b927d268f6286779f.16": {
            "guid": "0d65f01f786e4c0b927d268f6286779f.16",
            "lat": 41.16083,
            "lng": 1.108844,
            "name": "Train Playground"
        },
        "0da2b8a2afb7418db93b2a0ecfbadfc8.16": {
            "guid": "0da2b8a2afb7418db93b2a0ecfbadfc8.16",
            "lat": 41.114508,
            "lng": 1.247899,
            "name": "Sports P\u00e0mies"
        },
        "0dd52499763b4d90a24c60403f3019b5.16": {
            "guid": "0dd52499763b4d90a24c60403f3019b5.16",
            "lat": 41.108927,
            "lng": 1.250348,
            "name": "Escultura Abstracta NAO"
        },
        "0de029c3158549788a65e4d22052aa56.16": {
            "guid": "0de029c3158549788a65e4d22052aa56.16",
            "lat": 41.110498,
            "lng": 1.243052,
            "name": "Spiderpark"
        },
        "0deeca55971a4d5293df1262c88fe90a.16": {
            "guid": "0deeca55971a4d5293df1262c88fe90a.16",
            "lat": 41.156103,
            "lng": 1.116743,
            "name": "women graffity"
        },
        "0df5c151347b4576b922425f34fd2b1b.16": {
            "guid": "0df5c151347b4576b922425f34fd2b1b.16",
            "lat": 41.123195,
            "lng": 1.24776,
            "name": "Rosa Graffiti"
        },
        "0e033ed611a144e0b1257399d0fd1c2b.16": {
            "guid": "0e033ed611a144e0b1257399d0fd1c2b.16",
            "lat": 41.157622,
            "lng": 1.105536,
            "name": "La deessa Just\u00edcia"
        },
        "0e080a8f5a114ab0ab0e85e69142b8c9.16": {
            "guid": "0e080a8f5a114ab0ab0e85e69142b8c9.16",
            "lat": 41.154064,
            "lng": 1.103997,
            "name": "Karate Kid"
        },
        "0e0b6a409a914711b83a427a43ec7210.16": {
            "guid": "0e0b6a409a914711b83a427a43ec7210.16",
            "lat": 41.115881,
            "lng": 1.256526,
            "name": "Mural Mediterrani"
        },
        "0e7e3b8c05c8424ebf0f07f5f846910f.16": {
            "guid": "0e7e3b8c05c8424ebf0f07f5f846910f.16",
            "lat": 41.121215,
            "lng": 1.194686,
            "name": "Dibus"
        },
        "0e89da2bb2174054b462aa8873a99ab7.16": {
            "guid": "0e89da2bb2174054b462aa8873a99ab7.16",
            "lat": 41.120166,
            "lng": 1.276859,
            "name": "Cartell informatiu platja Arrabassada"
        },
        "0e95927ebc32400c9fc55b6d7feb8e7f.16": {
            "guid": "0e95927ebc32400c9fc55b6d7feb8e7f.16",
            "lat": 41.115703,
            "lng": 1.265219,
            "name": "Parc Infantil - Miracle"
        },
        "0ec340aa67de4b00b5f2bf59593e3442.16": {
            "guid": "0ec340aa67de4b00b5f2bf59593e3442.16",
            "lat": 41.163225,
            "lng": 1.111472,
            "name": "Entrada Mas Miarnau"
        },
        "0f137237422146e39c2d058e99432d61.16": {
            "guid": "0f137237422146e39c2d058e99432d61.16",
            "lat": 41.113611,
            "lng": 1.250283,
            "name": "Mirall Lifestyle Art"
        },
        "0f411dc06ddc4caeb35c5a7bc93c1b94.16": {
            "guid": "0f411dc06ddc4caeb35c5a7bc93c1b94.16",
            "lat": 41.159979,
            "lng": 1.104674,
            "name": "Tucan Power"
        },
        "0f988b13f786492ba3f011fdb467555d.16": {
            "guid": "0f988b13f786492ba3f011fdb467555d.16",
            "lat": 41.122088,
            "lng": 1.204075,
            "name": "Cunetes Vegetades"
        },
        "1004aa031e0d4817a2eb3a90006d27fe.16": {
            "guid": "1004aa031e0d4817a2eb3a90006d27fe.16",
            "lat": 41.113592,
            "lng": 1.25177,
            "name": "Palau Firal i de Congressos de Tarragona"
        },
        "10357f71772f42578f9ae750b4ceeb3e.16": {
            "guid": "10357f71772f42578f9ae750b4ceeb3e.16",
            "lat": 41.11081,
            "lng": 1.251749,
            "name": "Ass. Consignataris Vaixells"
        },
        "1047e8ca3df34e55b81651c6c7cf904a.16": {
            "guid": "1047e8ca3df34e55b81651c6c7cf904a.16",
            "lat": 41.110392,
            "lng": 1.243101,
            "name": "Domino Sculpture"
        },
        "10bc0bcdeac14babbd6f9a81a68d69b4.16": {
            "guid": "10bc0bcdeac14babbd6f9a81a68d69b4.16",
            "lat": 41.166143,
            "lng": 1.110922,
            "name": "Swimming Graffiti"
        },
        "10c34f3d9cd2424ca2c0185f815a072c.16": {
            "guid": "10c34f3d9cd2424ca2c0185f815a072c.16",
            "lat": 41.153496,
            "lng": 1.119919,
            "name": "Mas del Tallapedra"
        },
        "10d448e706924de9a372fbbdbb63ce3b.16": {
            "guid": "10d448e706924de9a372fbbdbb63ce3b.16",
            "lat": 41.142359,
            "lng": 1.118698,
            "name": "El Camarero Vampiro."
        },
        "10fd244347094871bfdb3f609df21926.16": {
            "guid": "10fd244347094871bfdb3f609df21926.16",
            "lat": 41.161334,
            "lng": 1.093688,
            "name": "Horts Urbans"
        },
        "1127fa3376e4428099f5125a6547a0c0.16": {
            "guid": "1127fa3376e4428099f5125a6547a0c0.16",
            "lat": 41.122276,
            "lng": 1.216218,
            "name": "Farola a Tenerife"
        },
        "11337ae5d350499cb466df2cb35242dd.16": {
            "guid": "11337ae5d350499cb466df2cb35242dd.16",
            "lat": 41.122479,
            "lng": 1.247897,
            "name": "Iglesia De Jesucristo"
        },
        "1140e48c90dd45fb9179cde26a39fedd.16": {
            "guid": "1140e48c90dd45fb9179cde26a39fedd.16",
            "lat": 41.137369,
            "lng": 1.112958,
            "name": "M\u00e1quinas de ejercicio"
        },
        "11d6c9103fcf48c686335e018dc2434d.16": {
            "guid": "11d6c9103fcf48c686335e018dc2434d.16",
            "lat": 41.151193,
            "lng": 1.114326,
            "name": "Tanatorio Municipal de Reus"
        },
        "125cc4289af24f8084db57495caedb18.16": {
            "guid": "125cc4289af24f8084db57495caedb18.16",
            "lat": 41.1536,
            "lng": 1.081152,
            "name": "Origami Mural"
        },
        "12ae9774bc564180849014e4e88b6f44.16": {
            "guid": "12ae9774bc564180849014e4e88b6f44.16",
            "lat": 41.121987,
            "lng": 1.20847,
            "name": "Pista de B\u00e0squet"
        },
        "1312008fe82b42919fcd809376714063.16": {
            "guid": "1312008fe82b42919fcd809376714063.16",
            "lat": 41.12098,
            "lng": 1.216403,
            "name": "Institut Municipal de Serveis Socials"
        },
        "13215c07044849b381be5bf75cb7649d.16": {
            "guid": "13215c07044849b381be5bf75cb7649d.16",
            "lat": 41.164857,
            "lng": 1.106164,
            "name": "Animals Aqu\u00e0tics"
        },
        "13443dbc07a6471c92048697efa7dd8f.16": {
            "guid": "13443dbc07a6471c92048697efa7dd8f.16",
            "lat": 41.119287,
            "lng": 1.21852,
            "name": "Entrada Pla\u00e7a Primer de Maig"
        },
        "135b366c95494a71b737f1573a55ca24.16": {
            "guid": "135b366c95494a71b737f1573a55ca24.16",
            "lat": 41.121633,
            "lng": 1.203328,
            "name": "Campo de rugby"
        },
        "1364f38e70da47ebb5915997db54b672.16": {
            "guid": "1364f38e70da47ebb5915997db54b672.16",
            "lat": 41.119252,
            "lng": 1.210547,
            "name": "La Chica Estilista"
        },
        "13a3098faa924816a94b4b7c9dc18595.16": {
            "guid": "13a3098faa924816a94b4b7c9dc18595.16",
            "lat": 41.150406,
            "lng": 1.11811,
            "name": "Centre c\u00edvic Mas Abell\u00f3 "
        },
        "13d3d2a0131640ce8336aa21a70821f1.16": {
            "guid": "13d3d2a0131640ce8336aa21a70821f1.16",
            "lat": 41.147155,
            "lng": 1.241684,
            "name": "Columna Romana"
        },
        "13efd5d063df4055b904055a6e237364.16": {
            "guid": "13efd5d063df4055b904055a6e237364.16",
            "lat": 41.163548,
            "lng": 1.104856,
            "name": "Cisterna D'Aigua"
        },
        "1411970b0f2946a3b7f560b8e57697a2.16": {
            "guid": "1411970b0f2946a3b7f560b8e57697a2.16",
            "lat": 41.118409,
            "lng": 1.261365,
            "name": "Fisherman Statue"
        },
        "1428de6952824108a49ffe6d8ac85fb6.16": {
            "guid": "1428de6952824108a49ffe6d8ac85fb6.16",
            "lat": 41.117099,
            "lng": 1.242787,
            "name": "\u00c0rea per a gossos"
        },
        "142b027f0711485a98f6eca19e7a60c7.11": {
            "guid": "142b027f0711485a98f6eca19e7a60c7.11",
            "lat": 41.117363,
            "lng": 1.254392,
            "name": "Ajuntament de Tarragona"
        },
        "144821f1cf9349b49fffca1a908a312a.16": {
            "guid": "144821f1cf9349b49fffca1a908a312a.16",
            "lat": 41.147066,
            "lng": 1.120846,
            "name": "Esgl\u00e9sia Sant Bernat Calv\u00f3"
        },
        "1462b21013ab46a885db06ae8aa1eee2.16": {
            "guid": "1462b21013ab46a885db06ae8aa1eee2.16",
            "lat": 41.151008,
            "lng": 1.121634,
            "name": "RutesReus"
        },
        "15053f193656458cb0cfb2fffa408d63.16": {
            "guid": "15053f193656458cb0cfb2fffa408d63.16",
            "lat": 41.16673,
            "lng": 1.247752,
            "name": "Pl\u00e0nol de Sant Salvador"
        },
        "157e5a285ed5458696ae7f41ac97c462.16": {
            "guid": "157e5a285ed5458696ae7f41ac97c462.16",
            "lat": 41.10964,
            "lng": 1.248309,
            "name": "Museu del Port"
        },
        "15a2998a7f37404d972b1369d7abc1d0.11": {
            "guid": "15a2998a7f37404d972b1369d7abc1d0.11",
            "lat": 41.147909,
            "lng": 1.102857,
            "name": "Mas Vilanova"
        },
        "15b32d7953474bba89c95d445aa7a61a.16": {
            "guid": "15b32d7953474bba89c95d445aa7a61a.16",
            "lat": 41.160955,
            "lng": 1.105218,
            "name": "In memoriam"
        },
        "15b38c20114146fb8eb3007c6a2c33bf.16": {
            "guid": "15b38c20114146fb8eb3007c6a2c33bf.16",
            "lat": 41.146162,
            "lng": 1.134779,
            "name": "Walnu\u00df Monument"
        },
        "15d6802036254e2cace72e7167f4903f.16": {
            "guid": "15d6802036254e2cace72e7167f4903f.16",
            "lat": 41.135893,
            "lng": 1.273541,
            "name": "Antiga Torre de Vigil\u00e0ncia"
        },
        "16033e251f494d358e44aa79e3e33c9f.16": {
            "guid": "16033e251f494d358e44aa79e3e33c9f.16",
            "lat": 41.117695,
            "lng": 1.262108,
            "name": "New Woman Statue"
        },
        "1614f47a99d146f4bb713ae49ba139a4.16": {
            "guid": "1614f47a99d146f4bb713ae49ba139a4.16",
            "lat": 41.11731,
            "lng": 1.254797,
            "name": "Totem Ull"
        },
        "1615aac76dd0411a8525fa591e63d87f.16": {
            "guid": "1615aac76dd0411a8525fa591e63d87f.16",
            "lat": 41.146109,
            "lng": 1.102925,
            "name": "Bullet in the Head"
        },
        "1618ba61b15142b484fe64360cd4db86.16": {
            "guid": "1618ba61b15142b484fe64360cd4db86.16",
            "lat": 41.122008,
            "lng": 1.255295,
            "name": "Aq\u00fceducte"
        },
        "1651446eb98c4b1cbc01a301243f531c.16": {
            "guid": "1651446eb98c4b1cbc01a301243f531c.16",
            "lat": 41.156694,
            "lng": 1.106625,
            "name": "Casa Querol"
        },
        "165c0545e7294658bb9c512d6ba14bff.16": {
            "guid": "165c0545e7294658bb9c512d6ba14bff.16",
            "lat": 41.155256,
            "lng": 1.108982,
            "name": "Casa Pinyol"
        },
        "1677031b9cff49efac8eb04665c20a9a.16": {
            "guid": "1677031b9cff49efac8eb04665c20a9a.16",
            "lat": 41.153294,
            "lng": 1.116521,
            "name": "pista de tenis club natacio reus ploms"
        },
        "1687056d5a7e4482b9402d3d42a57ca9.16": {
            "guid": "1687056d5a7e4482b9402d3d42a57ca9.16",
            "lat": 41.143378,
            "lng": 1.098123,
            "name": "Fuente Do Pino"
        },
        "16a89e62f5474366adf515f9fabfefc0.16": {
            "guid": "16a89e62f5474366adf515f9fabfefc0.16",
            "lat": 41.119089,
            "lng": 1.259495,
            "name": "Esgl\u00e9sia de Sant Lloren\u00e7"
        },
        "16acf309efa649b49219ff31ef985ca8.16": {
            "guid": "16acf309efa649b49219ff31ef985ca8.16",
            "lat": 41.123059,
            "lng": 1.192689,
            "name": "A Don Fausto"
        },
        "16bfd5b5988f47dba4372c0ecd07a694.16": {
            "guid": "16bfd5b5988f47dba4372c0ecd07a694.16",
            "lat": 41.122122,
            "lng": 1.25182,
            "name": "Graffiti peluquero"
        },
        "16c73c7a1acb41f886e20f1b0ea38503.16": {
            "guid": "16c73c7a1acb41f886e20f1b0ea38503.16",
            "lat": 41.151687,
            "lng": 1.117976,
            "name": "Helios"
        },
        "16d2cd0028314df68086a4027b4d5dc9.16": {
            "guid": "16d2cd0028314df68086a4027b4d5dc9.16",
            "lat": 41.114273,
            "lng": 1.253152,
            "name": "Escola Municipal de M\u00fasica"
        },
        "17370e92bc854708b12affa6d4e70e9f.16": {
            "guid": "17370e92bc854708b12affa6d4e70e9f.16",
            "lat": 41.118435,
            "lng": 1.270921,
            "name": "Sol negre"
        },
        "173b0483b5cc410292558fc7178174cf.16": {
            "guid": "173b0483b5cc410292558fc7178174cf.16",
            "lat": 41.119721,
            "lng": 1.243582,
            "name": "La Magistral"
        },
        "1743a87099da4d6e85dd43140e6b4ba1.16": {
            "guid": "1743a87099da4d6e85dd43140e6b4ba1.16",
            "lat": 41.120384,
            "lng": 1.246835,
            "name": "Poliesportiu Sagrat Cor"
        },
        "1789ab12803944f0a86cf7764de33eeb.16": {
            "guid": "1789ab12803944f0a86cf7764de33eeb.16",
            "lat": 41.143789,
            "lng": 1.273494,
            "name": "Urna Fara\u00f2nica"
        },
        "17b52d068e2c4154a0adb98206fab0a6.16": {
            "guid": "17b52d068e2c4154a0adb98206fab0a6.16",
            "lat": 41.113455,
            "lng": 1.251077,
            "name": "Fanal Barroc 2.0"
        },
        "17c3c3d6ec2643e997299879bb1163ed.16": {
            "guid": "17c3c3d6ec2643e997299879bb1163ed.16",
            "lat": 41.162761,
            "lng": 1.100519,
            "name": "Death Cherry"
        },
        "17f55e1e7efd43728839744431ecb3c9.16": {
            "guid": "17f55e1e7efd43728839744431ecb3c9.16",
            "lat": 41.161254,
            "lng": 1.096091,
            "name": "Placeta Miquel Escudero"
        },
        "17fa63727c254d79aa429bb4b9122a94.16": {
            "guid": "17fa63727c254d79aa429bb4b9122a94.16",
            "lat": 41.122523,
            "lng": 1.244182,
            "name": "Parc Avinguda Andorra"
        },
        "1804b4c3c1b14dfe964a5f8aaa53790e.16": {
            "guid": "1804b4c3c1b14dfe964a5f8aaa53790e.16",
            "lat": 41.15035,
            "lng": 1.103064,
            "name": "Croissant Grafitti"
        },
        "1870416191674992a8761cb8940d47c2.16": {
            "guid": "1870416191674992a8761cb8940d47c2.16",
            "lat": 41.153777,
            "lng": 1.102859,
            "name": "Pin Up"
        },
        "18796da84f0e40ffb1d13b8a3e44b77c.16": {
            "guid": "18796da84f0e40ffb1d13b8a3e44b77c.16",
            "lat": 41.11814,
            "lng": 1.260039,
            "name": "Casa Canals"
        },
        "18b77d6229eb40f4bd01f92d0130d850.16": {
            "guid": "18b77d6229eb40f4bd01f92d0130d850.16",
            "lat": 41.113595,
            "lng": 1.270885,
            "name": "Sant Mag\u00ed"
        },
        "196911721f6c41cf93a069cd1d7bce10.16": {
            "guid": "196911721f6c41cf93a069cd1d7bce10.16",
            "lat": 41.120418,
            "lng": 1.248153,
            "name": "Esgl\u00e9sia Col\u00b7legi Sagrat Cor"
        },
        "197ab5a4bb0849f18809d357969426e6.16": {
            "guid": "197ab5a4bb0849f18809d357969426e6.16",
            "lat": 41.145942,
            "lng": 1.120809,
            "name": "URV Nutrici\u00f3 I Salut"
        },
        "19b22d2e9baa46f0b63a2e655f8124e2.16": {
            "guid": "19b22d2e9baa46f0b63a2e655f8124e2.16",
            "lat": 41.120169,
            "lng": 1.242691,
            "name": "Palau de Just\u00edcia"
        },
        "19c6f2006e75478ea7b7af4ea9f7db4c.16": {
            "guid": "19c6f2006e75478ea7b7af4ea9f7db4c.16",
            "lat": 41.159292,
            "lng": 1.099316,
            "name": "Exorcism Hearth"
        },
        "19c8e4cf6bab481db9060a7334d41aba.11": {
            "guid": "19c8e4cf6bab481db9060a7334d41aba.11",
            "lat": 41.109702,
            "lng": 1.242054,
            "name": "Mar Patria"
        },
        "19d69fefbc9d4098b5869f1b169ccc55.16": {
            "guid": "19d69fefbc9d4098b5869f1b169ccc55.16",
            "lat": 41.122718,
            "lng": 1.195763,
            "name": "Piscina Municipal bonavista"
        },
        "19dbfb06cc6143f2aa035898f4e788ef.16": {
            "guid": "19dbfb06cc6143f2aa035898f4e788ef.16",
            "lat": 41.149749,
            "lng": 1.097491,
            "name": "Campos de Petanca"
        },
        "1a050813b1ce49328eba0e22abead618.16": {
            "guid": "1a050813b1ce49328eba0e22abead618.16",
            "lat": 41.143434,
            "lng": 1.100015,
            "name": "Capella De L'anunciaci\u00f3"
        },
        "1af54e96bbdf475987bc0df7a8b2831f.16": {
            "guid": "1af54e96bbdf475987bc0df7a8b2831f.16",
            "lat": 41.117538,
            "lng": 1.252491,
            "name": "Central de Bibloteques de Tarragona"
        },
        "1b05f4882d7e4de99a210d231b5cd56e.16": {
            "guid": "1b05f4882d7e4de99a210d231b5cd56e.16",
            "lat": 41.155948,
            "lng": 1.117331,
            "name": "Pista de petanca"
        },
        "1b23cdaca25f4b758ae9899ccc1509a4.16": {
            "guid": "1b23cdaca25f4b758ae9899ccc1509a4.16",
            "lat": 41.148513,
            "lng": 1.120652,
            "name": "Grafiti Paleta"
        },
        "1b47a5a2cecb435f9dfba243da12eb45.16": {
            "guid": "1b47a5a2cecb435f9dfba243da12eb45.16",
            "lat": 41.109458,
            "lng": 1.242503,
            "name": "Caseta De Fusta"
        },
        "1b6423e48e4e46fd8dc3070e99df0c6d.16": {
            "guid": "1b6423e48e4e46fd8dc3070e99df0c6d.16",
            "lat": 41.114646,
            "lng": 1.254072,
            "name": "Detall casc fa\u00e7ana"
        },
        "1b7d074bff8a45118533d96c0eeb4682.16": {
            "guid": "1b7d074bff8a45118533d96c0eeb4682.16",
            "lat": 41.153641,
            "lng": 1.102676,
            "name": "Parking graffity"
        },
        "1ba5c9ff5cae455890408d17e7493e1c.16": {
            "guid": "1ba5c9ff5cae455890408d17e7493e1c.16",
            "lat": 41.117463,
            "lng": 1.259384,
            "name": "Arc Rom\u00e0"
        },
        "1bb7e4e720ff46cabbb1c7fea29c980b.16": {
            "guid": "1bb7e4e720ff46cabbb1c7fea29c980b.16",
            "lat": 41.15011,
            "lng": 1.117704,
            "name": "Pista MultiSports"
        },
        "1bbea09b6c3d451fac9aef41eb598544.12": {
            "guid": "1bbea09b6c3d451fac9aef41eb598544.12",
            "lat": 41.116478,
            "lng": 1.258447,
            "name": "C\u00e8sar August mirant el Mediterrani"
        },
        "1bc5ea19ee824a6bad668eade293602f.16": {
            "guid": "1bc5ea19ee824a6bad668eade293602f.16",
            "lat": 41.11209,
            "lng": 1.248839,
            "name": "Graffiti de mariposas de colores"
        },
        "1bddafcc75764af6b6f777642cec4a9b.16": {
            "guid": "1bddafcc75764af6b6f777642cec4a9b.16",
            "lat": 41.113107,
            "lng": 1.250998,
            "name": "Mitja lluna"
        },
        "1c0a751718044193a7f7891390ef145e.16": {
            "guid": "1c0a751718044193a7f7891390ef145e.16",
            "lat": 41.115856,
            "lng": 1.183523,
            "name": "Area per a gossos"
        },
        "1c0d97f718204d568d0ed73f08ced1eb.16": {
            "guid": "1c0d97f718204d568d0ed73f08ced1eb.16",
            "lat": 41.116668,
            "lng": 1.211958,
            "name": "Houses"
        },
        "1c63db7927e8415ab194edb6681a239b.16": {
            "guid": "1c63db7927e8415ab194edb6681a239b.16",
            "lat": 41.15925,
            "lng": 1.103971,
            "name": "Pla\u00e7a Del V\u00edctor"
        },